{
  "type" : "FeatureCollection",
  "features" : [ {
    "type" : "Feature",
    "properties" : {
      "TIPO_EVENTO" : "1",
      "DEPARTAMENTO" : "CESAR",
      "TIPO_AREA" : "Rural",
      "AÑO" : "1996",
      "MUNICIPIO" : "AGUACHICA"
    },
    "geometry" : {
      "type" : "Point",
      "coordinates" : [ -73.576768, 8.246159 ]
    }
  }, {
    "type" : "Feature",
    "properties" : {
      "TIPO_EVENTO" : "1",
      "DEPARTAMENTO" : "CESAR",
      "TIPO_AREA" : "Rural",
      "AÑO" : "1996",
      "MUNICIPIO" : "PELAYA"
    },
    "geometry" : {
      "type" : "Point",
      "coordinates" : [ -73.665121, 8.689091 ]
    }
  }, {
    "type" : "Feature",
    "properties" : {
      "TIPO_EVENTO" : "1",
      "DEPARTAMENTO" : "SUCRE",
      "TIPO_AREA" : "Rural",
      "AÑO" : "1996",
      "MUNICIPIO" : "MAJAGUAL"
    },
    "geometry" : {
      "type" : "Point",
      "coordinates" : [ -74.60353, 8.541209 ]
    }
  }, {
    "type" : "Feature",
    "properties" : {
      "TIPO_EVENTO" : "2",
      "DEPARTAMENTO" : "ANTIOQUIA",
      "TIPO_AREA" : "Rural",
      "AÑO" : "1996",
      "MUNICIPIO" : "CHIGORODÓ"
    },
    "geometry" : {
      "type" : "Point",
      "coordinates" : [ -76.680413, 7.665416 ]
    }
  }, {
    "type" : "Feature",
    "properties" : {
      "TIPO_EVENTO" : "1",
      "DEPARTAMENTO" : "ANTIOQUIA",
      "TIPO_AREA" : "Rural",
      "AÑO" : "1996",
      "MUNICIPIO" : "TURBO"
    },
    "geometry" : {
      "type" : "Point",
      "coordinates" : [ -76.73923237, 8.099159651 ]
    }
  }, {
    "type" : "Feature",
    "properties" : {
      "TIPO_EVENTO" : "1",
      "DEPARTAMENTO" : "ANTIOQUIA",
      "TIPO_AREA" : "Rural",
      "AÑO" : "1996",
      "MUNICIPIO" : "TURBO"
    },
    "geometry" : {
      "type" : "Point",
      "coordinates" : [ -76.73923237, 8.099159651 ]
    }
  }, {
    "type" : "Feature",
    "properties" : {
      "TIPO_EVENTO" : "1",
      "DEPARTAMENTO" : "BOGOTA DC",
      "TIPO_AREA" : "Rural",
      "AÑO" : "1996",
      "MUNICIPIO" : "Bogotá DC"
    },
    "geometry" : {
      "type" : "Point",
      "coordinates" : [ -74.146592, 4.680486 ]
    }
  }, {
    "type" : "Feature",
    "properties" : {
      "TIPO_EVENTO" : "2",
      "DEPARTAMENTO" : "ANTIOQUIA",
      "TIPO_AREA" : "Rural",
      "AÑO" : "1996",
      "MUNICIPIO" : "YONDÓ"
    },
    "geometry" : {
      "type" : "Point",
      "coordinates" : [ -73.909682, 7.006776 ]
    }
  }, {
    "type" : "Feature",
    "properties" : {
      "TIPO_EVENTO" : "1",
      "DEPARTAMENTO" : "CAQUETA",
      "TIPO_AREA" : "Rural",
      "AÑO" : "1996",
      "MUNICIPIO" : "CARTAGENA DEL CHAIRÁ"
    },
    "geometry" : {
      "type" : "Point",
      "coordinates" : [ -74.843733, 1.335258 ]
    }
  }, {
    "type" : "Feature",
    "properties" : {
      "TIPO_EVENTO" : "1",
      "DEPARTAMENTO" : "ANTIOQUIA",
      "TIPO_AREA" : "Rural",
      "AÑO" : "1996",
      "MUNICIPIO" : "SANTA FE ANTIOQUIA"
    },
    "geometry" : {
      "type" : "Point",
      "coordinates" : [ -75.825988, 6.558578 ]
    }
  }, {
    "type" : "Feature",
    "properties" : {
      "TIPO_EVENTO" : "1",
      "DEPARTAMENTO" : "CESAR",
      "TIPO_AREA" : "Rural",
      "AÑO" : "1996",
      "MUNICIPIO" : "SAN ALBERTO"
    },
    "geometry" : {
      "type" : "Point",
      "coordinates" : [ -73.3961001, 7.76369293 ]
    }
  }, {
    "type" : "Feature",
    "properties" : {
      "TIPO_EVENTO" : "1",
      "DEPARTAMENTO" : "MAGDALENA",
      "TIPO_AREA" : "Rural",
      "AÑO" : "1996",
      "MUNICIPIO" : "CIÉNAGA"
    },
    "geometry" : {
      "type" : "Point",
      "coordinates" : [ -74.225174, 10.99492 ]
    }
  }, {
    "type" : "Feature",
    "properties" : {
      "TIPO_EVENTO" : "1",
      "DEPARTAMENTO" : "GUAVIARE",
      "TIPO_AREA" : "Rural",
      "AÑO" : "1996",
      "MUNICIPIO" : "EL RETORNO"
    },
    "geometry" : {
      "type" : "Point",
      "coordinates" : [ -72.62777, 2.330752 ]
    }
  }, {
    "type" : "Feature",
    "properties" : {
      "TIPO_EVENTO" : "2",
      "DEPARTAMENTO" : "BOLIVAR",
      "TIPO_AREA" : "Urbana",
      "AÑO" : "1996",
      "MUNICIPIO" : "ACHÍ"
    },
    "geometry" : {
      "type" : "Point",
      "coordinates" : [ -74.560996, 8.573333 ]
    }
  }, {
    "type" : "Feature",
    "properties" : {
      "TIPO_EVENTO" : "1",
      "DEPARTAMENTO" : "CAUCA",
      "TIPO_AREA" : "Rural",
      "AÑO" : "1996",
      "MUNICIPIO" : "ARGELIA"
    },
    "geometry" : {
      "type" : "Point",
      "coordinates" : [ -77.248947, 2.255802 ]
    }
  }, {
    "type" : "Feature",
    "properties" : {
      "TIPO_EVENTO" : "2",
      "DEPARTAMENTO" : "CESAR",
      "TIPO_AREA" : "Rural",
      "AÑO" : "1996",
      "MUNICIPIO" : "AGUACHICA"
    },
    "geometry" : {
      "type" : "Point",
      "coordinates" : [ -73.576768, 8.246159 ]
    }
  }, {
    "type" : "Feature",
    "properties" : {
      "TIPO_EVENTO" : "1",
      "DEPARTAMENTO" : "BOLIVAR",
      "TIPO_AREA" : "Rural",
      "AÑO" : "1996",
      "MUNICIPIO" : "SAN PABLO"
    },
    "geometry" : {
      "type" : "Point",
      "coordinates" : [ -73.933361, 7.483919 ]
    }
  }, {
    "type" : "Feature",
    "properties" : {
      "TIPO_EVENTO" : "1",
      "DEPARTAMENTO" : "ANTIOQUIA",
      "TIPO_AREA" : "Rural",
      "AÑO" : "1996",
      "MUNICIPIO" : "SONSÓN"
    },
    "geometry" : {
      "type" : "Point",
      "coordinates" : [ -75.310278, 5.709167 ]
    }
  }, {
    "type" : "Feature",
    "properties" : {
      "TIPO_EVENTO" : "1",
      "DEPARTAMENTO" : "CAQUETA",
      "TIPO_AREA" : "Rural",
      "AÑO" : "1996",
      "MUNICIPIO" : "FLORENCIA"
    },
    "geometry" : {
      "type" : "Point",
      "coordinates" : [ -75.619118, 1.621012 ]
    }
  }, {
    "type" : "Feature",
    "properties" : {
      "TIPO_EVENTO" : "1",
      "DEPARTAMENTO" : "GUAVIARE",
      "TIPO_AREA" : "Rural",
      "AÑO" : "1996",
      "MUNICIPIO" : "SAN JOSÉ DEL GUAVIARE"
    },
    "geometry" : {
      "type" : "Point",
      "coordinates" : [ -72.640033, 2.564079 ]
    }
  }, {
    "type" : "Feature",
    "properties" : {
      "TIPO_EVENTO" : "1",
      "DEPARTAMENTO" : "BOLIVAR",
      "TIPO_AREA" : "Rural",
      "AÑO" : "1996",
      "MUNICIPIO" : "EL CARMEN DE BOLÍVAR"
    },
    "geometry" : {
      "type" : "Point",
      "coordinates" : [ -75.122094, 9.685015 ]
    }
  }, {
    "type" : "Feature",
    "properties" : {
      "TIPO_EVENTO" : "1",
      "DEPARTAMENTO" : "META",
      "TIPO_AREA" : "Rural",
      "AÑO" : "1996",
      "MUNICIPIO" : "SAN JUANITO"
    },
    "geometry" : {
      "type" : "Point",
      "coordinates" : [ -73.676674, 4.45832 ]
    }
  }, {
    "type" : "Feature",
    "properties" : {
      "TIPO_EVENTO" : "1",
      "DEPARTAMENTO" : "SUCRE",
      "TIPO_AREA" : "Rural",
      "AÑO" : "1996",
      "MUNICIPIO" : "OVEJAS"
    },
    "geometry" : {
      "type" : "Point",
      "coordinates" : [ -75.229197, 9.517463 ]
    }
  }, {
    "type" : "Feature",
    "properties" : {
      "TIPO_EVENTO" : "2",
      "DEPARTAMENTO" : "ANTIOQUIA",
      "TIPO_AREA" : "Urbana",
      "AÑO" : "1996",
      "MUNICIPIO" : "CISNEROS"
    },
    "geometry" : {
      "type" : "Point",
      "coordinates" : [ -75.089167, 6.539213 ]
    }
  }, {
    "type" : "Feature",
    "properties" : {
      "TIPO_EVENTO" : "1",
      "DEPARTAMENTO" : "NORTE DE SANTANDER",
      "TIPO_AREA" : "Rural",
      "AÑO" : "1996",
      "MUNICIPIO" : "CONVENCIÓN"
    },
    "geometry" : {
      "type" : "Point",
      "coordinates" : [ -73.336059, 8.475334 ]
    }
  }, {
    "type" : "Feature",
    "properties" : {
      "TIPO_EVENTO" : "1",
      "DEPARTAMENTO" : "META",
      "TIPO_AREA" : "Rural",
      "AÑO" : "1996",
      "MUNICIPIO" : "LEJANÍAS"
    },
    "geometry" : {
      "type" : "Point",
      "coordinates" : [ -74.003888, 3.517426 ]
    }
  }, {
    "type" : "Feature",
    "properties" : {
      "TIPO_EVENTO" : "1",
      "DEPARTAMENTO" : "CAQUETA",
      "TIPO_AREA" : "Rural",
      "AÑO" : "1996",
      "MUNICIPIO" : "FLORENCIA"
    },
    "geometry" : {
      "type" : "Point",
      "coordinates" : [ -75.619118, 1.621012 ]
    }
  }, {
    "type" : "Feature",
    "properties" : {
      "TIPO_EVENTO" : "1",
      "DEPARTAMENTO" : "META",
      "TIPO_AREA" : "Rural",
      "AÑO" : "1996",
      "MUNICIPIO" : "EL CALVARIO"
    },
    "geometry" : {
      "type" : "Point",
      "coordinates" : [ -73.713271, 4.352857 ]
    }
  }, {
    "type" : "Feature",
    "properties" : {
      "TIPO_EVENTO" : "1",
      "DEPARTAMENTO" : "ANTIOQUIA",
      "TIPO_AREA" : "Rural",
      "AÑO" : "1996",
      "MUNICIPIO" : "TURBO"
    },
    "geometry" : {
      "type" : "Point",
      "coordinates" : [ -76.73923237, 8.099159651 ]
    }
  }, {
    "type" : "Feature",
    "properties" : {
      "TIPO_EVENTO" : "1",
      "DEPARTAMENTO" : "ANTIOQUIA",
      "TIPO_AREA" : "Rural",
      "AÑO" : "1996",
      "MUNICIPIO" : "SAN LUIS"
    },
    "geometry" : {
      "type" : "Point",
      "coordinates" : [ -74.994899, 6.042723 ]
    }
  }, {
    "type" : "Feature",
    "properties" : {
      "TIPO_EVENTO" : "1",
      "DEPARTAMENTO" : "CAQUETA",
      "TIPO_AREA" : "Rural",
      "AÑO" : "1996",
      "MUNICIPIO" : "PUERTO RICO"
    },
    "geometry" : {
      "type" : "Point",
      "coordinates" : [ -75.159112, 1.909652 ]
    }
  }, {
    "type" : "Feature",
    "properties" : {
      "TIPO_EVENTO" : "1",
      "DEPARTAMENTO" : "CASANARE",
      "TIPO_AREA" : "Rural",
      "AÑO" : "1996",
      "MUNICIPIO" : "TÁMARA"
    },
    "geometry" : {
      "type" : "Point",
      "coordinates" : [ -72.162979, 5.829771 ]
    }
  }, {
    "type" : "Feature",
    "properties" : {
      "TIPO_EVENTO" : "1",
      "DEPARTAMENTO" : "ANTIOQUIA",
      "TIPO_AREA" : "Rural",
      "AÑO" : "1996",
      "MUNICIPIO" : "RIONEGRO"
    },
    "geometry" : {
      "type" : "Point",
      "coordinates" : [ -75.379345, 6.153403 ]
    }
  }, {
    "type" : "Feature",
    "properties" : {
      "TIPO_EVENTO" : "1",
      "DEPARTAMENTO" : "CAQUETA",
      "TIPO_AREA" : "Rural",
      "AÑO" : "1996",
      "MUNICIPIO" : "FLORENCIA"
    },
    "geometry" : {
      "type" : "Point",
      "coordinates" : [ -75.619118, 1.621012 ]
    }
  }, {
    "type" : "Feature",
    "properties" : {
      "TIPO_EVENTO" : "1",
      "DEPARTAMENTO" : "ANTIOQUIA",
      "TIPO_AREA" : "Rural",
      "AÑO" : "1996",
      "MUNICIPIO" : "CÁCERES"
    },
    "geometry" : {
      "type" : "Point",
      "coordinates" : [ -75.349999, 7.577332 ]
    }
  }, {
    "type" : "Feature",
    "properties" : {
      "TIPO_EVENTO" : "1",
      "DEPARTAMENTO" : "ANTIOQUIA",
      "TIPO_AREA" : "Rural",
      "AÑO" : "1996",
      "MUNICIPIO" : "SANTA FE ANTIOQUIA"
    },
    "geometry" : {
      "type" : "Point",
      "coordinates" : [ -75.825988, 6.558578 ]
    }
  }, {
    "type" : "Feature",
    "properties" : {
      "TIPO_EVENTO" : "1",
      "DEPARTAMENTO" : "GUAVIARE",
      "TIPO_AREA" : "Rural",
      "AÑO" : "1996",
      "MUNICIPIO" : "SAN JOSÉ DEL GUAVIARE"
    },
    "geometry" : {
      "type" : "Point",
      "coordinates" : [ -72.640033, 2.564079 ]
    }
  }, {
    "type" : "Feature",
    "properties" : {
      "TIPO_EVENTO" : "1",
      "DEPARTAMENTO" : "GUAVIARE",
      "TIPO_AREA" : "Rural",
      "AÑO" : "1996",
      "MUNICIPIO" : "SAN JOSÉ DEL GUAVIARE"
    },
    "geometry" : {
      "type" : "Point",
      "coordinates" : [ -72.640033, 2.564079 ]
    }
  }, {
    "type" : "Feature",
    "properties" : {
      "TIPO_EVENTO" : "1",
      "DEPARTAMENTO" : "GUAVIARE",
      "TIPO_AREA" : "Rural",
      "AÑO" : "1996",
      "MUNICIPIO" : "SAN JOSÉ DEL GUAVIARE"
    },
    "geometry" : {
      "type" : "Point",
      "coordinates" : [ -72.640033, 2.564079 ]
    }
  }, {
    "type" : "Feature",
    "properties" : {
      "TIPO_EVENTO" : "1",
      "DEPARTAMENTO" : "CAQUETA",
      "TIPO_AREA" : "Rural",
      "AÑO" : "1996",
      "MUNICIPIO" : "FLORENCIA"
    },
    "geometry" : {
      "type" : "Point",
      "coordinates" : [ -75.619118, 1.621012 ]
    }
  }, {
    "type" : "Feature",
    "properties" : {
      "TIPO_EVENTO" : "1",
      "DEPARTAMENTO" : "CAQUETA",
      "TIPO_AREA" : "Rural",
      "AÑO" : "1996",
      "MUNICIPIO" : "SAN VICENTE DEL CAGUÁN"
    },
    "geometry" : {
      "type" : "Point",
      "coordinates" : [ -74.768227, 2.120008 ]
    }
  }, {
    "type" : "Feature",
    "properties" : {
      "TIPO_EVENTO" : "1",
      "DEPARTAMENTO" : "GUAVIARE",
      "TIPO_AREA" : "Rural",
      "AÑO" : "1996",
      "MUNICIPIO" : "SAN JOSÉ DEL GUAVIARE"
    },
    "geometry" : {
      "type" : "Point",
      "coordinates" : [ -72.640033, 2.564079 ]
    }
  }, {
    "type" : "Feature",
    "properties" : {
      "TIPO_EVENTO" : "1",
      "DEPARTAMENTO" : "GUAVIARE",
      "TIPO_AREA" : "Rural",
      "AÑO" : "1996",
      "MUNICIPIO" : "SAN JOSÉ DEL GUAVIARE"
    },
    "geometry" : {
      "type" : "Point",
      "coordinates" : [ -72.640033, 2.564079 ]
    }
  }, {
    "type" : "Feature",
    "properties" : {
      "TIPO_EVENTO" : "1",
      "DEPARTAMENTO" : "META",
      "TIPO_AREA" : "Rural",
      "AÑO" : "1996",
      "MUNICIPIO" : "EL CASTILLO"
    },
    "geometry" : {
      "type" : "Point",
      "coordinates" : [ -73.7944, 3.5637 ]
    }
  }, {
    "type" : "Feature",
    "properties" : {
      "TIPO_EVENTO" : "1",
      "DEPARTAMENTO" : "CAUCA",
      "TIPO_AREA" : "Rural",
      "AÑO" : "1996",
      "MUNICIPIO" : "ARGELIA"
    },
    "geometry" : {
      "type" : "Point",
      "coordinates" : [ -77.248947, 2.255802 ]
    }
  }, {
    "type" : "Feature",
    "properties" : {
      "TIPO_EVENTO" : "1",
      "DEPARTAMENTO" : "BOLIVAR",
      "TIPO_AREA" : "Rural",
      "AÑO" : "1996",
      "MUNICIPIO" : "SAN PABLO"
    },
    "geometry" : {
      "type" : "Point",
      "coordinates" : [ -73.92028222, 7.479057778 ]
    }
  }, {
    "type" : "Feature",
    "properties" : {
      "TIPO_EVENTO" : "1",
      "DEPARTAMENTO" : "CESAR",
      "TIPO_AREA" : "Urbana",
      "AÑO" : "1996",
      "MUNICIPIO" : "PELAYA"
    },
    "geometry" : {
      "type" : "Point",
      "coordinates" : [ -73.55838639, 8.821094722 ]
    }
  }, {
    "type" : "Feature",
    "properties" : {
      "TIPO_EVENTO" : "1",
      "DEPARTAMENTO" : "GUAVIARE",
      "TIPO_AREA" : "Rural",
      "AÑO" : "1996",
      "MUNICIPIO" : "MIRAFLORES"
    },
    "geometry" : {
      "type" : "Point",
      "coordinates" : [ -71.951518, 1.336939 ]
    }
  }, {
    "type" : "Feature",
    "properties" : {
      "TIPO_EVENTO" : "4",
      "DEPARTAMENTO" : "ARAUCA",
      "TIPO_AREA" : "Rural",
      "AÑO" : "1996",
      "MUNICIPIO" : "TAME"
    },
    "geometry" : {
      "type" : "Point",
      "coordinates" : [ -71.739004, 6.462331 ]
    }
  }, {
    "type" : "Feature",
    "properties" : {
      "TIPO_EVENTO" : "4",
      "DEPARTAMENTO" : "CESAR",
      "TIPO_AREA" : "Rural",
      "AÑO" : "1996",
      "MUNICIPIO" : "AGUSTÍN CODAZZI"
    },
    "geometry" : {
      "type" : "Point",
      "coordinates" : [ -73.239035, 10.035868 ]
    }
  }, {
    "type" : "Feature",
    "properties" : {
      "TIPO_EVENTO" : "4",
      "DEPARTAMENTO" : "ANTIOQUIA",
      "TIPO_AREA" : "Rural",
      "AÑO" : "1996",
      "MUNICIPIO" : "CAMPAMENTO"
    },
    "geometry" : {
      "type" : "Point",
      "coordinates" : [ -75.296386, 6.979151 ]
    }
  }, {
    "type" : "Feature",
    "properties" : {
      "TIPO_EVENTO" : "4",
      "DEPARTAMENTO" : "BOLIVAR",
      "TIPO_AREA" : "Rural",
      "AÑO" : "1996",
      "MUNICIPIO" : "PINILLOS"
    },
    "geometry" : {
      "type" : "Point",
      "coordinates" : [ -74.465777, 8.916994 ]
    }
  }, {
    "type" : "Feature",
    "properties" : {
      "TIPO_EVENTO" : "4",
      "DEPARTAMENTO" : "NORTE DE SANTANDER",
      "TIPO_AREA" : "Rural",
      "AÑO" : "1996",
      "MUNICIPIO" : "ÁBREGO"
    },
    "geometry" : {
      "type" : "Point",
      "coordinates" : [ -73.221319, 8.081507 ]
    }
  }, {
    "type" : "Feature",
    "properties" : {
      "TIPO_EVENTO" : "4",
      "DEPARTAMENTO" : "BOYACA",
      "TIPO_AREA" : "Rural",
      "AÑO" : "1996",
      "MUNICIPIO" : "CHISCAS"
    },
    "geometry" : {
      "type" : "Point",
      "coordinates" : [ -72.500215, 6.552993 ]
    }
  }, {
    "type" : "Feature",
    "properties" : {
      "TIPO_EVENTO" : "4",
      "DEPARTAMENTO" : "CESAR",
      "TIPO_AREA" : "Rural",
      "AÑO" : "1996",
      "MUNICIPIO" : "SAN MARTÍN"
    },
    "geometry" : {
      "type" : "Point",
      "coordinates" : [ -73.516373, 8.003604 ]
    }
  }, {
    "type" : "Feature",
    "properties" : {
      "TIPO_EVENTO" : "4",
      "DEPARTAMENTO" : "VALLE DEL CAUCA",
      "TIPO_AREA" : "Rural",
      "AÑO" : "1996",
      "MUNICIPIO" : "CALI"
    },
    "geometry" : {
      "type" : "Point",
      "coordinates" : [ -76.520562, 3.441883 ]
    }
  }, {
    "type" : "Feature",
    "properties" : {
      "TIPO_EVENTO" : "4",
      "DEPARTAMENTO" : "ANTIOQUIA",
      "TIPO_AREA" : "Rural",
      "AÑO" : "1996",
      "MUNICIPIO" : "SANTA FE ANTIOQUIA"
    },
    "geometry" : {
      "type" : "Point",
      "coordinates" : [ -75.831014, 6.559309 ]
    }
  }, {
    "type" : "Feature",
    "properties" : {
      "TIPO_EVENTO" : "4",
      "DEPARTAMENTO" : "ANTIOQUIA",
      "TIPO_AREA" : "Rural",
      "AÑO" : "1996",
      "MUNICIPIO" : "SANTA FE ANTIOQUIA"
    },
    "geometry" : {
      "type" : "Point",
      "coordinates" : [ -75.831014, 6.559309 ]
    }
  }, {
    "type" : "Feature",
    "properties" : {
      "TIPO_EVENTO" : "4",
      "DEPARTAMENTO" : "ANTIOQUIA",
      "TIPO_AREA" : "Rural",
      "AÑO" : "1996",
      "MUNICIPIO" : "REMEDIOS"
    },
    "geometry" : {
      "type" : "Point",
      "coordinates" : [ -74.696332, 7.030573 ]
    }
  }, {
    "type" : "Feature",
    "properties" : {
      "TIPO_EVENTO" : "4",
      "DEPARTAMENTO" : "ANTIOQUIA",
      "TIPO_AREA" : "Rural",
      "AÑO" : "1996",
      "MUNICIPIO" : "RIONEGRO"
    },
    "geometry" : {
      "type" : "Point",
      "coordinates" : [ -75.377269, 6.157354 ]
    }
  }, {
    "type" : "Feature",
    "properties" : {
      "TIPO_EVENTO" : "4",
      "DEPARTAMENTO" : "BOLIVAR",
      "TIPO_AREA" : "Rural",
      "AÑO" : "1996",
      "MUNICIPIO" : "SANTA ROSA DEL SUR"
    },
    "geometry" : {
      "type" : "Point",
      "coordinates" : [ -74.055, 7.965 ]
    }
  }, {
    "type" : "Feature",
    "properties" : {
      "TIPO_EVENTO" : "4",
      "DEPARTAMENTO" : "BOYACA",
      "TIPO_AREA" : "Rural",
      "AÑO" : "1996",
      "MUNICIPIO" : "MONGUA"
    },
    "geometry" : {
      "type" : "Point",
      "coordinates" : [ -72.802202, 5.756455 ]
    }
  }, {
    "type" : "Feature",
    "properties" : {
      "TIPO_EVENTO" : "4",
      "DEPARTAMENTO" : "CAQUETA",
      "TIPO_AREA" : "Rural",
      "AÑO" : "1996",
      "MUNICIPIO" : "SAN VICENTE DEL CAGUÁN"
    },
    "geometry" : {
      "type" : "Point",
      "coordinates" : [ -74.768227, 2.120008 ]
    }
  }, {
    "type" : "Feature",
    "properties" : {
      "TIPO_EVENTO" : "4",
      "DEPARTAMENTO" : "HUILA",
      "TIPO_AREA" : "Rural",
      "AÑO" : "1996",
      "MUNICIPIO" : "ACEVEDO"
    },
    "geometry" : {
      "type" : "Point",
      "coordinates" : [ -75.889013, 1.805222 ]
    }
  }, {
    "type" : "Feature",
    "properties" : {
      "TIPO_EVENTO" : "4",
      "DEPARTAMENTO" : "MAGDALENA",
      "TIPO_AREA" : "Rural",
      "AÑO" : "1996",
      "MUNICIPIO" : "CIÉNAGA"
    },
    "geometry" : {
      "type" : "Point",
      "coordinates" : [ -74.225174, 10.99492 ]
    }
  }, {
    "type" : "Feature",
    "properties" : {
      "TIPO_EVENTO" : "4",
      "DEPARTAMENTO" : "META",
      "TIPO_AREA" : "Rural",
      "AÑO" : "1996",
      "MUNICIPIO" : "EL CASTILLO"
    },
    "geometry" : {
      "type" : "Point",
      "coordinates" : [ -73.798315, 3.565374 ]
    }
  }, {
    "type" : "Feature",
    "properties" : {
      "TIPO_EVENTO" : "4",
      "DEPARTAMENTO" : "NARIÑO",
      "TIPO_AREA" : "Rural",
      "AÑO" : "1996",
      "MUNICIPIO" : "PUERRES"
    },
    "geometry" : {
      "type" : "Point",
      "coordinates" : [ -77.483333, 0.866667 ]
    }
  }, {
    "type" : "Feature",
    "properties" : {
      "TIPO_EVENTO" : "4",
      "DEPARTAMENTO" : "NORTE DE SANTANDER",
      "TIPO_AREA" : "Rural",
      "AÑO" : "1996",
      "MUNICIPIO" : "EL CARMEN"
    },
    "geometry" : {
      "type" : "Point",
      "coordinates" : [ -73.451078, 8.51298 ]
    }
  }, {
    "type" : "Feature",
    "properties" : {
      "TIPO_EVENTO" : "4",
      "DEPARTAMENTO" : "NORTE DE SANTANDER",
      "TIPO_AREA" : "Rural",
      "AÑO" : "1996",
      "MUNICIPIO" : "EL ZULIA"
    },
    "geometry" : {
      "type" : "Point",
      "coordinates" : [ -72.605083, 7.935819 ]
    }
  }, {
    "type" : "Feature",
    "properties" : {
      "TIPO_EVENTO" : "4",
      "DEPARTAMENTO" : "NORTE DE SANTANDER",
      "TIPO_AREA" : "Rural",
      "AÑO" : "1996",
      "MUNICIPIO" : "ÁBREGO"
    },
    "geometry" : {
      "type" : "Point",
      "coordinates" : [ -73.221319, 8.081507 ]
    }
  }, {
    "type" : "Feature",
    "properties" : {
      "TIPO_EVENTO" : "4",
      "DEPARTAMENTO" : "NORTE DE SANTANDER",
      "TIPO_AREA" : "Rural",
      "AÑO" : "1996",
      "MUNICIPIO" : "ÁBREGO"
    },
    "geometry" : {
      "type" : "Point",
      "coordinates" : [ -73.221319, 8.081507 ]
    }
  }, {
    "type" : "Feature",
    "properties" : {
      "TIPO_EVENTO" : "4",
      "DEPARTAMENTO" : "NORTE DE SANTANDER",
      "TIPO_AREA" : "Rural",
      "AÑO" : "1996",
      "MUNICIPIO" : "ÁBREGO"
    },
    "geometry" : {
      "type" : "Point",
      "coordinates" : [ -73.221319, 8.081507 ]
    }
  }, {
    "type" : "Feature",
    "properties" : {
      "TIPO_EVENTO" : "4",
      "DEPARTAMENTO" : "NORTE DE SANTANDER",
      "TIPO_AREA" : "Rural",
      "AÑO" : "1996",
      "MUNICIPIO" : "ÁBREGO"
    },
    "geometry" : {
      "type" : "Point",
      "coordinates" : [ -73.221319, 8.081507 ]
    }
  }, {
    "type" : "Feature",
    "properties" : {
      "TIPO_EVENTO" : "4",
      "DEPARTAMENTO" : "NORTE DE SANTANDER",
      "TIPO_AREA" : "Rural",
      "AÑO" : "1996",
      "MUNICIPIO" : "TIBÚ"
    },
    "geometry" : {
      "type" : "Point",
      "coordinates" : [ -72.906111, 9.002222 ]
    }
  }, {
    "type" : "Feature",
    "properties" : {
      "TIPO_EVENTO" : "4",
      "DEPARTAMENTO" : "SANTANDER",
      "TIPO_AREA" : "Rural",
      "AÑO" : "1996",
      "MUNICIPIO" : "BARRANCABERMEJA"
    },
    "geometry" : {
      "type" : "Point",
      "coordinates" : [ -73.855997, 7.061193 ]
    }
  }, {
    "type" : "Feature",
    "properties" : {
      "TIPO_EVENTO" : "4",
      "DEPARTAMENTO" : "SANTANDER",
      "TIPO_AREA" : "Rural",
      "AÑO" : "1996",
      "MUNICIPIO" : "BETULIA"
    },
    "geometry" : {
      "type" : "Point",
      "coordinates" : [ -73.284055, 6.904414 ]
    }
  }, {
    "type" : "Feature",
    "properties" : {
      "TIPO_EVENTO" : "4",
      "DEPARTAMENTO" : "ARAUCA",
      "TIPO_AREA" : "Rural",
      "AÑO" : "1996",
      "MUNICIPIO" : "TAME"
    },
    "geometry" : {
      "type" : "Point",
      "coordinates" : [ -71.739004, 6.462331 ]
    }
  }, {
    "type" : "Feature",
    "properties" : {
      "TIPO_EVENTO" : "4",
      "DEPARTAMENTO" : "PUTUMAYO",
      "TIPO_AREA" : "Rural",
      "AÑO" : "1996",
      "MUNICIPIO" : "VALLE DEL GUAMUEZ"
    },
    "geometry" : {
      "type" : "Point",
      "coordinates" : [ -76.913383, 0.409699 ]
    }
  }, {
    "type" : "Feature",
    "properties" : {
      "TIPO_EVENTO" : "4",
      "DEPARTAMENTO" : "GUAVIARE",
      "TIPO_AREA" : "Rural",
      "AÑO" : "1996",
      "MUNICIPIO" : "SAN JOSÉ DEL GUAVIARE"
    },
    "geometry" : {
      "type" : "Point",
      "coordinates" : [ -72.642524, 2.553594 ]
    }
  }, {
    "type" : "Feature",
    "properties" : {
      "TIPO_EVENTO" : "4",
      "DEPARTAMENTO" : "GUAVIARE",
      "TIPO_AREA" : "Rural",
      "AÑO" : "1996",
      "MUNICIPIO" : "SAN JOSÉ DEL GUAVIARE"
    },
    "geometry" : {
      "type" : "Point",
      "coordinates" : [ -72.642524, 2.553594 ]
    }
  }, {
    "type" : "Feature",
    "properties" : {
      "TIPO_EVENTO" : "4",
      "DEPARTAMENTO" : "SANTANDER",
      "TIPO_AREA" : "Rural",
      "AÑO" : "1996",
      "MUNICIPIO" : "BARRANCABERMEJA"
    },
    "geometry" : {
      "type" : "Point",
      "coordinates" : [ -73.855997, 7.061193 ]
    }
  }, {
    "type" : "Feature",
    "properties" : {
      "TIPO_EVENTO" : "4",
      "DEPARTAMENTO" : "MAGDALENA",
      "TIPO_AREA" : "Urbana",
      "AÑO" : "1996",
      "MUNICIPIO" : "CIÉNAGA"
    },
    "geometry" : {
      "type" : "Point",
      "coordinates" : [ -74.254311, 11.00965 ]
    }
  }, {
    "type" : "Feature",
    "properties" : {
      "TIPO_EVENTO" : "4",
      "DEPARTAMENTO" : "ANTIOQUIA",
      "TIPO_AREA" : "Rural",
      "AÑO" : "1996",
      "MUNICIPIO" : "PEQUE"
    },
    "geometry" : {
      "type" : "Point",
      "coordinates" : [ -75.913057, 7.024639 ]
    }
  }, {
    "type" : "Feature",
    "properties" : {
      "TIPO_EVENTO" : "4",
      "DEPARTAMENTO" : "SUCRE",
      "TIPO_AREA" : "Rural",
      "AÑO" : "1996",
      "MUNICIPIO" : "OVEJAS"
    },
    "geometry" : {
      "type" : "Point",
      "coordinates" : [ -75.233866, 9.527832 ]
    }
  }, {
    "type" : "Feature",
    "properties" : {
      "TIPO_EVENTO" : "5",
      "DEPARTAMENTO" : "ANTIOQUIA",
      "TIPO_AREA" : "Rural",
      "AÑO" : "1996",
      "MUNICIPIO" : "SEGOVIA"
    },
    "geometry" : {
      "type" : "Point",
      "coordinates" : [ -74.703643, 7.083547 ]
    }
  }, {
    "type" : "Feature",
    "properties" : {
      "TIPO_EVENTO" : "5",
      "DEPARTAMENTO" : "ANTIOQUIA",
      "TIPO_AREA" : "Rural",
      "AÑO" : "1996",
      "MUNICIPIO" : "SANTA FE ANTIOQUIA"
    },
    "geometry" : {
      "type" : "Point",
      "coordinates" : [ -75.825988, 6.558578 ]
    }
  }, {
    "type" : "Feature",
    "properties" : {
      "TIPO_EVENTO" : "5",
      "DEPARTAMENTO" : "ANTIOQUIA",
      "TIPO_AREA" : "Rural",
      "AÑO" : "1996",
      "MUNICIPIO" : "GRANADA"
    },
    "geometry" : {
      "type" : "Point",
      "coordinates" : [ -75.188466, 6.14693 ]
    }
  }, {
    "type" : "Feature",
    "properties" : {
      "TIPO_EVENTO" : "5",
      "DEPARTAMENTO" : "ANTIOQUIA",
      "TIPO_AREA" : "Rural",
      "AÑO" : "1996",
      "MUNICIPIO" : "GUARNE"
    },
    "geometry" : {
      "type" : "Point",
      "coordinates" : [ -75.441873, 6.278022 ]
    }
  }, {
    "type" : "Feature",
    "properties" : {
      "TIPO_EVENTO" : "5",
      "DEPARTAMENTO" : "ANTIOQUIA",
      "TIPO_AREA" : "Rural",
      "AÑO" : "1996",
      "MUNICIPIO" : "LA UNIÓN"
    },
    "geometry" : {
      "type" : "Point",
      "coordinates" : [ -75.361389, 5.974444 ]
    }
  }, {
    "type" : "Feature",
    "properties" : {
      "TIPO_EVENTO" : "5",
      "DEPARTAMENTO" : "ANTIOQUIA",
      "TIPO_AREA" : "Rural",
      "AÑO" : "1996",
      "MUNICIPIO" : "RIONEGRO"
    },
    "geometry" : {
      "type" : "Point",
      "coordinates" : [ -75.379345, 6.153403 ]
    }
  }, {
    "type" : "Feature",
    "properties" : {
      "TIPO_EVENTO" : "5",
      "DEPARTAMENTO" : "ANTIOQUIA",
      "TIPO_AREA" : "Rural",
      "AÑO" : "1996",
      "MUNICIPIO" : "RIONEGRO"
    },
    "geometry" : {
      "type" : "Point",
      "coordinates" : [ -75.379345, 6.153403 ]
    }
  }, {
    "type" : "Feature",
    "properties" : {
      "TIPO_EVENTO" : "5",
      "DEPARTAMENTO" : "BOGOTA DC",
      "TIPO_AREA" : "Urbana",
      "AÑO" : "1996",
      "MUNICIPIO" : "Bogotá DC"
    },
    "geometry" : {
      "type" : "Point",
      "coordinates" : [ -74.146592, 4.680486 ]
    }
  }, {
    "type" : "Feature",
    "properties" : {
      "TIPO_EVENTO" : "5",
      "DEPARTAMENTO" : "BOGOTA DC",
      "TIPO_AREA" : "Urbana",
      "AÑO" : "1996",
      "MUNICIPIO" : "Bogotá DC"
    },
    "geometry" : {
      "type" : "Point",
      "coordinates" : [ -74.146592, 4.680486 ]
    }
  }, {
    "type" : "Feature",
    "properties" : {
      "TIPO_EVENTO" : "5",
      "DEPARTAMENTO" : "BOLIVAR",
      "TIPO_AREA" : "Rural",
      "AÑO" : "1996",
      "MUNICIPIO" : "MORALES"
    },
    "geometry" : {
      "type" : "Point",
      "coordinates" : [ -73.865805, 8.270279 ]
    }
  }, {
    "type" : "Feature",
    "properties" : {
      "TIPO_EVENTO" : "5",
      "DEPARTAMENTO" : "BOLIVAR",
      "TIPO_AREA" : "Rural",
      "AÑO" : "1996",
      "MUNICIPIO" : "ACHÍ"
    },
    "geometry" : {
      "type" : "Point",
      "coordinates" : [ -74.560996, 8.573333 ]
    }
  }, {
    "type" : "Feature",
    "properties" : {
      "TIPO_EVENTO" : "5",
      "DEPARTAMENTO" : "BOLIVAR",
      "TIPO_AREA" : "Rural",
      "AÑO" : "1996",
      "MUNICIPIO" : "SAN PABLO"
    },
    "geometry" : {
      "type" : "Point",
      "coordinates" : [ -73.933361, 7.483919 ]
    }
  }, {
    "type" : "Feature",
    "properties" : {
      "TIPO_EVENTO" : "5",
      "DEPARTAMENTO" : "BOYACA",
      "TIPO_AREA" : "Rural",
      "AÑO" : "1996",
      "MUNICIPIO" : "MONGUA"
    },
    "geometry" : {
      "type" : "Point",
      "coordinates" : [ -72.798636, 5.753452 ]
    }
  }, {
    "type" : "Feature",
    "properties" : {
      "TIPO_EVENTO" : "5",
      "DEPARTAMENTO" : "CALDAS",
      "TIPO_AREA" : "Rural",
      "AÑO" : "1996",
      "MUNICIPIO" : "SUPÍA"
    },
    "geometry" : {
      "type" : "Point",
      "coordinates" : [ -75.647668, 5.451732 ]
    }
  }, {
    "type" : "Feature",
    "properties" : {
      "TIPO_EVENTO" : "5",
      "DEPARTAMENTO" : "CAQUETA",
      "TIPO_AREA" : "Rural",
      "AÑO" : "1996",
      "MUNICIPIO" : "FLORENCIA"
    },
    "geometry" : {
      "type" : "Point",
      "coordinates" : [ -75.619118, 1.621012 ]
    }
  }, {
    "type" : "Feature",
    "properties" : {
      "TIPO_EVENTO" : "5",
      "DEPARTAMENTO" : "CAQUETA",
      "TIPO_AREA" : "Urbana",
      "AÑO" : "1996",
      "MUNICIPIO" : "SAN VICENTE DEL CAGUÁN"
    },
    "geometry" : {
      "type" : "Point",
      "coordinates" : [ -74.768227, 2.120008 ]
    }
  }, {
    "type" : "Feature",
    "properties" : {
      "TIPO_EVENTO" : "5",
      "DEPARTAMENTO" : "CAUCA",
      "TIPO_AREA" : "Rural",
      "AÑO" : "1996",
      "MUNICIPIO" : "TIMBÍO"
    },
    "geometry" : {
      "type" : "Point",
      "coordinates" : [ -76.682434, 2.350655 ]
    }
  }, {
    "type" : "Feature",
    "properties" : {
      "TIPO_EVENTO" : "5",
      "DEPARTAMENTO" : "CESAR",
      "TIPO_AREA" : "Rural",
      "AÑO" : "1996",
      "MUNICIPIO" : "EL PASO"
    },
    "geometry" : {
      "type" : "Point",
      "coordinates" : [ -73.747817, 9.660946 ]
    }
  }, {
    "type" : "Feature",
    "properties" : {
      "TIPO_EVENTO" : "5",
      "DEPARTAMENTO" : "CESAR",
      "TIPO_AREA" : "Rural",
      "AÑO" : "1996",
      "MUNICIPIO" : "PAILITAS"
    },
    "geometry" : {
      "type" : "Point",
      "coordinates" : [ -73.629356, 8.959641 ]
    }
  }, {
    "type" : "Feature",
    "properties" : {
      "TIPO_EVENTO" : "5",
      "DEPARTAMENTO" : "CESAR",
      "TIPO_AREA" : "Rural",
      "AÑO" : "1996",
      "MUNICIPIO" : "PELAYA"
    },
    "geometry" : {
      "type" : "Point",
      "coordinates" : [ -73.665121, 8.689091 ]
    }
  }, {
    "type" : "Feature",
    "properties" : {
      "TIPO_EVENTO" : "5",
      "DEPARTAMENTO" : "CESAR",
      "TIPO_AREA" : "Rural",
      "AÑO" : "1996",
      "MUNICIPIO" : "AGUACHICA"
    },
    "geometry" : {
      "type" : "Point",
      "coordinates" : [ -73.576768, 8.246159 ]
    }
  }, {
    "type" : "Feature",
    "properties" : {
      "TIPO_EVENTO" : "5",
      "DEPARTAMENTO" : "CESAR",
      "TIPO_AREA" : "Rural",
      "AÑO" : "1996",
      "MUNICIPIO" : "SAN ALBERTO"
    },
    "geometry" : {
      "type" : "Point",
      "coordinates" : [ -73.395372, 7.768071 ]
    }
  }, {
    "type" : "Feature",
    "properties" : {
      "TIPO_EVENTO" : "5",
      "DEPARTAMENTO" : "BOLIVAR",
      "TIPO_AREA" : "Rural",
      "AÑO" : "1996",
      "MUNICIPIO" : "TIQUISIO"
    },
    "geometry" : {
      "type" : "Point",
      "coordinates" : [ -74.261283, 8.55446 ]
    }
  }, {
    "type" : "Feature",
    "properties" : {
      "TIPO_EVENTO" : "5",
      "DEPARTAMENTO" : "CUNDINAMARCA",
      "TIPO_AREA" : "Rural",
      "AÑO" : "1996",
      "MUNICIPIO" : "VIANÍ"
    },
    "geometry" : {
      "type" : "Point",
      "coordinates" : [ -74.565462, 4.872488 ]
    }
  }, {
    "type" : "Feature",
    "properties" : {
      "TIPO_EVENTO" : "5",
      "DEPARTAMENTO" : "CUNDINAMARCA",
      "TIPO_AREA" : "Rural",
      "AÑO" : "1996",
      "MUNICIPIO" : "CARMEN DE CARUPA"
    },
    "geometry" : {
      "type" : "Point",
      "coordinates" : [ -73.901708, 5.349009 ]
    }
  }, {
    "type" : "Feature",
    "properties" : {
      "TIPO_EVENTO" : "5",
      "DEPARTAMENTO" : "CUNDINAMARCA",
      "TIPO_AREA" : "Rural",
      "AÑO" : "1996",
      "MUNICIPIO" : "FACATATIVÁ"
    },
    "geometry" : {
      "type" : "Point",
      "coordinates" : [ -74.358742, 4.811477 ]
    }
  }, {
    "type" : "Feature",
    "properties" : {
      "TIPO_EVENTO" : "5",
      "DEPARTAMENTO" : "CUNDINAMARCA",
      "TIPO_AREA" : "Rural",
      "AÑO" : "1996",
      "MUNICIPIO" : "FACATATIVÁ"
    },
    "geometry" : {
      "type" : "Point",
      "coordinates" : [ -74.358742, 4.811477 ]
    }
  }, {
    "type" : "Feature",
    "properties" : {
      "TIPO_EVENTO" : "5",
      "DEPARTAMENTO" : "CUNDINAMARCA",
      "TIPO_AREA" : "Rural",
      "AÑO" : "1996",
      "MUNICIPIO" : "PASCA"
    },
    "geometry" : {
      "type" : "Point",
      "coordinates" : [ -74.301246, 4.309317 ]
    }
  }, {
    "type" : "Feature",
    "properties" : {
      "TIPO_EVENTO" : "5",
      "DEPARTAMENTO" : "CUNDINAMARCA",
      "TIPO_AREA" : "Rural",
      "AÑO" : "1996",
      "MUNICIPIO" : "ARBELÁEZ"
    },
    "geometry" : {
      "type" : "Point",
      "coordinates" : [ -74.414516, 4.272972 ]
    }
  }, {
    "type" : "Feature",
    "properties" : {
      "TIPO_EVENTO" : "5",
      "DEPARTAMENTO" : "CUNDINAMARCA",
      "TIPO_AREA" : "Rural",
      "AÑO" : "1996",
      "MUNICIPIO" : "SILVANIA"
    },
    "geometry" : {
      "type" : "Point",
      "coordinates" : [ -74.387098, 4.404268 ]
    }
  }, {
    "type" : "Feature",
    "properties" : {
      "TIPO_EVENTO" : "5",
      "DEPARTAMENTO" : "HUILA",
      "TIPO_AREA" : "Rural",
      "AÑO" : "1996",
      "MUNICIPIO" : "PITALITO"
    },
    "geometry" : {
      "type" : "Point",
      "coordinates" : [ -76.048718, 1.853024 ]
    }
  }, {
    "type" : "Feature",
    "properties" : {
      "TIPO_EVENTO" : "5",
      "DEPARTAMENTO" : "LA GUAJIRA",
      "TIPO_AREA" : "Rural",
      "AÑO" : "1996",
      "MUNICIPIO" : "SAN JUAN DEL CESAR"
    },
    "geometry" : {
      "type" : "Point",
      "coordinates" : [ -73.001889, 10.764517 ]
    }
  }, {
    "type" : "Feature",
    "properties" : {
      "TIPO_EVENTO" : "5",
      "DEPARTAMENTO" : "MAGDALENA",
      "TIPO_AREA" : "Rural",
      "AÑO" : "1996",
      "MUNICIPIO" : "ARACATACA"
    },
    "geometry" : {
      "type" : "Point",
      "coordinates" : [ -74.189329, 10.588797 ]
    }
  }, {
    "type" : "Feature",
    "properties" : {
      "TIPO_EVENTO" : "5",
      "DEPARTAMENTO" : "META",
      "TIPO_AREA" : "Rural",
      "AÑO" : "1996",
      "MUNICIPIO" : "PUERTO LLERAS"
    },
    "geometry" : {
      "type" : "Point",
      "coordinates" : [ -73.372694, 3.270805 ]
    }
  }, {
    "type" : "Feature",
    "properties" : {
      "TIPO_EVENTO" : "5",
      "DEPARTAMENTO" : "META",
      "TIPO_AREA" : "Rural",
      "AÑO" : "1996",
      "MUNICIPIO" : "PUERTO RICO"
    },
    "geometry" : {
      "type" : "Point",
      "coordinates" : [ -73.207891, 2.939542 ]
    }
  }, {
    "type" : "Feature",
    "properties" : {
      "TIPO_EVENTO" : "5",
      "DEPARTAMENTO" : "MAGDALENA",
      "TIPO_AREA" : "Rural",
      "AÑO" : "1996",
      "MUNICIPIO" : "ARACATACA"
    },
    "geometry" : {
      "type" : "Point",
      "coordinates" : [ -74.189329, 10.588797 ]
    }
  }, {
    "type" : "Feature",
    "properties" : {
      "TIPO_EVENTO" : "5",
      "DEPARTAMENTO" : "META",
      "TIPO_AREA" : "Rural",
      "AÑO" : "1996",
      "MUNICIPIO" : "ACACÍAS"
    },
    "geometry" : {
      "type" : "Point",
      "coordinates" : [ -73.765966, 3.991043 ]
    }
  }, {
    "type" : "Feature",
    "properties" : {
      "TIPO_EVENTO" : "5",
      "DEPARTAMENTO" : "META",
      "TIPO_AREA" : "Rural",
      "AÑO" : "1996",
      "MUNICIPIO" : "VISTAHERMOSA"
    },
    "geometry" : {
      "type" : "Point",
      "coordinates" : [ -73.752373, 3.125088 ]
    }
  }, {
    "type" : "Feature",
    "properties" : {
      "TIPO_EVENTO" : "5",
      "DEPARTAMENTO" : "META",
      "TIPO_AREA" : "Rural",
      "AÑO" : "1996",
      "MUNICIPIO" : "URIBE"
    },
    "geometry" : {
      "type" : "Point",
      "coordinates" : [ -74.354381, 3.240915 ]
    }
  }, {
    "type" : "Feature",
    "properties" : {
      "TIPO_EVENTO" : "5",
      "DEPARTAMENTO" : "NARIÑO",
      "TIPO_AREA" : "Rural",
      "AÑO" : "1996",
      "MUNICIPIO" : "RICAURTE"
    },
    "geometry" : {
      "type" : "Point",
      "coordinates" : [ -77.995412, 1.212529 ]
    }
  }, {
    "type" : "Feature",
    "properties" : {
      "TIPO_EVENTO" : "5",
      "DEPARTAMENTO" : "NORTE DE SANTANDER",
      "TIPO_AREA" : "Rural",
      "AÑO" : "1996",
      "MUNICIPIO" : "EL ZULIA"
    },
    "geometry" : {
      "type" : "Point",
      "coordinates" : [ -72.603012, 7.935119 ]
    }
  }, {
    "type" : "Feature",
    "properties" : {
      "TIPO_EVENTO" : "5",
      "DEPARTAMENTO" : "NORTE DE SANTANDER",
      "TIPO_AREA" : "Rural",
      "AÑO" : "1996",
      "MUNICIPIO" : "ÁBREGO"
    },
    "geometry" : {
      "type" : "Point",
      "coordinates" : [ -73.221319, 8.081507 ]
    }
  }, {
    "type" : "Feature",
    "properties" : {
      "TIPO_EVENTO" : "5",
      "DEPARTAMENTO" : "NORTE DE SANTANDER",
      "TIPO_AREA" : "Rural",
      "AÑO" : "1996",
      "MUNICIPIO" : "ÁBREGO"
    },
    "geometry" : {
      "type" : "Point",
      "coordinates" : [ -73.221319, 8.081507 ]
    }
  }, {
    "type" : "Feature",
    "properties" : {
      "TIPO_EVENTO" : "5",
      "DEPARTAMENTO" : "NORTE DE SANTANDER",
      "TIPO_AREA" : "Rural",
      "AÑO" : "1996",
      "MUNICIPIO" : "ÁBREGO"
    },
    "geometry" : {
      "type" : "Point",
      "coordinates" : [ -73.221319, 8.081507 ]
    }
  }, {
    "type" : "Feature",
    "properties" : {
      "TIPO_EVENTO" : "5",
      "DEPARTAMENTO" : "NORTE DE SANTANDER",
      "TIPO_AREA" : "Rural",
      "AÑO" : "1996",
      "MUNICIPIO" : "SAN CALIXTO"
    },
    "geometry" : {
      "type" : "Point",
      "coordinates" : [ -73.207765, 8.40286 ]
    }
  }, {
    "type" : "Feature",
    "properties" : {
      "TIPO_EVENTO" : "5",
      "DEPARTAMENTO" : "NORTE DE SANTANDER",
      "TIPO_AREA" : "Rural",
      "AÑO" : "1996",
      "MUNICIPIO" : "SAN CALIXTO"
    },
    "geometry" : {
      "type" : "Point",
      "coordinates" : [ -73.207765, 8.40286 ]
    }
  }, {
    "type" : "Feature",
    "properties" : {
      "TIPO_EVENTO" : "5",
      "DEPARTAMENTO" : "NORTE DE SANTANDER",
      "TIPO_AREA" : "Rural",
      "AÑO" : "1996",
      "MUNICIPIO" : "TIBÚ"
    },
    "geometry" : {
      "type" : "Point",
      "coordinates" : [ -72.735541, 8.639326 ]
    }
  }, {
    "type" : "Feature",
    "properties" : {
      "TIPO_EVENTO" : "5",
      "DEPARTAMENTO" : "SANTANDER",
      "TIPO_AREA" : "Rural",
      "AÑO" : "1996",
      "MUNICIPIO" : "CERRITO"
    },
    "geometry" : {
      "type" : "Point",
      "coordinates" : [ -72.694136, 6.845285 ]
    }
  }, {
    "type" : "Feature",
    "properties" : {
      "TIPO_EVENTO" : "5",
      "DEPARTAMENTO" : "SANTANDER",
      "TIPO_AREA" : "Rural",
      "AÑO" : "1996",
      "MUNICIPIO" : "EL GUACAMAYO"
    },
    "geometry" : {
      "type" : "Point",
      "coordinates" : [ -73.498845, 6.244803 ]
    }
  }, {
    "type" : "Feature",
    "properties" : {
      "TIPO_EVENTO" : "5",
      "DEPARTAMENTO" : "SANTANDER",
      "TIPO_AREA" : "Rural",
      "AÑO" : "1996",
      "MUNICIPIO" : "GUACA"
    },
    "geometry" : {
      "type" : "Point",
      "coordinates" : [ -72.857804, 6.878088 ]
    }
  }, {
    "type" : "Feature",
    "properties" : {
      "TIPO_EVENTO" : "5",
      "DEPARTAMENTO" : "SANTANDER",
      "TIPO_AREA" : "Rural",
      "AÑO" : "1996",
      "MUNICIPIO" : "ARATOCA"
    },
    "geometry" : {
      "type" : "Point",
      "coordinates" : [ -73.022446, 6.690847 ]
    }
  }, {
    "type" : "Feature",
    "properties" : {
      "TIPO_EVENTO" : "5",
      "DEPARTAMENTO" : "SANTANDER",
      "TIPO_AREA" : "Rural",
      "AÑO" : "1996",
      "MUNICIPIO" : "PUERTO PARRA"
    },
    "geometry" : {
      "type" : "Point",
      "coordinates" : [ -74.054749, 6.654378 ]
    }
  }, {
    "type" : "Feature",
    "properties" : {
      "TIPO_EVENTO" : "5",
      "DEPARTAMENTO" : "SANTANDER",
      "TIPO_AREA" : "Rural",
      "AÑO" : "1996",
      "MUNICIPIO" : "SAN VICENTE DE CHUCURÍ"
    },
    "geometry" : {
      "type" : "Point",
      "coordinates" : [ -73.413915, 6.884411 ]
    }
  }, {
    "type" : "Feature",
    "properties" : {
      "TIPO_EVENTO" : "5",
      "DEPARTAMENTO" : "SANTANDER",
      "TIPO_AREA" : "Rural",
      "AÑO" : "1996",
      "MUNICIPIO" : "SAN VICENTE DE CHUCURÍ"
    },
    "geometry" : {
      "type" : "Point",
      "coordinates" : [ -73.413915, 6.884411 ]
    }
  }, {
    "type" : "Feature",
    "properties" : {
      "TIPO_EVENTO" : "5",
      "DEPARTAMENTO" : "SANTANDER",
      "TIPO_AREA" : "Rural",
      "AÑO" : "1996",
      "MUNICIPIO" : "SANTA HELENA DEL OPÓN"
    },
    "geometry" : {
      "type" : "Point",
      "coordinates" : [ -73.616474, 6.339274 ]
    }
  }, {
    "type" : "Feature",
    "properties" : {
      "TIPO_EVENTO" : "5",
      "DEPARTAMENTO" : "TOLIMA",
      "TIPO_AREA" : "Rural",
      "AÑO" : "1996",
      "MUNICIPIO" : "CHAPARRAL"
    },
    "geometry" : {
      "type" : "Point",
      "coordinates" : [ -75.485633, 3.723381 ]
    }
  }, {
    "type" : "Feature",
    "properties" : {
      "TIPO_EVENTO" : "5",
      "DEPARTAMENTO" : "TOLIMA",
      "TIPO_AREA" : "Urbana",
      "AÑO" : "1996",
      "MUNICIPIO" : "LÍBANO"
    },
    "geometry" : {
      "type" : "Point",
      "coordinates" : [ -75.061141, 4.921051 ]
    }
  }, {
    "type" : "Feature",
    "properties" : {
      "TIPO_EVENTO" : "5",
      "DEPARTAMENTO" : "VALLE DEL CAUCA",
      "TIPO_AREA" : "Rural",
      "AÑO" : "1996",
      "MUNICIPIO" : "PALMIRA"
    },
    "geometry" : {
      "type" : "Point",
      "coordinates" : [ -76.352141, 3.493822 ]
    }
  }, {
    "type" : "Feature",
    "properties" : {
      "TIPO_EVENTO" : "5",
      "DEPARTAMENTO" : "ARAUCA",
      "TIPO_AREA" : "Rural",
      "AÑO" : "1996",
      "MUNICIPIO" : "SARAVENA"
    },
    "geometry" : {
      "type" : "Point",
      "coordinates" : [ -71.878277, 6.958339 ]
    }
  }, {
    "type" : "Feature",
    "properties" : {
      "TIPO_EVENTO" : "5",
      "DEPARTAMENTO" : "ARAUCA",
      "TIPO_AREA" : "Rural",
      "AÑO" : "1996",
      "MUNICIPIO" : "TAME"
    },
    "geometry" : {
      "type" : "Point",
      "coordinates" : [ -71.730855, 6.461209 ]
    }
  }, {
    "type" : "Feature",
    "properties" : {
      "TIPO_EVENTO" : "5",
      "DEPARTAMENTO" : "PUTUMAYO",
      "TIPO_AREA" : "Rural",
      "AÑO" : "1996",
      "MUNICIPIO" : "VALLE DEL GUAMUEZ"
    },
    "geometry" : {
      "type" : "Point",
      "coordinates" : [ -76.905657, 0.424591 ]
    }
  }, {
    "type" : "Feature",
    "properties" : {
      "TIPO_EVENTO" : "5",
      "DEPARTAMENTO" : "BOLIVAR",
      "TIPO_AREA" : "Rural",
      "AÑO" : "1996",
      "MUNICIPIO" : "ACHÍ"
    },
    "geometry" : {
      "type" : "Point",
      "coordinates" : [ -74.560996, 8.573333 ]
    }
  }, {
    "type" : "Feature",
    "properties" : {
      "TIPO_EVENTO" : "5",
      "DEPARTAMENTO" : "CASANARE",
      "TIPO_AREA" : "Rural",
      "AÑO" : "1996",
      "MUNICIPIO" : "HATO COROZAL"
    },
    "geometry" : {
      "type" : "Point",
      "coordinates" : [ -71.766653, 6.156529 ]
    }
  }, {
    "type" : "Feature",
    "properties" : {
      "TIPO_EVENTO" : "5",
      "DEPARTAMENTO" : "SANTANDER",
      "TIPO_AREA" : "Rural",
      "AÑO" : "1996",
      "MUNICIPIO" : "SAN VICENTE DE CHUCURÍ"
    },
    "geometry" : {
      "type" : "Point",
      "coordinates" : [ -73.413915, 6.884411 ]
    }
  }, {
    "type" : "Feature",
    "properties" : {
      "TIPO_EVENTO" : "5",
      "DEPARTAMENTO" : "NORTE DE SANTANDER",
      "TIPO_AREA" : "Rural",
      "AÑO" : "1996",
      "MUNICIPIO" : "CONVENCIÓN"
    },
    "geometry" : {
      "type" : "Point",
      "coordinates" : [ -73.336059, 8.475334 ]
    }
  }, {
    "type" : "Feature",
    "properties" : {
      "TIPO_EVENTO" : "5",
      "DEPARTAMENTO" : "BOLIVAR",
      "TIPO_AREA" : "Rural",
      "AÑO" : "1996",
      "MUNICIPIO" : "SIMITÍ"
    },
    "geometry" : {
      "type" : "Point",
      "coordinates" : [ -73.949071, 7.956662 ]
    }
  }, {
    "type" : "Feature",
    "properties" : {
      "TIPO_EVENTO" : "5",
      "DEPARTAMENTO" : "SANTANDER",
      "TIPO_AREA" : "Rural",
      "AÑO" : "1996",
      "MUNICIPIO" : "LEBRÍJA"
    },
    "geometry" : {
      "type" : "Point",
      "coordinates" : [ -73.21614, 7.108923 ]
    }
  }, {
    "type" : "Feature",
    "properties" : {
      "TIPO_EVENTO" : "5",
      "DEPARTAMENTO" : "SANTANDER",
      "TIPO_AREA" : "Rural",
      "AÑO" : "1996",
      "MUNICIPIO" : "SANTA HELENA DEL OPÓN"
    },
    "geometry" : {
      "type" : "Point",
      "coordinates" : [ -73.616474, 6.339274 ]
    }
  }, {
    "type" : "Feature",
    "properties" : {
      "TIPO_EVENTO" : "5",
      "DEPARTAMENTO" : "BOLIVAR",
      "TIPO_AREA" : "Rural",
      "AÑO" : "1996",
      "MUNICIPIO" : "EL PEÑÓN"
    },
    "geometry" : {
      "type" : "Point",
      "coordinates" : [ -73.952012, 8.989171 ]
    }
  }, {
    "type" : "Feature",
    "properties" : {
      "TIPO_EVENTO" : "5",
      "DEPARTAMENTO" : "SANTANDER",
      "TIPO_AREA" : "Rural",
      "AÑO" : "1996",
      "MUNICIPIO" : "SAN ANDRÉS"
    },
    "geometry" : {
      "type" : "Point",
      "coordinates" : [ -72.852356, 6.80546 ]
    }
  }, {
    "type" : "Feature",
    "properties" : {
      "TIPO_EVENTO" : "5",
      "DEPARTAMENTO" : "SANTANDER",
      "TIPO_AREA" : "Rural",
      "AÑO" : "1996",
      "MUNICIPIO" : "PIEDECUESTA"
    },
    "geometry" : {
      "type" : "Point",
      "coordinates" : [ -73.053854, 7.000837 ]
    }
  }, {
    "type" : "Feature",
    "properties" : {
      "TIPO_EVENTO" : "5",
      "DEPARTAMENTO" : "ANTIOQUIA",
      "TIPO_AREA" : "Rural",
      "AÑO" : "1996",
      "MUNICIPIO" : "SAN ROQUE"
    },
    "geometry" : {
      "type" : "Point",
      "coordinates" : [ -75.019268, 6.484969 ]
    }
  }, {
    "type" : "Feature",
    "properties" : {
      "TIPO_EVENTO" : "5",
      "DEPARTAMENTO" : "ANTIOQUIA",
      "TIPO_AREA" : "Rural",
      "AÑO" : "1996",
      "MUNICIPIO" : "ITUANGO"
    },
    "geometry" : {
      "type" : "Point",
      "coordinates" : [ -75.764403, 7.171637 ]
    }
  }, {
    "type" : "Feature",
    "properties" : {
      "TIPO_EVENTO" : "5",
      "DEPARTAMENTO" : "SUCRE",
      "TIPO_AREA" : "Rural",
      "AÑO" : "1996",
      "MUNICIPIO" : "MAJAGUAL"
    },
    "geometry" : {
      "type" : "Point",
      "coordinates" : [ -74.60353, 8.541209 ]
    }
  }, {
    "type" : "Feature",
    "properties" : {
      "TIPO_EVENTO" : "8",
      "DEPARTAMENTO" : "NORTE DE SANTANDER",
      "TIPO_AREA" : "Rural",
      "AÑO" : "1996",
      "MUNICIPIO" : "PAMPLONA"
    },
    "geometry" : {
      "type" : "Point",
      "coordinates" : [ -72.652725, 7.378264 ]
    }
  }, {
    "type" : "Feature",
    "properties" : {
      "TIPO_EVENTO" : "8",
      "DEPARTAMENTO" : "CESAR",
      "TIPO_AREA" : "Rural",
      "AÑO" : "1996",
      "MUNICIPIO" : "MANAURE BALCÓN DEL CESAR"
    },
    "geometry" : {
      "type" : "Point",
      "coordinates" : [ -73.020957, 10.396904 ]
    }
  }, {
    "type" : "Feature",
    "properties" : {
      "TIPO_EVENTO" : "8",
      "DEPARTAMENTO" : "CAUCA",
      "TIPO_AREA" : "Rural",
      "AÑO" : "1996",
      "MUNICIPIO" : "MIRANDA"
    },
    "geometry" : {
      "type" : "Point",
      "coordinates" : [ -76.228589, 3.251737 ]
    }
  }, {
    "type" : "Feature",
    "properties" : {
      "TIPO_EVENTO" : "8",
      "DEPARTAMENTO" : "NORTE DE SANTANDER",
      "TIPO_AREA" : "Rural",
      "AÑO" : "1996",
      "MUNICIPIO" : "EL TARRA"
    },
    "geometry" : {
      "type" : "Point",
      "coordinates" : [ -73.097044, 8.574766 ]
    }
  }, {
    "type" : "Feature",
    "properties" : {
      "TIPO_EVENTO" : "8",
      "DEPARTAMENTO" : "BOLIVAR",
      "TIPO_AREA" : "Rural",
      "AÑO" : "1996",
      "MUNICIPIO" : "SIMITÍ"
    },
    "geometry" : {
      "type" : "Point",
      "coordinates" : [ -73.949071, 7.956662 ]
    }
  } ],
  "properties": {
    "fields":{
      "TIPO_EVENTO": {"lookup": {"1": "Accidente por MAP", "2": "Accidente por MUSE", "3": "Arsenal almacenada", "4": "Desminado militar en operaciones","5": "Incautaciones", "6":"Municiones sin explotar","7":"Producción de Minas (Fábrica)","8":"Sospecha de campo minado"}, "name": "Tipo de evento"},
      "AÑO": {"name": "Año"},
      "DEPARTAMENTO": {"name": "Departamento"},
      "MUNICIPIO": {"name": "Municipio"},
      "TIPO_AREA": {"name": "Tipo de area"}
    }
  }
}
