{
  "type" : "FeatureCollection",
  "features" : [ {
    "type" : "Feature",
    "properties" : {
      "TIPO_EVENTO" : "1",
      "DEPARTAMENTO" : "NORTE DE SANTANDER",
      "TIPO_AREA" : "Rural",
      "AÑO" : "1999",
      "MUNICIPIO" : "EL CARMEN"
    },
    "geometry" : {
      "type" : "Point",
      "coordinates" : [ -73.44629, 8.507478 ]
    }
  }, {
    "type" : "Feature",
    "properties" : {
      "TIPO_EVENTO" : "1",
      "DEPARTAMENTO" : "SANTANDER",
      "TIPO_AREA" : "Rural",
      "AÑO" : "1999",
      "MUNICIPIO" : "SAN VICENTE DE CHUCURÍ"
    },
    "geometry" : {
      "type" : "Point",
      "coordinates" : [ -73.413915, 6.884411 ]
    }
  }, {
    "type" : "Feature",
    "properties" : {
      "TIPO_EVENTO" : "2",
      "DEPARTAMENTO" : "ANTIOQUIA",
      "TIPO_AREA" : "Urbana",
      "AÑO" : "1999",
      "MUNICIPIO" : "MEDELLÍN"
    },
    "geometry" : {
      "type" : "Point",
      "coordinates" : [ -75.564887, 6.229209 ]
    }
  }, {
    "type" : "Feature",
    "properties" : {
      "TIPO_EVENTO" : "1",
      "DEPARTAMENTO" : "CAUCA",
      "TIPO_AREA" : "Rural",
      "AÑO" : "1999",
      "MUNICIPIO" : "TORIBÍO"
    },
    "geometry" : {
      "type" : "Point",
      "coordinates" : [ -76.268615, 2.955399 ]
    }
  }, {
    "type" : "Feature",
    "properties" : {
      "TIPO_EVENTO" : "2",
      "DEPARTAMENTO" : "SANTANDER",
      "TIPO_AREA" : "Urbana",
      "AÑO" : "1999",
      "MUNICIPIO" : "BUCARAMANGA"
    },
    "geometry" : {
      "type" : "Point",
      "coordinates" : [ -73.11699582, 7.105141468 ]
    }
  }, {
    "type" : "Feature",
    "properties" : {
      "TIPO_EVENTO" : "1",
      "DEPARTAMENTO" : "SUCRE",
      "TIPO_AREA" : "Rural",
      "AÑO" : "1999",
      "MUNICIPIO" : "SAN ONOFRE"
    },
    "geometry" : {
      "type" : "Point",
      "coordinates" : [ -75.523136, 9.737003 ]
    }
  }, {
    "type" : "Feature",
    "properties" : {
      "TIPO_EVENTO" : "1",
      "DEPARTAMENTO" : "BOLIVAR",
      "TIPO_AREA" : "Urbana",
      "AÑO" : "1999",
      "MUNICIPIO" : "SAN MARTÍN DE LOBA"
    },
    "geometry" : {
      "type" : "Point",
      "coordinates" : [ -74.040398, 8.946799 ]
    }
  }, {
    "type" : "Feature",
    "properties" : {
      "TIPO_EVENTO" : "2",
      "DEPARTAMENTO" : "ANTIOQUIA",
      "TIPO_AREA" : "Rural",
      "AÑO" : "1999",
      "MUNICIPIO" : "ANGOSTURA"
    },
    "geometry" : {
      "type" : "Point",
      "coordinates" : [ -75.335458, 6.885866 ]
    }
  }, {
    "type" : "Feature",
    "properties" : {
      "TIPO_EVENTO" : "1",
      "DEPARTAMENTO" : "ANTIOQUIA",
      "TIPO_AREA" : "Rural",
      "AÑO" : "1999",
      "MUNICIPIO" : "EL BAGRE"
    },
    "geometry" : {
      "type" : "Point",
      "coordinates" : [ -74.809065, 7.597383 ]
    }
  }, {
    "type" : "Feature",
    "properties" : {
      "TIPO_EVENTO" : "1",
      "DEPARTAMENTO" : "ANTIOQUIA",
      "TIPO_AREA" : "Rural",
      "AÑO" : "1999",
      "MUNICIPIO" : "ZARAGOZA"
    },
    "geometry" : {
      "type" : "Point",
      "coordinates" : [ -74.867778, 7.490632 ]
    }
  }, {
    "type" : "Feature",
    "properties" : {
      "TIPO_EVENTO" : "1",
      "DEPARTAMENTO" : "ANTIOQUIA",
      "TIPO_AREA" : "Rural",
      "AÑO" : "1999",
      "MUNICIPIO" : "GRANADA"
    },
    "geometry" : {
      "type" : "Point",
      "coordinates" : [ -75.185183, 6.143703 ]
    }
  }, {
    "type" : "Feature",
    "properties" : {
      "TIPO_EVENTO" : "1",
      "DEPARTAMENTO" : "BOLIVAR",
      "TIPO_AREA" : "Rural",
      "AÑO" : "1999",
      "MUNICIPIO" : "CARTAGENA DE INDIAS"
    },
    "geometry" : {
      "type" : "Point",
      "coordinates" : [ -75.511207, 10.397047 ]
    }
  }, {
    "type" : "Feature",
    "properties" : {
      "TIPO_EVENTO" : "1",
      "DEPARTAMENTO" : "ANTIOQUIA",
      "TIPO_AREA" : "Rural",
      "AÑO" : "1999",
      "MUNICIPIO" : "TURBO"
    },
    "geometry" : {
      "type" : "Point",
      "coordinates" : [ -76.73923237, 8.099159651 ]
    }
  }, {
    "type" : "Feature",
    "properties" : {
      "TIPO_EVENTO" : "1",
      "DEPARTAMENTO" : "LA GUAJIRA",
      "TIPO_AREA" : "Rural",
      "AÑO" : "1999",
      "MUNICIPIO" : "LA JAGUA DEL PILAR"
    },
    "geometry" : {
      "type" : "Point",
      "coordinates" : [ -73.081068, 10.51962 ]
    }
  }, {
    "type" : "Feature",
    "properties" : {
      "TIPO_EVENTO" : "1",
      "DEPARTAMENTO" : "ANTIOQUIA",
      "TIPO_AREA" : "Rural",
      "AÑO" : "1999",
      "MUNICIPIO" : "ANORÍ"
    },
    "geometry" : {
      "type" : "Point",
      "coordinates" : [ -75.147222, 7.073333 ]
    }
  }, {
    "type" : "Feature",
    "properties" : {
      "TIPO_EVENTO" : "1",
      "DEPARTAMENTO" : "ANTIOQUIA",
      "TIPO_AREA" : "Rural",
      "AÑO" : "1999",
      "MUNICIPIO" : "GRANADA"
    },
    "geometry" : {
      "type" : "Point",
      "coordinates" : [ -75.185183, 6.143703 ]
    }
  }, {
    "type" : "Feature",
    "properties" : {
      "TIPO_EVENTO" : "2",
      "DEPARTAMENTO" : "ANTIOQUIA",
      "TIPO_AREA" : "Urbana",
      "AÑO" : "1999",
      "MUNICIPIO" : "MEDELLÍN"
    },
    "geometry" : {
      "type" : "Point",
      "coordinates" : [ -75.564887, 6.229209 ]
    }
  }, {
    "type" : "Feature",
    "properties" : {
      "TIPO_EVENTO" : "1",
      "DEPARTAMENTO" : "ARAUCA",
      "TIPO_AREA" : "Rural",
      "AÑO" : "1999",
      "MUNICIPIO" : "TAME"
    },
    "geometry" : {
      "type" : "Point",
      "coordinates" : [ -71.730855, 6.461209 ]
    }
  }, {
    "type" : "Feature",
    "properties" : {
      "TIPO_EVENTO" : "2",
      "DEPARTAMENTO" : "VALLE DEL CAUCA",
      "TIPO_AREA" : "Rural",
      "AÑO" : "1999",
      "MUNICIPIO" : "BUGALAGRANDE"
    },
    "geometry" : {
      "type" : "Point",
      "coordinates" : [ -76.162167, 4.206348 ]
    }
  }, {
    "type" : "Feature",
    "properties" : {
      "TIPO_EVENTO" : "2",
      "DEPARTAMENTO" : "ANTIOQUIA",
      "TIPO_AREA" : "Rural",
      "AÑO" : "1999",
      "MUNICIPIO" : "MEDELLÍN"
    },
    "geometry" : {
      "type" : "Point",
      "coordinates" : [ -75.564887, 6.229209 ]
    }
  }, {
    "type" : "Feature",
    "properties" : {
      "TIPO_EVENTO" : "1",
      "DEPARTAMENTO" : "CUNDINAMARCA",
      "TIPO_AREA" : "Rural",
      "AÑO" : "1999",
      "MUNICIPIO" : "VIANÍ"
    },
    "geometry" : {
      "type" : "Point",
      "coordinates" : [ -74.547222, 4.883333 ]
    }
  }, {
    "type" : "Feature",
    "properties" : {
      "TIPO_EVENTO" : "1",
      "DEPARTAMENTO" : "ANTIOQUIA",
      "TIPO_AREA" : "Rural",
      "AÑO" : "1999",
      "MUNICIPIO" : "YARUMAL"
    },
    "geometry" : {
      "type" : "Point",
      "coordinates" : [ -75.369444, 6.963889 ]
    }
  }, {
    "type" : "Feature",
    "properties" : {
      "TIPO_EVENTO" : "1",
      "DEPARTAMENTO" : "SANTANDER",
      "TIPO_AREA" : "Rural",
      "AÑO" : "1999",
      "MUNICIPIO" : "SIMACOTA"
    },
    "geometry" : {
      "type" : "Point",
      "coordinates" : [ -73.413915, 6.884411 ]
    }
  }, {
    "type" : "Feature",
    "properties" : {
      "TIPO_EVENTO" : "1",
      "DEPARTAMENTO" : "ANTIOQUIA",
      "TIPO_AREA" : "Rural",
      "AÑO" : "1999",
      "MUNICIPIO" : "ANGOSTURA"
    },
    "geometry" : {
      "type" : "Point",
      "coordinates" : [ -75.335458, 6.885866 ]
    }
  }, {
    "type" : "Feature",
    "properties" : {
      "TIPO_EVENTO" : "1",
      "DEPARTAMENTO" : "ANTIOQUIA",
      "TIPO_AREA" : "Rural",
      "AÑO" : "1999",
      "MUNICIPIO" : "MUTATÁ"
    },
    "geometry" : {
      "type" : "Point",
      "coordinates" : [ -76.436166, 7.243481 ]
    }
  }, {
    "type" : "Feature",
    "properties" : {
      "TIPO_EVENTO" : "1",
      "DEPARTAMENTO" : "META",
      "TIPO_AREA" : "Rural",
      "AÑO" : "1999",
      "MUNICIPIO" : "VISTAHERMOSA"
    },
    "geometry" : {
      "type" : "Point",
      "coordinates" : [ -73.752373, 3.125088 ]
    }
  }, {
    "type" : "Feature",
    "properties" : {
      "TIPO_EVENTO" : "4",
      "DEPARTAMENTO" : "ARAUCA",
      "TIPO_AREA" : "Rural",
      "AÑO" : "1999",
      "MUNICIPIO" : "ARAUCA"
    },
    "geometry" : {
      "type" : "Point",
      "coordinates" : [ -70.75831, 7.087606 ]
    }
  }, {
    "type" : "Feature",
    "properties" : {
      "TIPO_EVENTO" : "4",
      "DEPARTAMENTO" : "ANTIOQUIA",
      "TIPO_AREA" : "Rural",
      "AÑO" : "1999",
      "MUNICIPIO" : "SAN LUIS"
    },
    "geometry" : {
      "type" : "Point",
      "coordinates" : [ -74.996793, 6.045124 ]
    }
  }, {
    "type" : "Feature",
    "properties" : {
      "TIPO_EVENTO" : "4",
      "DEPARTAMENTO" : "BOLIVAR",
      "TIPO_AREA" : "Rural",
      "AÑO" : "1999",
      "MUNICIPIO" : "SAN MARTÍN DE LOBA"
    },
    "geometry" : {
      "type" : "Point",
      "coordinates" : [ -74.042273, 8.943412 ]
    }
  }, {
    "type" : "Feature",
    "properties" : {
      "TIPO_EVENTO" : "4",
      "DEPARTAMENTO" : "NORTE DE SANTANDER",
      "TIPO_AREA" : "Rural",
      "AÑO" : "1999",
      "MUNICIPIO" : "TIBÚ"
    },
    "geometry" : {
      "type" : "Point",
      "coordinates" : [ -72.739573, 8.64812 ]
    }
  }, {
    "type" : "Feature",
    "properties" : {
      "TIPO_EVENTO" : "4",
      "DEPARTAMENTO" : "SANTANDER",
      "TIPO_AREA" : "Rural",
      "AÑO" : "1999",
      "MUNICIPIO" : "MATANZA"
    },
    "geometry" : {
      "type" : "Point",
      "coordinates" : [ -73.019586, 7.325494 ]
    }
  }, {
    "type" : "Feature",
    "properties" : {
      "TIPO_EVENTO" : "4",
      "DEPARTAMENTO" : "SANTANDER",
      "TIPO_AREA" : "Rural",
      "AÑO" : "1999",
      "MUNICIPIO" : "BARRANCABERMEJA"
    },
    "geometry" : {
      "type" : "Point",
      "coordinates" : [ -73.859167, 7.063386 ]
    }
  }, {
    "type" : "Feature",
    "properties" : {
      "TIPO_EVENTO" : "4",
      "DEPARTAMENTO" : "ANTIOQUIA",
      "TIPO_AREA" : "Rural",
      "AÑO" : "1999",
      "MUNICIPIO" : "COCORNÁ"
    },
    "geometry" : {
      "type" : "Point",
      "coordinates" : [ -75.189193, 6.06104 ]
    }
  }, {
    "type" : "Feature",
    "properties" : {
      "TIPO_EVENTO" : "4",
      "DEPARTAMENTO" : "ANTIOQUIA",
      "TIPO_AREA" : "Rural",
      "AÑO" : "1999",
      "MUNICIPIO" : "RIONEGRO"
    },
    "geometry" : {
      "type" : "Point",
      "coordinates" : [ -75.377269, 6.157354 ]
    }
  }, {
    "type" : "Feature",
    "properties" : {
      "TIPO_EVENTO" : "4",
      "DEPARTAMENTO" : "BOLIVAR",
      "TIPO_AREA" : "Rural",
      "AÑO" : "1999",
      "MUNICIPIO" : "RÍOVIEJO"
    },
    "geometry" : {
      "type" : "Point",
      "coordinates" : [ -73.843824, 8.590271 ]
    }
  }, {
    "type" : "Feature",
    "properties" : {
      "TIPO_EVENTO" : "4",
      "DEPARTAMENTO" : "BOLIVAR",
      "TIPO_AREA" : "Rural",
      "AÑO" : "1999",
      "MUNICIPIO" : "ALTOS DEL ROSARIO"
    },
    "geometry" : {
      "type" : "Point",
      "coordinates" : [ -74.16891, 8.790984 ]
    }
  }, {
    "type" : "Feature",
    "properties" : {
      "TIPO_EVENTO" : "4",
      "DEPARTAMENTO" : "CAQUETA",
      "TIPO_AREA" : "Rural",
      "AÑO" : "1999",
      "MUNICIPIO" : "MONTAÑITA"
    },
    "geometry" : {
      "type" : "Point",
      "coordinates" : [ -75.440068, 1.481396 ]
    }
  }, {
    "type" : "Feature",
    "properties" : {
      "TIPO_EVENTO" : "4",
      "DEPARTAMENTO" : "CESAR",
      "TIPO_AREA" : "Rural",
      "AÑO" : "1999",
      "MUNICIPIO" : "PAILITAS"
    },
    "geometry" : {
      "type" : "Point",
      "coordinates" : [ -73.631725, 8.960772 ]
    }
  }, {
    "type" : "Feature",
    "properties" : {
      "TIPO_EVENTO" : "4",
      "DEPARTAMENTO" : "NORTE DE SANTANDER",
      "TIPO_AREA" : "Rural",
      "AÑO" : "1999",
      "MUNICIPIO" : "OCAÑA"
    },
    "geometry" : {
      "type" : "Point",
      "coordinates" : [ -73.358048, 8.236617 ]
    }
  }, {
    "type" : "Feature",
    "properties" : {
      "TIPO_EVENTO" : "4",
      "DEPARTAMENTO" : "CASANARE",
      "TIPO_AREA" : "Rural",
      "AÑO" : "1999",
      "MUNICIPIO" : "AGUAZUL"
    },
    "geometry" : {
      "type" : "Point",
      "coordinates" : [ -72.552642, 5.168712 ]
    }
  }, {
    "type" : "Feature",
    "properties" : {
      "TIPO_EVENTO" : "4",
      "DEPARTAMENTO" : "ANTIOQUIA",
      "TIPO_AREA" : "Rural",
      "AÑO" : "1999",
      "MUNICIPIO" : "REMEDIOS"
    },
    "geometry" : {
      "type" : "Point",
      "coordinates" : [ -74.696332, 7.030573 ]
    }
  }, {
    "type" : "Feature",
    "properties" : {
      "TIPO_EVENTO" : "4",
      "DEPARTAMENTO" : "SANTANDER",
      "TIPO_AREA" : "Rural",
      "AÑO" : "1999",
      "MUNICIPIO" : "EL PLAYÓN"
    },
    "geometry" : {
      "type" : "Point",
      "coordinates" : [ -73.203767, 7.468218 ]
    }
  }, {
    "type" : "Feature",
    "properties" : {
      "TIPO_EVENTO" : "4",
      "DEPARTAMENTO" : "BOLIVAR",
      "TIPO_AREA" : "Rural",
      "AÑO" : "1999",
      "MUNICIPIO" : "ALTOS DEL ROSARIO"
    },
    "geometry" : {
      "type" : "Point",
      "coordinates" : [ -74.16891, 8.790984 ]
    }
  }, {
    "type" : "Feature",
    "properties" : {
      "TIPO_EVENTO" : "4",
      "DEPARTAMENTO" : "NORTE DE SANTANDER",
      "TIPO_AREA" : "Rural",
      "AÑO" : "1999",
      "MUNICIPIO" : "ÁBREGO"
    },
    "geometry" : {
      "type" : "Point",
      "coordinates" : [ -73.221319, 8.081507 ]
    }
  }, {
    "type" : "Feature",
    "properties" : {
      "TIPO_EVENTO" : "4",
      "DEPARTAMENTO" : "SANTANDER",
      "TIPO_AREA" : "Urbana",
      "AÑO" : "1999",
      "MUNICIPIO" : "SAN GIL"
    },
    "geometry" : {
      "type" : "Point",
      "coordinates" : [ -73.2, 6.55 ]
    }
  }, {
    "type" : "Feature",
    "properties" : {
      "TIPO_EVENTO" : "4",
      "DEPARTAMENTO" : "ANTIOQUIA",
      "TIPO_AREA" : "Rural",
      "AÑO" : "1999",
      "MUNICIPIO" : "DABEIBA"
    },
    "geometry" : {
      "type" : "Point",
      "coordinates" : [ -76.270074, 7.003693 ]
    }
  }, {
    "type" : "Feature",
    "properties" : {
      "TIPO_EVENTO" : "7",
      "DEPARTAMENTO" : "CESAR",
      "TIPO_AREA" : "Rural",
      "AÑO" : "1999",
      "MUNICIPIO" : "PAILITAS"
    },
    "geometry" : {
      "type" : "Point",
      "coordinates" : [ -73.629356, 8.959641 ]
    }
  }, {
    "type" : "Feature",
    "properties" : {
      "TIPO_EVENTO" : "7",
      "DEPARTAMENTO" : "CESAR",
      "TIPO_AREA" : "Urbana",
      "AÑO" : "1999",
      "MUNICIPIO" : "PELAYA"
    },
    "geometry" : {
      "type" : "Point",
      "coordinates" : [ -73.665121, 8.689091 ]
    }
  }, {
    "type" : "Feature",
    "properties" : {
      "TIPO_EVENTO" : "5",
      "DEPARTAMENTO" : "ANTIOQUIA",
      "TIPO_AREA" : "Rural",
      "AÑO" : "1999",
      "MUNICIPIO" : "YOLOMBÓ"
    },
    "geometry" : {
      "type" : "Point",
      "coordinates" : [ -75.014048, 6.60204 ]
    }
  }, {
    "type" : "Feature",
    "properties" : {
      "TIPO_EVENTO" : "5",
      "DEPARTAMENTO" : "SANTANDER",
      "TIPO_AREA" : "Rural",
      "AÑO" : "1999",
      "MUNICIPIO" : "CALIFORNIA"
    },
    "geometry" : {
      "type" : "Point",
      "coordinates" : [ -72.945453, 7.347952 ]
    }
  }, {
    "type" : "Feature",
    "properties" : {
      "TIPO_EVENTO" : "5",
      "DEPARTAMENTO" : "ANTIOQUIA",
      "TIPO_AREA" : "Rural",
      "AÑO" : "1999",
      "MUNICIPIO" : "TURBO"
    },
    "geometry" : {
      "type" : "Point",
      "coordinates" : [ -76.73923237, 8.099159651 ]
    }
  }, {
    "type" : "Feature",
    "properties" : {
      "TIPO_EVENTO" : "5",
      "DEPARTAMENTO" : "ANTIOQUIA",
      "TIPO_AREA" : "Rural",
      "AÑO" : "1999",
      "MUNICIPIO" : "NARIÑO"
    },
    "geometry" : {
      "type" : "Point",
      "coordinates" : [ -75.176737, 5.609351 ]
    }
  }, {
    "type" : "Feature",
    "properties" : {
      "TIPO_EVENTO" : "5",
      "DEPARTAMENTO" : "ANTIOQUIA",
      "TIPO_AREA" : "Rural",
      "AÑO" : "1999",
      "MUNICIPIO" : "SAN LUIS"
    },
    "geometry" : {
      "type" : "Point",
      "coordinates" : [ -74.994899, 6.042723 ]
    }
  }, {
    "type" : "Feature",
    "properties" : {
      "TIPO_EVENTO" : "5",
      "DEPARTAMENTO" : "ANTIOQUIA",
      "TIPO_AREA" : "Rural",
      "AÑO" : "1999",
      "MUNICIPIO" : "SAN LUIS"
    },
    "geometry" : {
      "type" : "Point",
      "coordinates" : [ -74.994899, 6.042723 ]
    }
  }, {
    "type" : "Feature",
    "properties" : {
      "TIPO_EVENTO" : "5",
      "DEPARTAMENTO" : "BOGOTA DC",
      "TIPO_AREA" : "Rural",
      "AÑO" : "1999",
      "MUNICIPIO" : "Bogotá DC"
    },
    "geometry" : {
      "type" : "Point",
      "coordinates" : [ -74.146592, 4.680486 ]
    }
  }, {
    "type" : "Feature",
    "properties" : {
      "TIPO_EVENTO" : "5",
      "DEPARTAMENTO" : "BOLIVAR",
      "TIPO_AREA" : "Rural",
      "AÑO" : "1999",
      "MUNICIPIO" : "SANTA ROSA DEL SUR"
    },
    "geometry" : {
      "type" : "Point",
      "coordinates" : [ -74.051674, 7.963275 ]
    }
  }, {
    "type" : "Feature",
    "properties" : {
      "TIPO_EVENTO" : "5",
      "DEPARTAMENTO" : "BOLIVAR",
      "TIPO_AREA" : "Rural",
      "AÑO" : "1999",
      "MUNICIPIO" : "BARRANCO DE LOBA"
    },
    "geometry" : {
      "type" : "Point",
      "coordinates" : [ -74.103238, 8.9363 ]
    }
  }, {
    "type" : "Feature",
    "properties" : {
      "TIPO_EVENTO" : "5",
      "DEPARTAMENTO" : "BOLIVAR",
      "TIPO_AREA" : "Rural",
      "AÑO" : "1999",
      "MUNICIPIO" : "EL CARMEN DE BOLÍVAR"
    },
    "geometry" : {
      "type" : "Point",
      "coordinates" : [ -75.122094, 9.685015 ]
    }
  }, {
    "type" : "Feature",
    "properties" : {
      "TIPO_EVENTO" : "5",
      "DEPARTAMENTO" : "CESAR",
      "TIPO_AREA" : "Urbana",
      "AÑO" : "1999",
      "MUNICIPIO" : "VALLEDUPAR"
    },
    "geometry" : {
      "type" : "Point",
      "coordinates" : [ -73.246566, 10.447261 ]
    }
  }, {
    "type" : "Feature",
    "properties" : {
      "TIPO_EVENTO" : "5",
      "DEPARTAMENTO" : "CHOCO",
      "TIPO_AREA" : "Rural",
      "AÑO" : "1999",
      "MUNICIPIO" : "EL CARMEN DEL ATRATO"
    },
    "geometry" : {
      "type" : "Point",
      "coordinates" : [ -76.145891, 5.892603 ]
    }
  }, {
    "type" : "Feature",
    "properties" : {
      "TIPO_EVENTO" : "5",
      "DEPARTAMENTO" : "HUILA",
      "TIPO_AREA" : "Rural",
      "AÑO" : "1999",
      "MUNICIPIO" : "SUAZA"
    },
    "geometry" : {
      "type" : "Point",
      "coordinates" : [ -75.794998, 1.976464 ]
    }
  }, {
    "type" : "Feature",
    "properties" : {
      "TIPO_EVENTO" : "5",
      "DEPARTAMENTO" : "HUILA",
      "TIPO_AREA" : "Rural",
      "AÑO" : "1999",
      "MUNICIPIO" : "ALGECIRAS"
    },
    "geometry" : {
      "type" : "Point",
      "coordinates" : [ -75.313361, 2.522444 ]
    }
  }, {
    "type" : "Feature",
    "properties" : {
      "TIPO_EVENTO" : "5",
      "DEPARTAMENTO" : "LA GUAJIRA",
      "TIPO_AREA" : "Urbana",
      "AÑO" : "1999",
      "MUNICIPIO" : "DIBULLA"
    },
    "geometry" : {
      "type" : "Point",
      "coordinates" : [ -73.306402, 11.267972 ]
    }
  }, {
    "type" : "Feature",
    "properties" : {
      "TIPO_EVENTO" : "5",
      "DEPARTAMENTO" : "META",
      "TIPO_AREA" : "Rural",
      "AÑO" : "1999",
      "MUNICIPIO" : "EL CASTILLO"
    },
    "geometry" : {
      "type" : "Point",
      "coordinates" : [ -73.7944, 3.5637 ]
    }
  }, {
    "type" : "Feature",
    "properties" : {
      "TIPO_EVENTO" : "5",
      "DEPARTAMENTO" : "SANTANDER",
      "TIPO_AREA" : "Rural",
      "AÑO" : "1999",
      "MUNICIPIO" : "BUCARAMANGA"
    },
    "geometry" : {
      "type" : "Point",
      "coordinates" : [ -73.11699582, 7.105141468 ]
    }
  }, {
    "type" : "Feature",
    "properties" : {
      "TIPO_EVENTO" : "5",
      "DEPARTAMENTO" : "SANTANDER",
      "TIPO_AREA" : "Rural",
      "AÑO" : "1999",
      "MUNICIPIO" : "ONZAGA"
    },
    "geometry" : {
      "type" : "Point",
      "coordinates" : [ -72.820691, 6.347288 ]
    }
  }, {
    "type" : "Feature",
    "properties" : {
      "TIPO_EVENTO" : "5",
      "DEPARTAMENTO" : "SANTANDER",
      "TIPO_AREA" : "Urbana",
      "AÑO" : "1999",
      "MUNICIPIO" : "PIEDECUESTA"
    },
    "geometry" : {
      "type" : "Point",
      "coordinates" : [ -73.053854, 7.000837 ]
    }
  }, {
    "type" : "Feature",
    "properties" : {
      "TIPO_EVENTO" : "5",
      "DEPARTAMENTO" : "SANTANDER",
      "TIPO_AREA" : "Rural",
      "AÑO" : "1999",
      "MUNICIPIO" : "PUERTO PARRA"
    },
    "geometry" : {
      "type" : "Point",
      "coordinates" : [ -74.054749, 6.654378 ]
    }
  }, {
    "type" : "Feature",
    "properties" : {
      "TIPO_EVENTO" : "5",
      "DEPARTAMENTO" : "SANTANDER",
      "TIPO_AREA" : "Rural",
      "AÑO" : "1999",
      "MUNICIPIO" : "RIONEGRO"
    },
    "geometry" : {
      "type" : "Point",
      "coordinates" : [ -73.152703, 7.268891 ]
    }
  }, {
    "type" : "Feature",
    "properties" : {
      "TIPO_EVENTO" : "5",
      "DEPARTAMENTO" : "SANTANDER",
      "TIPO_AREA" : "Rural",
      "AÑO" : "1999",
      "MUNICIPIO" : "SABANA DE TORRES"
    },
    "geometry" : {
      "type" : "Point",
      "coordinates" : [ -73.496496, 7.397197 ]
    }
  }, {
    "type" : "Feature",
    "properties" : {
      "TIPO_EVENTO" : "5",
      "DEPARTAMENTO" : "SANTANDER",
      "TIPO_AREA" : "Urbana",
      "AÑO" : "1999",
      "MUNICIPIO" : "BARRANCABERMEJA"
    },
    "geometry" : {
      "type" : "Point",
      "coordinates" : [ -73.855997, 7.061193 ]
    }
  }, {
    "type" : "Feature",
    "properties" : {
      "TIPO_EVENTO" : "5",
      "DEPARTAMENTO" : "SANTANDER",
      "TIPO_AREA" : "Rural",
      "AÑO" : "1999",
      "MUNICIPIO" : "SAN VICENTE DE CHUCURÍ"
    },
    "geometry" : {
      "type" : "Point",
      "coordinates" : [ -73.414124, 6.883666 ]
    }
  }, {
    "type" : "Feature",
    "properties" : {
      "TIPO_EVENTO" : "5",
      "DEPARTAMENTO" : "SANTANDER",
      "TIPO_AREA" : "Rural",
      "AÑO" : "1999",
      "MUNICIPIO" : "SURATÁ"
    },
    "geometry" : {
      "type" : "Point",
      "coordinates" : [ -72.982441, 7.371953 ]
    }
  }, {
    "type" : "Feature",
    "properties" : {
      "TIPO_EVENTO" : "5",
      "DEPARTAMENTO" : "CASANARE",
      "TIPO_AREA" : "Rural",
      "AÑO" : "1999",
      "MUNICIPIO" : "SÁCAMA"
    },
    "geometry" : {
      "type" : "Point",
      "coordinates" : [ -72.248324, 6.099101 ]
    }
  }, {
    "type" : "Feature",
    "properties" : {
      "TIPO_EVENTO" : "5",
      "DEPARTAMENTO" : "VAUPES",
      "TIPO_AREA" : "Rural",
      "AÑO" : "1999",
      "MUNICIPIO" : "MITÚ"
    },
    "geometry" : {
      "type" : "Point",
      "coordinates" : [ -70.235462, 1.249969 ]
    }
  }, {
    "type" : "Feature",
    "properties" : {
      "TIPO_EVENTO" : "5",
      "DEPARTAMENTO" : "MAGDALENA",
      "TIPO_AREA" : "Rural",
      "AÑO" : "1999",
      "MUNICIPIO" : "FUNDACIÓN"
    },
    "geometry" : {
      "type" : "Point",
      "coordinates" : [ -74.203654, 10.514417 ]
    }
  }, {
    "type" : "Feature",
    "properties" : {
      "TIPO_EVENTO" : "5",
      "DEPARTAMENTO" : "SANTANDER",
      "TIPO_AREA" : "Rural",
      "AÑO" : "1999",
      "MUNICIPIO" : "GIRÓN"
    },
    "geometry" : {
      "type" : "Point",
      "coordinates" : [ -73.17568889, 7.071799767 ]
    }
  }, {
    "type" : "Feature",
    "properties" : {
      "TIPO_EVENTO" : "8",
      "DEPARTAMENTO" : "CORDOBA",
      "TIPO_AREA" : "Rural",
      "AÑO" : "1999",
      "MUNICIPIO" : "TIERRALTA"
    },
    "geometry" : {
      "type" : "Point",
      "coordinates" : [ -76.052223, 8.181547 ]
    }
  }, {
    "type" : "Feature",
    "properties" : {
      "TIPO_EVENTO" : "8",
      "DEPARTAMENTO" : "NORTE DE SANTANDER",
      "TIPO_AREA" : "Rural",
      "AÑO" : "1999",
      "MUNICIPIO" : "EL TARRA"
    },
    "geometry" : {
      "type" : "Point",
      "coordinates" : [ -73.097044, 8.574766 ]
    }
  }, {
    "type" : "Feature",
    "properties" : {
      "TIPO_EVENTO" : "8",
      "DEPARTAMENTO" : "BOLIVAR",
      "TIPO_AREA" : "Urbana",
      "AÑO" : "1999",
      "MUNICIPIO" : "ALTOS DEL ROSARIO"
    },
    "geometry" : {
      "type" : "Point",
      "coordinates" : [ -74.16891, 8.790984 ]
    }
  }, {
    "type" : "Feature",
    "properties" : {
      "TIPO_EVENTO" : "6",
      "DEPARTAMENTO" : "SANTANDER",
      "TIPO_AREA" : "Rural",
      "AÑO" : "1999",
      "MUNICIPIO" : "EL PLAYÓN"
    },
    "geometry" : {
      "type" : "Point",
      "coordinates" : [ -73.203767, 7.468218 ]
    }
  } ],
  "properties": {
    "fields":{
      "TIPO_EVENTO": {"lookup": {"1": "Accidente por MAP", "2": "Accidente por MUSE", "3": "Arsenal almacenada", "4": "Desminado militar en operaciones","5": "Incautaciones", "6":"Municiones sin explotar","7":"Producción de Minas (Fábrica)","8":"Sospecha de campo minado"}, "name": "Tipo de evento"},
      "AÑO": {"name": "Año"},
      "DEPARTAMENTO": {"name": "Departamento"},
      "MUNICIPIO": {"name": "Municipio"},
      "TIPO_AREA": {"name": "Tipo de area"}
    }
  }
}
