{
  "type" : "FeatureCollection",
  "features" : [ {
    "type" : "Feature",
    "properties" : {
      "TIPO_EVENTO" : "1",
      "DEPARTAMENTO" : "BOLIVAR",
      "TIPO_AREA" : "Rural",
      "AÑO" : "2000",
      "MUNICIPIO" : "SANTA ROSA DEL SUR"
    },
    "geometry" : {
      "type" : "Point",
      "coordinates" : [ -74.172696, 7.813524 ]
    }
  }, {
    "type" : "Feature",
    "properties" : {
      "TIPO_EVENTO" : "1",
      "DEPARTAMENTO" : "ANTIOQUIA",
      "TIPO_AREA" : "Rural",
      "AÑO" : "2000",
      "MUNICIPIO" : "COCORNÁ"
    },
    "geometry" : {
      "type" : "Point",
      "coordinates" : [ -75.144444, 6.017222 ]
    }
  }, {
    "type" : "Feature",
    "properties" : {
      "TIPO_EVENTO" : "1",
      "DEPARTAMENTO" : "ANTIOQUIA",
      "TIPO_AREA" : "Rural",
      "AÑO" : "2000",
      "MUNICIPIO" : "NARIÑO"
    },
    "geometry" : {
      "type" : "Point",
      "coordinates" : [ -75.176737, 5.609351 ]
    }
  }, {
    "type" : "Feature",
    "properties" : {
      "TIPO_EVENTO" : "1",
      "DEPARTAMENTO" : "CUNDINAMARCA",
      "TIPO_AREA" : "Rural",
      "AÑO" : "2000",
      "MUNICIPIO" : "LA PEÑA"
    },
    "geometry" : {
      "type" : "Point",
      "coordinates" : [ -74.39764, 5.191792 ]
    }
  }, {
    "type" : "Feature",
    "properties" : {
      "TIPO_EVENTO" : "1",
      "DEPARTAMENTO" : "ANTIOQUIA",
      "TIPO_AREA" : "Rural",
      "AÑO" : "2000",
      "MUNICIPIO" : "CARMEN DE VIBORAL"
    },
    "geometry" : {
      "type" : "Point",
      "coordinates" : [ -75.334176, 6.083485 ]
    }
  }, {
    "type" : "Feature",
    "properties" : {
      "TIPO_EVENTO" : "1",
      "DEPARTAMENTO" : "CAQUETA",
      "TIPO_AREA" : "Urbana",
      "AÑO" : "2000",
      "MUNICIPIO" : "CARTAGENA DEL CHAIRÁ"
    },
    "geometry" : {
      "type" : "Point",
      "coordinates" : [ -74.843733, 1.335258 ]
    }
  }, {
    "type" : "Feature",
    "properties" : {
      "TIPO_EVENTO" : "1",
      "DEPARTAMENTO" : "ANTIOQUIA",
      "TIPO_AREA" : "Rural",
      "AÑO" : "2000",
      "MUNICIPIO" : "COCORNÁ"
    },
    "geometry" : {
      "type" : "Point",
      "coordinates" : [ -75.185085, 6.058001 ]
    }
  }, {
    "type" : "Feature",
    "properties" : {
      "TIPO_EVENTO" : "1",
      "DEPARTAMENTO" : "BOGOTA DC",
      "TIPO_AREA" : "Rural",
      "AÑO" : "2000",
      "MUNICIPIO" : "Bogotá DC"
    },
    "geometry" : {
      "type" : "Point",
      "coordinates" : [ -74.315164, 4.0307 ]
    }
  }, {
    "type" : "Feature",
    "properties" : {
      "TIPO_EVENTO" : "2",
      "DEPARTAMENTO" : "NORTE DE SANTANDER",
      "TIPO_AREA" : "Urbana",
      "AÑO" : "2000",
      "MUNICIPIO" : "CÚCUTA"
    },
    "geometry" : {
      "type" : "Point",
      "coordinates" : [ -72.502871, 7.888937 ]
    }
  }, {
    "type" : "Feature",
    "properties" : {
      "TIPO_EVENTO" : "1",
      "DEPARTAMENTO" : "ARAUCA",
      "TIPO_AREA" : "Rural",
      "AÑO" : "2000",
      "MUNICIPIO" : "ARAUQUITA"
    },
    "geometry" : {
      "type" : "Point",
      "coordinates" : [ -71.384978, 7.023186 ]
    }
  }, {
    "type" : "Feature",
    "properties" : {
      "TIPO_EVENTO" : "1",
      "DEPARTAMENTO" : "ARAUCA",
      "TIPO_AREA" : "Rural",
      "AÑO" : "2000",
      "MUNICIPIO" : "SARAVENA"
    },
    "geometry" : {
      "type" : "Point",
      "coordinates" : [ -71.878277, 6.958339 ]
    }
  }, {
    "type" : "Feature",
    "properties" : {
      "TIPO_EVENTO" : "2",
      "DEPARTAMENTO" : "VALLE DEL CAUCA",
      "TIPO_AREA" : "Rural",
      "AÑO" : "2000",
      "MUNICIPIO" : "RIOFRÍO"
    },
    "geometry" : {
      "type" : "Point",
      "coordinates" : [ -76.288503, 4.156967 ]
    }
  }, {
    "type" : "Feature",
    "properties" : {
      "TIPO_EVENTO" : "1",
      "DEPARTAMENTO" : "NORTE DE SANTANDER",
      "TIPO_AREA" : "Rural",
      "AÑO" : "2000",
      "MUNICIPIO" : "TIBÚ"
    },
    "geometry" : {
      "type" : "Point",
      "coordinates" : [ -72.735541, 8.639326 ]
    }
  }, {
    "type" : "Feature",
    "properties" : {
      "TIPO_EVENTO" : "1",
      "DEPARTAMENTO" : "ANTIOQUIA",
      "TIPO_AREA" : "Rural",
      "AÑO" : "2000",
      "MUNICIPIO" : "URRAO"
    },
    "geometry" : {
      "type" : "Point",
      "coordinates" : [ -76.134258, 6.315899 ]
    }
  }, {
    "type" : "Feature",
    "properties" : {
      "TIPO_EVENTO" : "1",
      "DEPARTAMENTO" : "ANTIOQUIA",
      "TIPO_AREA" : "Rural",
      "AÑO" : "2000",
      "MUNICIPIO" : "GRANADA"
    },
    "geometry" : {
      "type" : "Point",
      "coordinates" : [ -75.185183, 6.143703 ]
    }
  }, {
    "type" : "Feature",
    "properties" : {
      "TIPO_EVENTO" : "2",
      "DEPARTAMENTO" : "BOYACA",
      "TIPO_AREA" : "Rural",
      "AÑO" : "2000",
      "MUNICIPIO" : "EL COCUY"
    },
    "geometry" : {
      "type" : "Point",
      "coordinates" : [ -72.444665, 6.4078 ]
    }
  }, {
    "type" : "Feature",
    "properties" : {
      "TIPO_EVENTO" : "1",
      "DEPARTAMENTO" : "ANTIOQUIA",
      "TIPO_AREA" : "Rural",
      "AÑO" : "2000",
      "MUNICIPIO" : "GRANADA"
    },
    "geometry" : {
      "type" : "Point",
      "coordinates" : [ -75.185183, 6.143703 ]
    }
  }, {
    "type" : "Feature",
    "properties" : {
      "TIPO_EVENTO" : "1",
      "DEPARTAMENTO" : "ARAUCA",
      "TIPO_AREA" : "Rural",
      "AÑO" : "2000",
      "MUNICIPIO" : "SARAVENA"
    },
    "geometry" : {
      "type" : "Point",
      "coordinates" : [ -71.878277, 6.958339 ]
    }
  }, {
    "type" : "Feature",
    "properties" : {
      "TIPO_EVENTO" : "2",
      "DEPARTAMENTO" : "SANTANDER",
      "TIPO_AREA" : "Rural",
      "AÑO" : "2000",
      "MUNICIPIO" : "LANDÁZURI"
    },
    "geometry" : {
      "type" : "Point",
      "coordinates" : [ -73.811182, 6.218214 ]
    }
  }, {
    "type" : "Feature",
    "properties" : {
      "TIPO_EVENTO" : "1",
      "DEPARTAMENTO" : "BOLIVAR",
      "TIPO_AREA" : "Rural",
      "AÑO" : "2000",
      "MUNICIPIO" : "SANTA ROSA DEL SUR"
    },
    "geometry" : {
      "type" : "Point",
      "coordinates" : [ -74.051674, 7.963275 ]
    }
  }, {
    "type" : "Feature",
    "properties" : {
      "TIPO_EVENTO" : "1",
      "DEPARTAMENTO" : "BOLIVAR",
      "TIPO_AREA" : "Rural",
      "AÑO" : "2000",
      "MUNICIPIO" : "MONTECRISTO"
    },
    "geometry" : {
      "type" : "Point",
      "coordinates" : [ -74.473165, 8.296544 ]
    }
  }, {
    "type" : "Feature",
    "properties" : {
      "TIPO_EVENTO" : "1",
      "DEPARTAMENTO" : "CAQUETA",
      "TIPO_AREA" : "Rural",
      "AÑO" : "2000",
      "MUNICIPIO" : "FLORENCIA"
    },
    "geometry" : {
      "type" : "Point",
      "coordinates" : [ -75.619118, 1.621012 ]
    }
  }, {
    "type" : "Feature",
    "properties" : {
      "TIPO_EVENTO" : "2",
      "DEPARTAMENTO" : "ANTIOQUIA",
      "TIPO_AREA" : "Rural",
      "AÑO" : "2000",
      "MUNICIPIO" : "SANTUARIO"
    },
    "geometry" : {
      "type" : "Point",
      "coordinates" : [ -75.264829, 6.136617 ]
    }
  }, {
    "type" : "Feature",
    "properties" : {
      "TIPO_EVENTO" : "1",
      "DEPARTAMENTO" : "ANTIOQUIA",
      "TIPO_AREA" : "Rural",
      "AÑO" : "2000",
      "MUNICIPIO" : "ALEJANDRÍA"
    },
    "geometry" : {
      "type" : "Point",
      "coordinates" : [ -75.108735, 6.367576 ]
    }
  }, {
    "type" : "Feature",
    "properties" : {
      "TIPO_EVENTO" : "1",
      "DEPARTAMENTO" : "ANTIOQUIA",
      "TIPO_AREA" : "Rural",
      "AÑO" : "2000",
      "MUNICIPIO" : "COCORNÁ"
    },
    "geometry" : {
      "type" : "Point",
      "coordinates" : [ -75.185085, 6.058001 ]
    }
  }, {
    "type" : "Feature",
    "properties" : {
      "TIPO_EVENTO" : "1",
      "DEPARTAMENTO" : "ANTIOQUIA",
      "TIPO_AREA" : "Rural",
      "AÑO" : "2000",
      "MUNICIPIO" : "SANTUARIO"
    },
    "geometry" : {
      "type" : "Point",
      "coordinates" : [ -75.264829, 6.136617 ]
    }
  }, {
    "type" : "Feature",
    "properties" : {
      "TIPO_EVENTO" : "1",
      "DEPARTAMENTO" : "BOLIVAR",
      "TIPO_AREA" : "Rural",
      "AÑO" : "2000",
      "MUNICIPIO" : "SAN PABLO"
    },
    "geometry" : {
      "type" : "Point",
      "coordinates" : [ -73.933361, 7.483919 ]
    }
  }, {
    "type" : "Feature",
    "properties" : {
      "TIPO_EVENTO" : "1",
      "DEPARTAMENTO" : "ANTIOQUIA",
      "TIPO_AREA" : "Rural",
      "AÑO" : "2000",
      "MUNICIPIO" : "SAN CARLOS"
    },
    "geometry" : {
      "type" : "Point",
      "coordinates" : [ -74.993636, 6.187566 ]
    }
  }, {
    "type" : "Feature",
    "properties" : {
      "TIPO_EVENTO" : "1",
      "DEPARTAMENTO" : "ANTIOQUIA",
      "TIPO_AREA" : "Rural",
      "AÑO" : "2000",
      "MUNICIPIO" : "CAUCASIA"
    },
    "geometry" : {
      "type" : "Point",
      "coordinates" : [ -75.199128, 7.987131 ]
    }
  }, {
    "type" : "Feature",
    "properties" : {
      "TIPO_EVENTO" : "1",
      "DEPARTAMENTO" : "PUTUMAYO",
      "TIPO_AREA" : "Rural",
      "AÑO" : "2000",
      "MUNICIPIO" : "PUERTO ASÍS"
    },
    "geometry" : {
      "type" : "Point",
      "coordinates" : [ -76.49818, 0.502569 ]
    }
  }, {
    "type" : "Feature",
    "properties" : {
      "TIPO_EVENTO" : "1",
      "DEPARTAMENTO" : "ANTIOQUIA",
      "TIPO_AREA" : "Rural",
      "AÑO" : "2000",
      "MUNICIPIO" : "EL BAGRE"
    },
    "geometry" : {
      "type" : "Point",
      "coordinates" : [ -74.809065, 7.597383 ]
    }
  }, {
    "type" : "Feature",
    "properties" : {
      "TIPO_EVENTO" : "2",
      "DEPARTAMENTO" : "META",
      "TIPO_AREA" : "Rural",
      "AÑO" : "2000",
      "MUNICIPIO" : "GRANADA"
    },
    "geometry" : {
      "type" : "Point",
      "coordinates" : [ -73.706262, 3.544873 ]
    }
  }, {
    "type" : "Feature",
    "properties" : {
      "TIPO_EVENTO" : "1",
      "DEPARTAMENTO" : "ANTIOQUIA",
      "TIPO_AREA" : "Rural",
      "AÑO" : "2000",
      "MUNICIPIO" : "TURBO"
    },
    "geometry" : {
      "type" : "Point",
      "coordinates" : [ -76.73923237, 8.099159651 ]
    }
  }, {
    "type" : "Feature",
    "properties" : {
      "TIPO_EVENTO" : "1",
      "DEPARTAMENTO" : "SANTANDER",
      "TIPO_AREA" : "Rural",
      "AÑO" : "2000",
      "MUNICIPIO" : "EL CARMEN"
    },
    "geometry" : {
      "type" : "Point",
      "coordinates" : [ -73.509679, 6.703536 ]
    }
  }, {
    "type" : "Feature",
    "properties" : {
      "TIPO_EVENTO" : "1",
      "DEPARTAMENTO" : "CUNDINAMARCA",
      "TIPO_AREA" : "Rural",
      "AÑO" : "2000",
      "MUNICIPIO" : "PULÍ"
    },
    "geometry" : {
      "type" : "Point",
      "coordinates" : [ -74.65, 4.733 ]
    }
  }, {
    "type" : "Feature",
    "properties" : {
      "TIPO_EVENTO" : "1",
      "DEPARTAMENTO" : "META",
      "TIPO_AREA" : "Rural",
      "AÑO" : "2000",
      "MUNICIPIO" : "EL DORADO"
    },
    "geometry" : {
      "type" : "Point",
      "coordinates" : [ -73.835, 3.7393 ]
    }
  }, {
    "type" : "Feature",
    "properties" : {
      "TIPO_EVENTO" : "1",
      "DEPARTAMENTO" : "META",
      "TIPO_AREA" : "Rural",
      "AÑO" : "2000",
      "MUNICIPIO" : "VILLAVICENCIO"
    },
    "geometry" : {
      "type" : "Point",
      "coordinates" : [ -73.624479, 4.155378 ]
    }
  }, {
    "type" : "Feature",
    "properties" : {
      "TIPO_EVENTO" : "1",
      "DEPARTAMENTO" : "ANTIOQUIA",
      "TIPO_AREA" : "Urbana",
      "AÑO" : "2000",
      "MUNICIPIO" : "SAN CARLOS"
    },
    "geometry" : {
      "type" : "Point",
      "coordinates" : [ -74.993636, 6.187566 ]
    }
  }, {
    "type" : "Feature",
    "properties" : {
      "TIPO_EVENTO" : "2",
      "DEPARTAMENTO" : "SANTANDER",
      "TIPO_AREA" : "Rural",
      "AÑO" : "2000",
      "MUNICIPIO" : "LANDÁZURI"
    },
    "geometry" : {
      "type" : "Point",
      "coordinates" : [ -73.811182, 6.218214 ]
    }
  }, {
    "type" : "Feature",
    "properties" : {
      "TIPO_EVENTO" : "1",
      "DEPARTAMENTO" : "ARAUCA",
      "TIPO_AREA" : "Rural",
      "AÑO" : "2000",
      "MUNICIPIO" : "FORTUL"
    },
    "geometry" : {
      "type" : "Point",
      "coordinates" : [ -71.770658, 6.792924 ]
    }
  }, {
    "type" : "Feature",
    "properties" : {
      "TIPO_EVENTO" : "1",
      "DEPARTAMENTO" : "BOYACA",
      "TIPO_AREA" : "Rural",
      "AÑO" : "2000",
      "MUNICIPIO" : "LABRANZAGRANDE"
    },
    "geometry" : {
      "type" : "Point",
      "coordinates" : [ -72.577719, 5.562992 ]
    }
  }, {
    "type" : "Feature",
    "properties" : {
      "TIPO_EVENTO" : "1",
      "DEPARTAMENTO" : "VAUPES",
      "TIPO_AREA" : "Rural",
      "AÑO" : "2000",
      "MUNICIPIO" : "MITÚ"
    },
    "geometry" : {
      "type" : "Point",
      "coordinates" : [ -70.235462, 1.249969 ]
    }
  }, {
    "type" : "Feature",
    "properties" : {
      "TIPO_EVENTO" : "1",
      "DEPARTAMENTO" : "BOYACA",
      "TIPO_AREA" : "Rural",
      "AÑO" : "2000",
      "MUNICIPIO" : "LABRANZAGRANDE"
    },
    "geometry" : {
      "type" : "Point",
      "coordinates" : [ -72.565617, 5.593542 ]
    }
  }, {
    "type" : "Feature",
    "properties" : {
      "TIPO_EVENTO" : "1",
      "DEPARTAMENTO" : "BOLIVAR",
      "TIPO_AREA" : "Rural",
      "AÑO" : "2000",
      "MUNICIPIO" : "SANTA ROSA DEL SUR"
    },
    "geometry" : {
      "type" : "Point",
      "coordinates" : [ -74.051674, 7.963275 ]
    }
  }, {
    "type" : "Feature",
    "properties" : {
      "TIPO_EVENTO" : "1",
      "DEPARTAMENTO" : "CUNDINAMARCA",
      "TIPO_AREA" : "Rural",
      "AÑO" : "2000",
      "MUNICIPIO" : "CABRERA"
    },
    "geometry" : {
      "type" : "Point",
      "coordinates" : [ -74.416577, 3.963834 ]
    }
  }, {
    "type" : "Feature",
    "properties" : {
      "TIPO_EVENTO" : "1",
      "DEPARTAMENTO" : "SANTANDER",
      "TIPO_AREA" : "Rural",
      "AÑO" : "2000",
      "MUNICIPIO" : "SABANA DE TORRES"
    },
    "geometry" : {
      "type" : "Point",
      "coordinates" : [ -73.496496, 7.397197 ]
    }
  }, {
    "type" : "Feature",
    "properties" : {
      "TIPO_EVENTO" : "1",
      "DEPARTAMENTO" : "BOLIVAR",
      "TIPO_AREA" : "Rural",
      "AÑO" : "2000",
      "MUNICIPIO" : "TIQUISIO"
    },
    "geometry" : {
      "type" : "Point",
      "coordinates" : [ -74.261283, 8.55446 ]
    }
  }, {
    "type" : "Feature",
    "properties" : {
      "TIPO_EVENTO" : "1",
      "DEPARTAMENTO" : "ANTIOQUIA",
      "TIPO_AREA" : "Rural",
      "AÑO" : "2000",
      "MUNICIPIO" : "PEÑOL"
    },
    "geometry" : {
      "type" : "Point",
      "coordinates" : [ -75.212535, 6.221741 ]
    }
  }, {
    "type" : "Feature",
    "properties" : {
      "TIPO_EVENTO" : "2",
      "DEPARTAMENTO" : "ARAUCA",
      "TIPO_AREA" : "Rural",
      "AÑO" : "2000",
      "MUNICIPIO" : "ARAUCA"
    },
    "geometry" : {
      "type" : "Point",
      "coordinates" : [ -70.75831, 7.087606 ]
    }
  }, {
    "type" : "Feature",
    "properties" : {
      "TIPO_EVENTO" : "1",
      "DEPARTAMENTO" : "MAGDALENA",
      "TIPO_AREA" : "Rural",
      "AÑO" : "2000",
      "MUNICIPIO" : "SANTA MARTA"
    },
    "geometry" : {
      "type" : "Point",
      "coordinates" : [ -74.225005, 11.219643 ]
    }
  }, {
    "type" : "Feature",
    "properties" : {
      "TIPO_EVENTO" : "1",
      "DEPARTAMENTO" : "SANTANDER",
      "TIPO_AREA" : "Rural",
      "AÑO" : "2000",
      "MUNICIPIO" : "SAN VICENTE DE CHUCURÍ"
    },
    "geometry" : {
      "type" : "Point",
      "coordinates" : [ -73.413915, 6.884411 ]
    }
  }, {
    "type" : "Feature",
    "properties" : {
      "TIPO_EVENTO" : "1",
      "DEPARTAMENTO" : "NORTE DE SANTANDER",
      "TIPO_AREA" : "Rural",
      "AÑO" : "2000",
      "MUNICIPIO" : "ARBOLEDAS"
    },
    "geometry" : {
      "type" : "Point",
      "coordinates" : [ -72.80421435, 7.644476177 ]
    }
  }, {
    "type" : "Feature",
    "properties" : {
      "TIPO_EVENTO" : "1",
      "DEPARTAMENTO" : "BOLIVAR",
      "TIPO_AREA" : "Rural",
      "AÑO" : "2000",
      "MUNICIPIO" : "ARENAL"
    },
    "geometry" : {
      "type" : "Point",
      "coordinates" : [ -73.941577, 8.45731 ]
    }
  }, {
    "type" : "Feature",
    "properties" : {
      "TIPO_EVENTO" : "1",
      "DEPARTAMENTO" : "ANTIOQUIA",
      "TIPO_AREA" : "Rural",
      "AÑO" : "2000",
      "MUNICIPIO" : "ZARAGOZA"
    },
    "geometry" : {
      "type" : "Point",
      "coordinates" : [ -74.867778, 7.490632 ]
    }
  }, {
    "type" : "Feature",
    "properties" : {
      "TIPO_EVENTO" : "1",
      "DEPARTAMENTO" : "BOLIVAR",
      "TIPO_AREA" : "Rural",
      "AÑO" : "2000",
      "MUNICIPIO" : "SANTA ROSA DEL SUR"
    },
    "geometry" : {
      "type" : "Point",
      "coordinates" : [ -74.051674, 7.963275 ]
    }
  }, {
    "type" : "Feature",
    "properties" : {
      "TIPO_EVENTO" : "2",
      "DEPARTAMENTO" : "SANTANDER",
      "TIPO_AREA" : "Urbana",
      "AÑO" : "2000",
      "MUNICIPIO" : "BUCARAMANGA"
    },
    "geometry" : {
      "type" : "Point",
      "coordinates" : [ -73.11699582, 7.105141468 ]
    }
  }, {
    "type" : "Feature",
    "properties" : {
      "TIPO_EVENTO" : "1",
      "DEPARTAMENTO" : "BOLIVAR",
      "TIPO_AREA" : "Rural",
      "AÑO" : "2000",
      "MUNICIPIO" : "SANTA ROSA DEL SUR"
    },
    "geometry" : {
      "type" : "Point",
      "coordinates" : [ -74.051674, 7.963275 ]
    }
  }, {
    "type" : "Feature",
    "properties" : {
      "TIPO_EVENTO" : "1",
      "DEPARTAMENTO" : "ANTIOQUIA",
      "TIPO_AREA" : "Rural",
      "AÑO" : "2000",
      "MUNICIPIO" : "REMEDIOS"
    },
    "geometry" : {
      "type" : "Point",
      "coordinates" : [ -74.693451, 7.028009 ]
    }
  }, {
    "type" : "Feature",
    "properties" : {
      "TIPO_EVENTO" : "1",
      "DEPARTAMENTO" : "MAGDALENA",
      "TIPO_AREA" : "Rural",
      "AÑO" : "2000",
      "MUNICIPIO" : "CIÉNAGA"
    },
    "geometry" : {
      "type" : "Point",
      "coordinates" : [ -74.225174, 10.99492 ]
    }
  }, {
    "type" : "Feature",
    "properties" : {
      "TIPO_EVENTO" : "1",
      "DEPARTAMENTO" : "SANTANDER",
      "TIPO_AREA" : "Rural",
      "AÑO" : "2000",
      "MUNICIPIO" : "RIONEGRO"
    },
    "geometry" : {
      "type" : "Point",
      "coordinates" : [ -73.152703, 7.268891 ]
    }
  }, {
    "type" : "Feature",
    "properties" : {
      "TIPO_EVENTO" : "1",
      "DEPARTAMENTO" : "ARAUCA",
      "TIPO_AREA" : "Rural",
      "AÑO" : "2000",
      "MUNICIPIO" : "SARAVENA"
    },
    "geometry" : {
      "type" : "Point",
      "coordinates" : [ -71.878277, 6.958339 ]
    }
  }, {
    "type" : "Feature",
    "properties" : {
      "TIPO_EVENTO" : "1",
      "DEPARTAMENTO" : "BOYACA",
      "TIPO_AREA" : "Rural",
      "AÑO" : "2000",
      "MUNICIPIO" : "PÁEZ"
    },
    "geometry" : {
      "type" : "Point",
      "coordinates" : [ -73.052197, 5.100385 ]
    }
  }, {
    "type" : "Feature",
    "properties" : {
      "TIPO_EVENTO" : "1",
      "DEPARTAMENTO" : "NORTE DE SANTANDER",
      "TIPO_AREA" : "Rural",
      "AÑO" : "2000",
      "MUNICIPIO" : "TIBÚ"
    },
    "geometry" : {
      "type" : "Point",
      "coordinates" : [ -72.735541, 8.639326 ]
    }
  }, {
    "type" : "Feature",
    "properties" : {
      "TIPO_EVENTO" : "1",
      "DEPARTAMENTO" : "BOLIVAR",
      "TIPO_AREA" : "Rural",
      "AÑO" : "2000",
      "MUNICIPIO" : "SAN MARTÍN DE LOBA"
    },
    "geometry" : {
      "type" : "Point",
      "coordinates" : [ -74.040398, 8.946799 ]
    }
  }, {
    "type" : "Feature",
    "properties" : {
      "TIPO_EVENTO" : "1",
      "DEPARTAMENTO" : "META",
      "TIPO_AREA" : "Rural",
      "AÑO" : "2000",
      "MUNICIPIO" : "ACACÍAS"
    },
    "geometry" : {
      "type" : "Point",
      "coordinates" : [ -73.765966, 3.991043 ]
    }
  }, {
    "type" : "Feature",
    "properties" : {
      "TIPO_EVENTO" : "1",
      "DEPARTAMENTO" : "ANTIOQUIA",
      "TIPO_AREA" : "Rural",
      "AÑO" : "2000",
      "MUNICIPIO" : "AMALFI"
    },
    "geometry" : {
      "type" : "Point",
      "coordinates" : [ -75.075344, 6.9081 ]
    }
  }, {
    "type" : "Feature",
    "properties" : {
      "TIPO_EVENTO" : "1",
      "DEPARTAMENTO" : "ANTIOQUIA",
      "TIPO_AREA" : "Rural",
      "AÑO" : "2000",
      "MUNICIPIO" : "TURBO"
    },
    "geometry" : {
      "type" : "Point",
      "coordinates" : [ -76.73923237, 8.099159651 ]
    }
  }, {
    "type" : "Feature",
    "properties" : {
      "TIPO_EVENTO" : "1",
      "DEPARTAMENTO" : "SANTANDER",
      "TIPO_AREA" : "Rural",
      "AÑO" : "2000",
      "MUNICIPIO" : "SABANA DE TORRES"
    },
    "geometry" : {
      "type" : "Point",
      "coordinates" : [ -73.496496, 7.397197 ]
    }
  }, {
    "type" : "Feature",
    "properties" : {
      "TIPO_EVENTO" : "1",
      "DEPARTAMENTO" : "CASANARE",
      "TIPO_AREA" : "Rural",
      "AÑO" : "2000",
      "MUNICIPIO" : "TAURAMENA"
    },
    "geometry" : {
      "type" : "Point",
      "coordinates" : [ -72.747059, 5.017559 ]
    }
  }, {
    "type" : "Feature",
    "properties" : {
      "TIPO_EVENTO" : "1",
      "DEPARTAMENTO" : "BOLIVAR",
      "TIPO_AREA" : "Rural",
      "AÑO" : "2000",
      "MUNICIPIO" : "SANTA ROSA DEL SUR"
    },
    "geometry" : {
      "type" : "Point",
      "coordinates" : [ -74.051674, 7.963275 ]
    }
  }, {
    "type" : "Feature",
    "properties" : {
      "TIPO_EVENTO" : "1",
      "DEPARTAMENTO" : "BOLIVAR",
      "TIPO_AREA" : "Rural",
      "AÑO" : "2000",
      "MUNICIPIO" : "SANTA ROSA DEL SUR"
    },
    "geometry" : {
      "type" : "Point",
      "coordinates" : [ -74.055, 7.965 ]
    }
  }, {
    "type" : "Feature",
    "properties" : {
      "TIPO_EVENTO" : "1",
      "DEPARTAMENTO" : "SANTANDER",
      "TIPO_AREA" : "Rural",
      "AÑO" : "2000",
      "MUNICIPIO" : "SABANA DE TORRES"
    },
    "geometry" : {
      "type" : "Point",
      "coordinates" : [ -73.496496, 7.397197 ]
    }
  }, {
    "type" : "Feature",
    "properties" : {
      "TIPO_EVENTO" : "1",
      "DEPARTAMENTO" : "SANTANDER",
      "TIPO_AREA" : "Rural",
      "AÑO" : "2000",
      "MUNICIPIO" : "CIMITARRA"
    },
    "geometry" : {
      "type" : "Point",
      "coordinates" : [ -73.950046, 6.313589 ]
    }
  }, {
    "type" : "Feature",
    "properties" : {
      "TIPO_EVENTO" : "1",
      "DEPARTAMENTO" : "CESAR",
      "TIPO_AREA" : "Rural",
      "AÑO" : "2000",
      "MUNICIPIO" : "AGUACHICA"
    },
    "geometry" : {
      "type" : "Point",
      "coordinates" : [ -73.576768, 8.246159 ]
    }
  }, {
    "type" : "Feature",
    "properties" : {
      "TIPO_EVENTO" : "1",
      "DEPARTAMENTO" : "BOLIVAR",
      "TIPO_AREA" : "Rural",
      "AÑO" : "2000",
      "MUNICIPIO" : "SANTA ROSA DEL SUR"
    },
    "geometry" : {
      "type" : "Point",
      "coordinates" : [ -74.055, 7.965 ]
    }
  }, {
    "type" : "Feature",
    "properties" : {
      "TIPO_EVENTO" : "1",
      "DEPARTAMENTO" : "BOLIVAR",
      "TIPO_AREA" : "Rural",
      "AÑO" : "2000",
      "MUNICIPIO" : "CANTAGALLO"
    },
    "geometry" : {
      "type" : "Point",
      "coordinates" : [ -74.170458, 7.243091 ]
    }
  }, {
    "type" : "Feature",
    "properties" : {
      "TIPO_EVENTO" : "1",
      "DEPARTAMENTO" : "CAUCA",
      "TIPO_AREA" : "Rural",
      "AÑO" : "2000",
      "MUNICIPIO" : "CAJIBÍO"
    },
    "geometry" : {
      "type" : "Point",
      "coordinates" : [ -76.550054, 2.604709 ]
    }
  }, {
    "type" : "Feature",
    "properties" : {
      "TIPO_EVENTO" : "1",
      "DEPARTAMENTO" : "META",
      "TIPO_AREA" : "Rural",
      "AÑO" : "2000",
      "MUNICIPIO" : "GRANADA"
    },
    "geometry" : {
      "type" : "Point",
      "coordinates" : [ -73.706262, 3.544873 ]
    }
  }, {
    "type" : "Feature",
    "properties" : {
      "TIPO_EVENTO" : "1",
      "DEPARTAMENTO" : "BOLIVAR",
      "TIPO_AREA" : "Rural",
      "AÑO" : "2000",
      "MUNICIPIO" : "PINILLOS"
    },
    "geometry" : {
      "type" : "Point",
      "coordinates" : [ -74.466413, 8.918113 ]
    }
  }, {
    "type" : "Feature",
    "properties" : {
      "TIPO_EVENTO" : "1",
      "DEPARTAMENTO" : "BOLIVAR",
      "TIPO_AREA" : "Rural",
      "AÑO" : "2000",
      "MUNICIPIO" : "SAN JACINTO DEL CAUCA"
    },
    "geometry" : {
      "type" : "Point",
      "coordinates" : [ -74.721278, 8.250091 ]
    }
  }, {
    "type" : "Feature",
    "properties" : {
      "TIPO_EVENTO" : "1",
      "DEPARTAMENTO" : "ARAUCA",
      "TIPO_AREA" : "Rural",
      "AÑO" : "2000",
      "MUNICIPIO" : "FORTUL"
    },
    "geometry" : {
      "type" : "Point",
      "coordinates" : [ -71.770658, 6.792924 ]
    }
  }, {
    "type" : "Feature",
    "properties" : {
      "TIPO_EVENTO" : "1",
      "DEPARTAMENTO" : "ANTIOQUIA",
      "TIPO_AREA" : "Rural",
      "AÑO" : "2000",
      "MUNICIPIO" : "SAN CARLOS"
    },
    "geometry" : {
      "type" : "Point",
      "coordinates" : [ -74.993636, 6.187566 ]
    }
  }, {
    "type" : "Feature",
    "properties" : {
      "TIPO_EVENTO" : "4",
      "DEPARTAMENTO" : "ANTIOQUIA",
      "TIPO_AREA" : "Rural",
      "AÑO" : "2000",
      "MUNICIPIO" : "REMEDIOS"
    },
    "geometry" : {
      "type" : "Point",
      "coordinates" : [ -74.696332, 7.030573 ]
    }
  }, {
    "type" : "Feature",
    "properties" : {
      "TIPO_EVENTO" : "4",
      "DEPARTAMENTO" : "BOLIVAR",
      "TIPO_AREA" : "Rural",
      "AÑO" : "2000",
      "MUNICIPIO" : "SAN JACINTO"
    },
    "geometry" : {
      "type" : "Point",
      "coordinates" : [ -75.116664, 9.858672 ]
    }
  }, {
    "type" : "Feature",
    "properties" : {
      "TIPO_EVENTO" : "4",
      "DEPARTAMENTO" : "BOLIVAR",
      "TIPO_AREA" : "Rural",
      "AÑO" : "2000",
      "MUNICIPIO" : "EL CARMEN DE BOLÍVAR"
    },
    "geometry" : {
      "type" : "Point",
      "coordinates" : [ -75.122094, 9.685015 ]
    }
  }, {
    "type" : "Feature",
    "properties" : {
      "TIPO_EVENTO" : "4",
      "DEPARTAMENTO" : "CAQUETA",
      "TIPO_AREA" : "Rural",
      "AÑO" : "2000",
      "MUNICIPIO" : "EL PAUJIL"
    },
    "geometry" : {
      "type" : "Point",
      "coordinates" : [ -75.332045, 1.564369 ]
    }
  }, {
    "type" : "Feature",
    "properties" : {
      "TIPO_EVENTO" : "4",
      "DEPARTAMENTO" : "CAQUETA",
      "TIPO_AREA" : "Rural",
      "AÑO" : "2000",
      "MUNICIPIO" : "PUERTO RICO"
    },
    "geometry" : {
      "type" : "Point",
      "coordinates" : [ -75.145009, 1.914487 ]
    }
  }, {
    "type" : "Feature",
    "properties" : {
      "TIPO_EVENTO" : "4",
      "DEPARTAMENTO" : "CAQUETA",
      "TIPO_AREA" : "Rural",
      "AÑO" : "2000",
      "MUNICIPIO" : "CARTAGENA DEL CHAIRÁ"
    },
    "geometry" : {
      "type" : "Point",
      "coordinates" : [ -74.843733, 1.335258 ]
    }
  }, {
    "type" : "Feature",
    "properties" : {
      "TIPO_EVENTO" : "4",
      "DEPARTAMENTO" : "ANTIOQUIA",
      "TIPO_AREA" : "Rural",
      "AÑO" : "2000",
      "MUNICIPIO" : "SONSÓN"
    },
    "geometry" : {
      "type" : "Point",
      "coordinates" : [ -75.313956, 5.712256 ]
    }
  }, {
    "type" : "Feature",
    "properties" : {
      "TIPO_EVENTO" : "4",
      "DEPARTAMENTO" : "ANTIOQUIA",
      "TIPO_AREA" : "Rural",
      "AÑO" : "2000",
      "MUNICIPIO" : "COCORNÁ"
    },
    "geometry" : {
      "type" : "Point",
      "coordinates" : [ -75.146667, 6.014722 ]
    }
  }, {
    "type" : "Feature",
    "properties" : {
      "TIPO_EVENTO" : "4",
      "DEPARTAMENTO" : "ANTIOQUIA",
      "TIPO_AREA" : "Rural",
      "AÑO" : "2000",
      "MUNICIPIO" : "SAN LUIS"
    },
    "geometry" : {
      "type" : "Point",
      "coordinates" : [ -74.996793, 6.045124 ]
    }
  }, {
    "type" : "Feature",
    "properties" : {
      "TIPO_EVENTO" : "4",
      "DEPARTAMENTO" : "ANTIOQUIA",
      "TIPO_AREA" : "Rural",
      "AÑO" : "2000",
      "MUNICIPIO" : "SAN LUIS"
    },
    "geometry" : {
      "type" : "Point",
      "coordinates" : [ -74.996793, 6.045124 ]
    }
  }, {
    "type" : "Feature",
    "properties" : {
      "TIPO_EVENTO" : "4",
      "DEPARTAMENTO" : "ANTIOQUIA",
      "TIPO_AREA" : "Rural",
      "AÑO" : "2000",
      "MUNICIPIO" : "SAN LUIS"
    },
    "geometry" : {
      "type" : "Point",
      "coordinates" : [ -74.996793, 6.045124 ]
    }
  }, {
    "type" : "Feature",
    "properties" : {
      "TIPO_EVENTO" : "4",
      "DEPARTAMENTO" : "ANTIOQUIA",
      "TIPO_AREA" : "Rural",
      "AÑO" : "2000",
      "MUNICIPIO" : "SAN LUIS"
    },
    "geometry" : {
      "type" : "Point",
      "coordinates" : [ -74.996793, 6.045124 ]
    }
  }, {
    "type" : "Feature",
    "properties" : {
      "TIPO_EVENTO" : "4",
      "DEPARTAMENTO" : "ARAUCA",
      "TIPO_AREA" : "Rural",
      "AÑO" : "2000",
      "MUNICIPIO" : "ARAUQUITA"
    },
    "geometry" : {
      "type" : "Point",
      "coordinates" : [ -71.384978, 7.023186 ]
    }
  }, {
    "type" : "Feature",
    "properties" : {
      "TIPO_EVENTO" : "4",
      "DEPARTAMENTO" : "CAQUETA",
      "TIPO_AREA" : "Rural",
      "AÑO" : "2000",
      "MUNICIPIO" : "VALPARAÍSO"
    },
    "geometry" : {
      "type" : "Point",
      "coordinates" : [ -75.710424, 1.19904 ]
    }
  }, {
    "type" : "Feature",
    "properties" : {
      "TIPO_EVENTO" : "4",
      "DEPARTAMENTO" : "CAQUETA",
      "TIPO_AREA" : "Rural",
      "AÑO" : "2000",
      "MUNICIPIO" : "CARTAGENA DEL CHAIRÁ"
    },
    "geometry" : {
      "type" : "Point",
      "coordinates" : [ -74.843733, 1.335258 ]
    }
  }, {
    "type" : "Feature",
    "properties" : {
      "TIPO_EVENTO" : "4",
      "DEPARTAMENTO" : "CUNDINAMARCA",
      "TIPO_AREA" : "Rural",
      "AÑO" : "2000",
      "MUNICIPIO" : "GUADUAS"
    },
    "geometry" : {
      "type" : "Point",
      "coordinates" : [ -74.598083, 5.069526 ]
    }
  }, {
    "type" : "Feature",
    "properties" : {
      "TIPO_EVENTO" : "4",
      "DEPARTAMENTO" : "CUNDINAMARCA",
      "TIPO_AREA" : "Rural",
      "AÑO" : "2000",
      "MUNICIPIO" : "SAN BERNARDO"
    },
    "geometry" : {
      "type" : "Point",
      "coordinates" : [ -74.426318, 4.181181 ]
    }
  }, {
    "type" : "Feature",
    "properties" : {
      "TIPO_EVENTO" : "4",
      "DEPARTAMENTO" : "GUAVIARE",
      "TIPO_AREA" : "Rural",
      "AÑO" : "2000",
      "MUNICIPIO" : "SAN JOSÉ DEL GUAVIARE"
    },
    "geometry" : {
      "type" : "Point",
      "coordinates" : [ -72.645971, 2.577073 ]
    }
  }, {
    "type" : "Feature",
    "properties" : {
      "TIPO_EVENTO" : "4",
      "DEPARTAMENTO" : "NARIÑO",
      "TIPO_AREA" : "Rural",
      "AÑO" : "2000",
      "MUNICIPIO" : "PASTO"
    },
    "geometry" : {
      "type" : "Point",
      "coordinates" : [ -77.281277, 1.213667 ]
    }
  }, {
    "type" : "Feature",
    "properties" : {
      "TIPO_EVENTO" : "4",
      "DEPARTAMENTO" : "NORTE DE SANTANDER",
      "TIPO_AREA" : "Rural",
      "AÑO" : "2000",
      "MUNICIPIO" : "EL CARMEN"
    },
    "geometry" : {
      "type" : "Point",
      "coordinates" : [ -73.451078, 8.51298 ]
    }
  }, {
    "type" : "Feature",
    "properties" : {
      "TIPO_EVENTO" : "4",
      "DEPARTAMENTO" : "SANTANDER",
      "TIPO_AREA" : "Rural",
      "AÑO" : "2000",
      "MUNICIPIO" : "EL PLAYÓN"
    },
    "geometry" : {
      "type" : "Point",
      "coordinates" : [ -73.207813, 7.476614 ]
    }
  }, {
    "type" : "Feature",
    "properties" : {
      "TIPO_EVENTO" : "4",
      "DEPARTAMENTO" : "SANTANDER",
      "TIPO_AREA" : "Rural",
      "AÑO" : "2000",
      "MUNICIPIO" : "EL PLAYÓN"
    },
    "geometry" : {
      "type" : "Point",
      "coordinates" : [ -73.207813, 7.476614 ]
    }
  }, {
    "type" : "Feature",
    "properties" : {
      "TIPO_EVENTO" : "4",
      "DEPARTAMENTO" : "BOLIVAR",
      "TIPO_AREA" : "Rural",
      "AÑO" : "2000",
      "MUNICIPIO" : "SANTA ROSA DEL SUR"
    },
    "geometry" : {
      "type" : "Point",
      "coordinates" : [ -74.055, 7.965 ]
    }
  }, {
    "type" : "Feature",
    "properties" : {
      "TIPO_EVENTO" : "4",
      "DEPARTAMENTO" : "BOLIVAR",
      "TIPO_AREA" : "Rural",
      "AÑO" : "2000",
      "MUNICIPIO" : "EL CARMEN DE BOLÍVAR"
    },
    "geometry" : {
      "type" : "Point",
      "coordinates" : [ -75.122094, 9.685015 ]
    }
  }, {
    "type" : "Feature",
    "properties" : {
      "TIPO_EVENTO" : "4",
      "DEPARTAMENTO" : "BOLIVAR",
      "TIPO_AREA" : "Rural",
      "AÑO" : "2000",
      "MUNICIPIO" : "EL CARMEN DE BOLÍVAR"
    },
    "geometry" : {
      "type" : "Point",
      "coordinates" : [ -75.122094, 9.685015 ]
    }
  }, {
    "type" : "Feature",
    "properties" : {
      "TIPO_EVENTO" : "4",
      "DEPARTAMENTO" : "BOYACA",
      "TIPO_AREA" : "Rural",
      "AÑO" : "2000",
      "MUNICIPIO" : "PAJARITO"
    },
    "geometry" : {
      "type" : "Point",
      "coordinates" : [ -72.706243, 5.294278 ]
    }
  }, {
    "type" : "Feature",
    "properties" : {
      "TIPO_EVENTO" : "4",
      "DEPARTAMENTO" : "BOYACA",
      "TIPO_AREA" : "Rural",
      "AÑO" : "2000",
      "MUNICIPIO" : "SOCOTÁ"
    },
    "geometry" : {
      "type" : "Point",
      "coordinates" : [ -72.636316, 6.040656 ]
    }
  }, {
    "type" : "Feature",
    "properties" : {
      "TIPO_EVENTO" : "4",
      "DEPARTAMENTO" : "SANTANDER",
      "TIPO_AREA" : "Rural",
      "AÑO" : "2000",
      "MUNICIPIO" : "BARRANCABERMEJA"
    },
    "geometry" : {
      "type" : "Point",
      "coordinates" : [ -73.855997, 7.061193 ]
    }
  }, {
    "type" : "Feature",
    "properties" : {
      "TIPO_EVENTO" : "4",
      "DEPARTAMENTO" : "VALLE DEL CAUCA",
      "TIPO_AREA" : "Rural",
      "AÑO" : "2000",
      "MUNICIPIO" : "CALI"
    },
    "geometry" : {
      "type" : "Point",
      "coordinates" : [ -76.520562, 3.441883 ]
    }
  }, {
    "type" : "Feature",
    "properties" : {
      "TIPO_EVENTO" : "4",
      "DEPARTAMENTO" : "VALLE DEL CAUCA",
      "TIPO_AREA" : "Rural",
      "AÑO" : "2000",
      "MUNICIPIO" : "CALI"
    },
    "geometry" : {
      "type" : "Point",
      "coordinates" : [ -76.520562, 3.441883 ]
    }
  }, {
    "type" : "Feature",
    "properties" : {
      "TIPO_EVENTO" : "4",
      "DEPARTAMENTO" : "ARAUCA",
      "TIPO_AREA" : "Rural",
      "AÑO" : "2000",
      "MUNICIPIO" : "SARAVENA"
    },
    "geometry" : {
      "type" : "Point",
      "coordinates" : [ -71.881734, 6.961668 ]
    }
  }, {
    "type" : "Feature",
    "properties" : {
      "TIPO_EVENTO" : "4",
      "DEPARTAMENTO" : "ARAUCA",
      "TIPO_AREA" : "Rural",
      "AÑO" : "2000",
      "MUNICIPIO" : "SARAVENA"
    },
    "geometry" : {
      "type" : "Point",
      "coordinates" : [ -71.881734, 6.961668 ]
    }
  }, {
    "type" : "Feature",
    "properties" : {
      "TIPO_EVENTO" : "4",
      "DEPARTAMENTO" : "ARAUCA",
      "TIPO_AREA" : "Rural",
      "AÑO" : "2000",
      "MUNICIPIO" : "SARAVENA"
    },
    "geometry" : {
      "type" : "Point",
      "coordinates" : [ -71.881734, 6.961668 ]
    }
  }, {
    "type" : "Feature",
    "properties" : {
      "TIPO_EVENTO" : "4",
      "DEPARTAMENTO" : "SANTANDER",
      "TIPO_AREA" : "Urbana",
      "AÑO" : "2000",
      "MUNICIPIO" : "BARRANCABERMEJA"
    },
    "geometry" : {
      "type" : "Point",
      "coordinates" : [ -73.855997, 7.061193 ]
    }
  }, {
    "type" : "Feature",
    "properties" : {
      "TIPO_EVENTO" : "4",
      "DEPARTAMENTO" : "CESAR",
      "TIPO_AREA" : "Rural",
      "AÑO" : "2000",
      "MUNICIPIO" : "RÍO DE ORO"
    },
    "geometry" : {
      "type" : "Point",
      "coordinates" : [ -73.388801, 8.295167 ]
    }
  }, {
    "type" : "Feature",
    "properties" : {
      "TIPO_EVENTO" : "4",
      "DEPARTAMENTO" : "CUNDINAMARCA",
      "TIPO_AREA" : "Rural",
      "AÑO" : "2000",
      "MUNICIPIO" : "VENECIA"
    },
    "geometry" : {
      "type" : "Point",
      "coordinates" : [ -74.480762, 4.090727 ]
    }
  }, {
    "type" : "Feature",
    "properties" : {
      "TIPO_EVENTO" : "4",
      "DEPARTAMENTO" : "CUNDINAMARCA",
      "TIPO_AREA" : "Urbana",
      "AÑO" : "2000",
      "MUNICIPIO" : "CABRERA"
    },
    "geometry" : {
      "type" : "Point",
      "coordinates" : [ -74.484762, 3.984124 ]
    }
  }, {
    "type" : "Feature",
    "properties" : {
      "TIPO_EVENTO" : "4",
      "DEPARTAMENTO" : "CUNDINAMARCA",
      "TIPO_AREA" : "Rural",
      "AÑO" : "2000",
      "MUNICIPIO" : "VIOTÁ"
    },
    "geometry" : {
      "type" : "Point",
      "coordinates" : [ -74.525089, 4.44066 ]
    }
  }, {
    "type" : "Feature",
    "properties" : {
      "TIPO_EVENTO" : "4",
      "DEPARTAMENTO" : "ANTIOQUIA",
      "TIPO_AREA" : "Rural",
      "AÑO" : "2000",
      "MUNICIPIO" : "MEDELLÍN"
    },
    "geometry" : {
      "type" : "Point",
      "coordinates" : [ -75.576938, 6.247023 ]
    }
  }, {
    "type" : "Feature",
    "properties" : {
      "TIPO_EVENTO" : "4",
      "DEPARTAMENTO" : "ANTIOQUIA",
      "TIPO_AREA" : "Rural",
      "AÑO" : "2000",
      "MUNICIPIO" : "SANTUARIO"
    },
    "geometry" : {
      "type" : "Point",
      "coordinates" : [ -75.268844, 6.141333 ]
    }
  }, {
    "type" : "Feature",
    "properties" : {
      "TIPO_EVENTO" : "4",
      "DEPARTAMENTO" : "ANTIOQUIA",
      "TIPO_AREA" : "Rural",
      "AÑO" : "2000",
      "MUNICIPIO" : "COCORNÁ"
    },
    "geometry" : {
      "type" : "Point",
      "coordinates" : [ -75.189193, 6.06104 ]
    }
  }, {
    "type" : "Feature",
    "properties" : {
      "TIPO_EVENTO" : "4",
      "DEPARTAMENTO" : "ANTIOQUIA",
      "TIPO_AREA" : "Rural",
      "AÑO" : "2000",
      "MUNICIPIO" : "DABEIBA"
    },
    "geometry" : {
      "type" : "Point",
      "coordinates" : [ -76.270074, 7.003693 ]
    }
  }, {
    "type" : "Feature",
    "properties" : {
      "TIPO_EVENTO" : "4",
      "DEPARTAMENTO" : "ANTIOQUIA",
      "TIPO_AREA" : "Rural",
      "AÑO" : "2000",
      "MUNICIPIO" : "SAN CARLOS"
    },
    "geometry" : {
      "type" : "Point",
      "coordinates" : [ -74.997039, 6.189787 ]
    }
  }, {
    "type" : "Feature",
    "properties" : {
      "TIPO_EVENTO" : "4",
      "DEPARTAMENTO" : "ANTIOQUIA",
      "TIPO_AREA" : "Rural",
      "AÑO" : "2000",
      "MUNICIPIO" : "SAN FRANCISCO"
    },
    "geometry" : {
      "type" : "Point",
      "coordinates" : [ -75.10198, 5.965414 ]
    }
  }, {
    "type" : "Feature",
    "properties" : {
      "TIPO_EVENTO" : "4",
      "DEPARTAMENTO" : "ANTIOQUIA",
      "TIPO_AREA" : "Rural",
      "AÑO" : "2000",
      "MUNICIPIO" : "SAN LUIS"
    },
    "geometry" : {
      "type" : "Point",
      "coordinates" : [ -74.996793, 6.045124 ]
    }
  }, {
    "type" : "Feature",
    "properties" : {
      "TIPO_EVENTO" : "4",
      "DEPARTAMENTO" : "ANTIOQUIA",
      "TIPO_AREA" : "Rural",
      "AÑO" : "2000",
      "MUNICIPIO" : "SAN LUIS"
    },
    "geometry" : {
      "type" : "Point",
      "coordinates" : [ -74.996793, 6.045124 ]
    }
  }, {
    "type" : "Feature",
    "properties" : {
      "TIPO_EVENTO" : "4",
      "DEPARTAMENTO" : "ANTIOQUIA",
      "TIPO_AREA" : "Rural",
      "AÑO" : "2000",
      "MUNICIPIO" : "SAN RAFAEL"
    },
    "geometry" : {
      "type" : "Point",
      "coordinates" : [ -75.031563, 6.29777 ]
    }
  }, {
    "type" : "Feature",
    "properties" : {
      "TIPO_EVENTO" : "4",
      "DEPARTAMENTO" : "NORTE DE SANTANDER",
      "TIPO_AREA" : "Rural",
      "AÑO" : "2000",
      "MUNICIPIO" : "EL CARMEN"
    },
    "geometry" : {
      "type" : "Point",
      "coordinates" : [ -73.451078, 8.51298 ]
    }
  }, {
    "type" : "Feature",
    "properties" : {
      "TIPO_EVENTO" : "4",
      "DEPARTAMENTO" : "NORTE DE SANTANDER",
      "TIPO_AREA" : "Rural",
      "AÑO" : "2000",
      "MUNICIPIO" : "EL CARMEN"
    },
    "geometry" : {
      "type" : "Point",
      "coordinates" : [ -73.451078, 8.51298 ]
    }
  }, {
    "type" : "Feature",
    "properties" : {
      "TIPO_EVENTO" : "4",
      "DEPARTAMENTO" : "NORTE DE SANTANDER",
      "TIPO_AREA" : "Rural",
      "AÑO" : "2000",
      "MUNICIPIO" : "HACARÍ"
    },
    "geometry" : {
      "type" : "Point",
      "coordinates" : [ -73.149122, 8.323427 ]
    }
  }, {
    "type" : "Feature",
    "properties" : {
      "TIPO_EVENTO" : "4",
      "DEPARTAMENTO" : "NORTE DE SANTANDER",
      "TIPO_AREA" : "Rural",
      "AÑO" : "2000",
      "MUNICIPIO" : "ARBOLEDAS"
    },
    "geometry" : {
      "type" : "Point",
      "coordinates" : [ -72.80421435, 7.644476177 ]
    }
  }, {
    "type" : "Feature",
    "properties" : {
      "TIPO_EVENTO" : "4",
      "DEPARTAMENTO" : "RISARALDA",
      "TIPO_AREA" : "Rural",
      "AÑO" : "2000",
      "MUNICIPIO" : "MISTRATÓ"
    },
    "geometry" : {
      "type" : "Point",
      "coordinates" : [ -75.887059, 5.299517 ]
    }
  }, {
    "type" : "Feature",
    "properties" : {
      "TIPO_EVENTO" : "4",
      "DEPARTAMENTO" : "SANTANDER",
      "TIPO_AREA" : "Rural",
      "AÑO" : "2000",
      "MUNICIPIO" : "BARRANCABERMEJA"
    },
    "geometry" : {
      "type" : "Point",
      "coordinates" : [ -73.859167, 7.063386 ]
    }
  }, {
    "type" : "Feature",
    "properties" : {
      "TIPO_EVENTO" : "4",
      "DEPARTAMENTO" : "SANTANDER",
      "TIPO_AREA" : "Rural",
      "AÑO" : "2000",
      "MUNICIPIO" : "EL CARMEN"
    },
    "geometry" : {
      "type" : "Point",
      "coordinates" : [ -73.509679, 6.703536 ]
    }
  }, {
    "type" : "Feature",
    "properties" : {
      "TIPO_EVENTO" : "4",
      "DEPARTAMENTO" : "ARAUCA",
      "TIPO_AREA" : "Rural",
      "AÑO" : "2000",
      "MUNICIPIO" : "ARAUCA"
    },
    "geometry" : {
      "type" : "Point",
      "coordinates" : [ -70.945278, 7.004167 ]
    }
  }, {
    "type" : "Feature",
    "properties" : {
      "TIPO_EVENTO" : "4",
      "DEPARTAMENTO" : "ARAUCA",
      "TIPO_AREA" : "Rural",
      "AÑO" : "2000",
      "MUNICIPIO" : "ARAUQUITA"
    },
    "geometry" : {
      "type" : "Point",
      "coordinates" : [ -71.384978, 7.023186 ]
    }
  }, {
    "type" : "Feature",
    "properties" : {
      "TIPO_EVENTO" : "4",
      "DEPARTAMENTO" : "ARAUCA",
      "TIPO_AREA" : "Rural",
      "AÑO" : "2000",
      "MUNICIPIO" : "ARAUQUITA"
    },
    "geometry" : {
      "type" : "Point",
      "coordinates" : [ -71.566667, 6.95 ]
    }
  }, {
    "type" : "Feature",
    "properties" : {
      "TIPO_EVENTO" : "4",
      "DEPARTAMENTO" : "ARAUCA",
      "TIPO_AREA" : "Rural",
      "AÑO" : "2000",
      "MUNICIPIO" : "TAME"
    },
    "geometry" : {
      "type" : "Point",
      "coordinates" : [ -71.739004, 6.462331 ]
    }
  }, {
    "type" : "Feature",
    "properties" : {
      "TIPO_EVENTO" : "4",
      "DEPARTAMENTO" : "PUTUMAYO",
      "TIPO_AREA" : "Rural",
      "AÑO" : "2000",
      "MUNICIPIO" : "SAN FRANCISCO"
    },
    "geometry" : {
      "type" : "Point",
      "coordinates" : [ -76.883254, 1.177493 ]
    }
  }, {
    "type" : "Feature",
    "properties" : {
      "TIPO_EVENTO" : "4",
      "DEPARTAMENTO" : "ANTIOQUIA",
      "TIPO_AREA" : "Rural",
      "AÑO" : "2000",
      "MUNICIPIO" : "SAN LUIS"
    },
    "geometry" : {
      "type" : "Point",
      "coordinates" : [ -74.996793, 6.045124 ]
    }
  }, {
    "type" : "Feature",
    "properties" : {
      "TIPO_EVENTO" : "4",
      "DEPARTAMENTO" : "BOLIVAR",
      "TIPO_AREA" : "Rural",
      "AÑO" : "2000",
      "MUNICIPIO" : "SIMITÍ"
    },
    "geometry" : {
      "type" : "Point",
      "coordinates" : [ -73.94714, 7.961019 ]
    }
  }, {
    "type" : "Feature",
    "properties" : {
      "TIPO_EVENTO" : "4",
      "DEPARTAMENTO" : "CESAR",
      "TIPO_AREA" : "Rural",
      "AÑO" : "2000",
      "MUNICIPIO" : "CURUMANÍ"
    },
    "geometry" : {
      "type" : "Point",
      "coordinates" : [ -73.513056, 9.232778 ]
    }
  }, {
    "type" : "Feature",
    "properties" : {
      "TIPO_EVENTO" : "4",
      "DEPARTAMENTO" : "SANTANDER",
      "TIPO_AREA" : "Rural",
      "AÑO" : "2000",
      "MUNICIPIO" : "SURATÁ"
    },
    "geometry" : {
      "type" : "Point",
      "coordinates" : [ -72.987334, 7.369716 ]
    }
  }, {
    "type" : "Feature",
    "properties" : {
      "TIPO_EVENTO" : "4",
      "DEPARTAMENTO" : "SANTANDER",
      "TIPO_AREA" : "Urbana",
      "AÑO" : "2000",
      "MUNICIPIO" : "BARRANCABERMEJA"
    },
    "geometry" : {
      "type" : "Point",
      "coordinates" : [ -73.855997, 7.061193 ]
    }
  }, {
    "type" : "Feature",
    "properties" : {
      "TIPO_EVENTO" : "4",
      "DEPARTAMENTO" : "LA GUAJIRA",
      "TIPO_AREA" : "Rural",
      "AÑO" : "2000",
      "MUNICIPIO" : "FONSECA"
    },
    "geometry" : {
      "type" : "Point",
      "coordinates" : [ -72.854, 10.892434 ]
    }
  }, {
    "type" : "Feature",
    "properties" : {
      "TIPO_EVENTO" : "4",
      "DEPARTAMENTO" : "NORTE DE SANTANDER",
      "TIPO_AREA" : "Rural",
      "AÑO" : "2000",
      "MUNICIPIO" : "EL CARMEN"
    },
    "geometry" : {
      "type" : "Point",
      "coordinates" : [ -73.451078, 8.51298 ]
    }
  }, {
    "type" : "Feature",
    "properties" : {
      "TIPO_EVENTO" : "5",
      "DEPARTAMENTO" : "BOLIVAR",
      "TIPO_AREA" : "Rural",
      "AÑO" : "2000",
      "MUNICIPIO" : "CARTAGENA DE INDIAS"
    },
    "geometry" : {
      "type" : "Point",
      "coordinates" : [ -75.511207, 10.397047 ]
    }
  }, {
    "type" : "Feature",
    "properties" : {
      "TIPO_EVENTO" : "5",
      "DEPARTAMENTO" : "CALDAS",
      "TIPO_AREA" : "Urbana",
      "AÑO" : "2000",
      "MUNICIPIO" : "PALESTINA"
    },
    "geometry" : {
      "type" : "Point",
      "coordinates" : [ -75.622832, 5.019881 ]
    }
  }, {
    "type" : "Feature",
    "properties" : {
      "TIPO_EVENTO" : "5",
      "DEPARTAMENTO" : "CAQUETA",
      "TIPO_AREA" : "Urbana",
      "AÑO" : "2000",
      "MUNICIPIO" : "EL PAUJIL"
    },
    "geometry" : {
      "type" : "Point",
      "coordinates" : [ -75.32675, 1.570034 ]
    }
  }, {
    "type" : "Feature",
    "properties" : {
      "TIPO_EVENTO" : "5",
      "DEPARTAMENTO" : "CAQUETA",
      "TIPO_AREA" : "Rural",
      "AÑO" : "2000",
      "MUNICIPIO" : "MONTAÑITA"
    },
    "geometry" : {
      "type" : "Point",
      "coordinates" : [ -75.46308951, 1.494944213 ]
    }
  }, {
    "type" : "Feature",
    "properties" : {
      "TIPO_EVENTO" : "5",
      "DEPARTAMENTO" : "CAQUETA",
      "TIPO_AREA" : "Rural",
      "AÑO" : "2000",
      "MUNICIPIO" : "MORELIA"
    },
    "geometry" : {
      "type" : "Point",
      "coordinates" : [ -75.727518, 1.486799 ]
    }
  }, {
    "type" : "Feature",
    "properties" : {
      "TIPO_EVENTO" : "5",
      "DEPARTAMENTO" : "CAUCA",
      "TIPO_AREA" : "Rural",
      "AÑO" : "2000",
      "MUNICIPIO" : "CAJIBÍO"
    },
    "geometry" : {
      "type" : "Point",
      "coordinates" : [ -76.570745, 2.622711 ]
    }
  }, {
    "type" : "Feature",
    "properties" : {
      "TIPO_EVENTO" : "5",
      "DEPARTAMENTO" : "CAUCA",
      "TIPO_AREA" : "Rural",
      "AÑO" : "2000",
      "MUNICIPIO" : "CAJIBÍO"
    },
    "geometry" : {
      "type" : "Point",
      "coordinates" : [ -76.570745, 2.622711 ]
    }
  }, {
    "type" : "Feature",
    "properties" : {
      "TIPO_EVENTO" : "5",
      "DEPARTAMENTO" : "CAUCA",
      "TIPO_AREA" : "Rural",
      "AÑO" : "2000",
      "MUNICIPIO" : "SUÁREZ"
    },
    "geometry" : {
      "type" : "Point",
      "coordinates" : [ -76.693598, 2.956849 ]
    }
  }, {
    "type" : "Feature",
    "properties" : {
      "TIPO_EVENTO" : "5",
      "DEPARTAMENTO" : "CESAR",
      "TIPO_AREA" : "Rural",
      "AÑO" : "2000",
      "MUNICIPIO" : "RÍO DE ORO"
    },
    "geometry" : {
      "type" : "Point",
      "coordinates" : [ -73.384211, 8.291074 ]
    }
  }, {
    "type" : "Feature",
    "properties" : {
      "TIPO_EVENTO" : "5",
      "DEPARTAMENTO" : "CESAR",
      "TIPO_AREA" : "Rural",
      "AÑO" : "2000",
      "MUNICIPIO" : "CURUMANÍ"
    },
    "geometry" : {
      "type" : "Point",
      "coordinates" : [ -73.533992, 9.197758 ]
    }
  }, {
    "type" : "Feature",
    "properties" : {
      "TIPO_EVENTO" : "5",
      "DEPARTAMENTO" : "CUNDINAMARCA",
      "TIPO_AREA" : "Rural",
      "AÑO" : "2000",
      "MUNICIPIO" : "PULÍ"
    },
    "geometry" : {
      "type" : "Point",
      "coordinates" : [ -74.714938, 4.682088 ]
    }
  }, {
    "type" : "Feature",
    "properties" : {
      "TIPO_EVENTO" : "5",
      "DEPARTAMENTO" : "HUILA",
      "TIPO_AREA" : "Rural",
      "AÑO" : "2000",
      "MUNICIPIO" : "TELLO"
    },
    "geometry" : {
      "type" : "Point",
      "coordinates" : [ -75.138764, 3.067077 ]
    }
  }, {
    "type" : "Feature",
    "properties" : {
      "TIPO_EVENTO" : "5",
      "DEPARTAMENTO" : "MAGDALENA",
      "TIPO_AREA" : "Rural",
      "AÑO" : "2000",
      "MUNICIPIO" : "PLATO"
    },
    "geometry" : {
      "type" : "Point",
      "coordinates" : [ -74.792198, 9.794433 ]
    }
  }, {
    "type" : "Feature",
    "properties" : {
      "TIPO_EVENTO" : "5",
      "DEPARTAMENTO" : "MAGDALENA",
      "TIPO_AREA" : "Rural",
      "AÑO" : "2000",
      "MUNICIPIO" : "ARACATACA"
    },
    "geometry" : {
      "type" : "Point",
      "coordinates" : [ -74.189329, 10.588797 ]
    }
  }, {
    "type" : "Feature",
    "properties" : {
      "TIPO_EVENTO" : "5",
      "DEPARTAMENTO" : "ANTIOQUIA",
      "TIPO_AREA" : "Rural",
      "AÑO" : "2000",
      "MUNICIPIO" : "MEDELLÍN"
    },
    "geometry" : {
      "type" : "Point",
      "coordinates" : [ -75.564887, 6.229209 ]
    }
  }, {
    "type" : "Feature",
    "properties" : {
      "TIPO_EVENTO" : "5",
      "DEPARTAMENTO" : "ANTIOQUIA",
      "TIPO_AREA" : "Rural",
      "AÑO" : "2000",
      "MUNICIPIO" : "ANORÍ"
    },
    "geometry" : {
      "type" : "Point",
      "coordinates" : [ -75.147222, 7.073333 ]
    }
  }, {
    "type" : "Feature",
    "properties" : {
      "TIPO_EVENTO" : "5",
      "DEPARTAMENTO" : "ANTIOQUIA",
      "TIPO_AREA" : "Rural",
      "AÑO" : "2000",
      "MUNICIPIO" : "SANTA BÁRBARA"
    },
    "geometry" : {
      "type" : "Point",
      "coordinates" : [ -75.56762, 5.875524 ]
    }
  }, {
    "type" : "Feature",
    "properties" : {
      "TIPO_EVENTO" : "5",
      "DEPARTAMENTO" : "ANTIOQUIA",
      "TIPO_AREA" : "Rural",
      "AÑO" : "2000",
      "MUNICIPIO" : "SANTA BÁRBARA"
    },
    "geometry" : {
      "type" : "Point",
      "coordinates" : [ -75.56762, 5.875524 ]
    }
  }, {
    "type" : "Feature",
    "properties" : {
      "TIPO_EVENTO" : "5",
      "DEPARTAMENTO" : "ANTIOQUIA",
      "TIPO_AREA" : "Rural",
      "AÑO" : "2000",
      "MUNICIPIO" : "SANTUARIO"
    },
    "geometry" : {
      "type" : "Point",
      "coordinates" : [ -75.268844, 6.141333 ]
    }
  }, {
    "type" : "Feature",
    "properties" : {
      "TIPO_EVENTO" : "5",
      "DEPARTAMENTO" : "ANTIOQUIA",
      "TIPO_AREA" : "Rural",
      "AÑO" : "2000",
      "MUNICIPIO" : "SONSÓN"
    },
    "geometry" : {
      "type" : "Point",
      "coordinates" : [ -75.310278, 5.709167 ]
    }
  }, {
    "type" : "Feature",
    "properties" : {
      "TIPO_EVENTO" : "5",
      "DEPARTAMENTO" : "META",
      "TIPO_AREA" : "Rural",
      "AÑO" : "2000",
      "MUNICIPIO" : "LEJANÍAS"
    },
    "geometry" : {
      "type" : "Point",
      "coordinates" : [ -74.003888, 3.517426 ]
    }
  }, {
    "type" : "Feature",
    "properties" : {
      "TIPO_EVENTO" : "5",
      "DEPARTAMENTO" : "META",
      "TIPO_AREA" : "Rural",
      "AÑO" : "2000",
      "MUNICIPIO" : "PUERTO LLERAS"
    },
    "geometry" : {
      "type" : "Point",
      "coordinates" : [ -73.372694, 3.270805 ]
    }
  }, {
    "type" : "Feature",
    "properties" : {
      "TIPO_EVENTO" : "5",
      "DEPARTAMENTO" : "META",
      "TIPO_AREA" : "Rural",
      "AÑO" : "2000",
      "MUNICIPIO" : "PUERTO LLERAS"
    },
    "geometry" : {
      "type" : "Point",
      "coordinates" : [ -73.372694, 3.270805 ]
    }
  }, {
    "type" : "Feature",
    "properties" : {
      "TIPO_EVENTO" : "5",
      "DEPARTAMENTO" : "ANTIOQUIA",
      "TIPO_AREA" : "Rural",
      "AÑO" : "2000",
      "MUNICIPIO" : "YALÍ"
    },
    "geometry" : {
      "type" : "Point",
      "coordinates" : [ -74.83687, 6.677439 ]
    }
  }, {
    "type" : "Feature",
    "properties" : {
      "TIPO_EVENTO" : "5",
      "DEPARTAMENTO" : "ANTIOQUIA",
      "TIPO_AREA" : "Rural",
      "AÑO" : "2000",
      "MUNICIPIO" : "YALÍ"
    },
    "geometry" : {
      "type" : "Point",
      "coordinates" : [ -74.83687, 6.677439 ]
    }
  }, {
    "type" : "Feature",
    "properties" : {
      "TIPO_EVENTO" : "5",
      "DEPARTAMENTO" : "ANTIOQUIA",
      "TIPO_AREA" : "Rural",
      "AÑO" : "2000",
      "MUNICIPIO" : "YONDÓ"
    },
    "geometry" : {
      "type" : "Point",
      "coordinates" : [ -73.909682, 7.006776 ]
    }
  }, {
    "type" : "Feature",
    "properties" : {
      "TIPO_EVENTO" : "5",
      "DEPARTAMENTO" : "ANTIOQUIA",
      "TIPO_AREA" : "Rural",
      "AÑO" : "2000",
      "MUNICIPIO" : "ARGELIA"
    },
    "geometry" : {
      "type" : "Point",
      "coordinates" : [ -75.1416, 5.731577 ]
    }
  }, {
    "type" : "Feature",
    "properties" : {
      "TIPO_EVENTO" : "5",
      "DEPARTAMENTO" : "ANTIOQUIA",
      "TIPO_AREA" : "Rural",
      "AÑO" : "2000",
      "MUNICIPIO" : "BARBOSA"
    },
    "geometry" : {
      "type" : "Point",
      "coordinates" : [ -75.354467, 6.448375 ]
    }
  }, {
    "type" : "Feature",
    "properties" : {
      "TIPO_EVENTO" : "5",
      "DEPARTAMENTO" : "ANTIOQUIA",
      "TIPO_AREA" : "Rural",
      "AÑO" : "2000",
      "MUNICIPIO" : "BARBOSA"
    },
    "geometry" : {
      "type" : "Point",
      "coordinates" : [ -75.354467, 6.448375 ]
    }
  }, {
    "type" : "Feature",
    "properties" : {
      "TIPO_EVENTO" : "5",
      "DEPARTAMENTO" : "ANTIOQUIA",
      "TIPO_AREA" : "Rural",
      "AÑO" : "2000",
      "MUNICIPIO" : "ABEJORRAL"
    },
    "geometry" : {
      "type" : "Point",
      "coordinates" : [ -75.4275, 5.790278 ]
    }
  }, {
    "type" : "Feature",
    "properties" : {
      "TIPO_EVENTO" : "5",
      "DEPARTAMENTO" : "ANTIOQUIA",
      "TIPO_AREA" : "Rural",
      "AÑO" : "2000",
      "MUNICIPIO" : "CÁCERES"
    },
    "geometry" : {
      "type" : "Point",
      "coordinates" : [ -75.349999, 7.577332 ]
    }
  }, {
    "type" : "Feature",
    "properties" : {
      "TIPO_EVENTO" : "5",
      "DEPARTAMENTO" : "ANTIOQUIA",
      "TIPO_AREA" : "Rural",
      "AÑO" : "2000",
      "MUNICIPIO" : "CÁCERES"
    },
    "geometry" : {
      "type" : "Point",
      "coordinates" : [ -75.349999, 7.577332 ]
    }
  }, {
    "type" : "Feature",
    "properties" : {
      "TIPO_EVENTO" : "5",
      "DEPARTAMENTO" : "ANTIOQUIA",
      "TIPO_AREA" : "Rural",
      "AÑO" : "2000",
      "MUNICIPIO" : "COCORNÁ"
    },
    "geometry" : {
      "type" : "Point",
      "coordinates" : [ -75.185085, 6.058001 ]
    }
  }, {
    "type" : "Feature",
    "properties" : {
      "TIPO_EVENTO" : "5",
      "DEPARTAMENTO" : "ANTIOQUIA",
      "TIPO_AREA" : "Rural",
      "AÑO" : "2000",
      "MUNICIPIO" : "AMALFI"
    },
    "geometry" : {
      "type" : "Point",
      "coordinates" : [ -75.075344, 6.9081 ]
    }
  }, {
    "type" : "Feature",
    "properties" : {
      "TIPO_EVENTO" : "5",
      "DEPARTAMENTO" : "ANTIOQUIA",
      "TIPO_AREA" : "Urbana",
      "AÑO" : "2000",
      "MUNICIPIO" : "NARIÑO"
    },
    "geometry" : {
      "type" : "Point",
      "coordinates" : [ -75.176737, 5.609351 ]
    }
  }, {
    "type" : "Feature",
    "properties" : {
      "TIPO_EVENTO" : "5",
      "DEPARTAMENTO" : "ANTIOQUIA",
      "TIPO_AREA" : "Rural",
      "AÑO" : "2000",
      "MUNICIPIO" : "NECHÍ"
    },
    "geometry" : {
      "type" : "Point",
      "coordinates" : [ -74.776599, 8.095854 ]
    }
  }, {
    "type" : "Feature",
    "properties" : {
      "TIPO_EVENTO" : "5",
      "DEPARTAMENTO" : "ANTIOQUIA",
      "TIPO_AREA" : "Rural",
      "AÑO" : "2000",
      "MUNICIPIO" : "REMEDIOS"
    },
    "geometry" : {
      "type" : "Point",
      "coordinates" : [ -74.693451, 7.028009 ]
    }
  }, {
    "type" : "Feature",
    "properties" : {
      "TIPO_EVENTO" : "5",
      "DEPARTAMENTO" : "ANTIOQUIA",
      "TIPO_AREA" : "Rural",
      "AÑO" : "2000",
      "MUNICIPIO" : "REMEDIOS"
    },
    "geometry" : {
      "type" : "Point",
      "coordinates" : [ -74.693451, 7.028009 ]
    }
  }, {
    "type" : "Feature",
    "properties" : {
      "TIPO_EVENTO" : "5",
      "DEPARTAMENTO" : "ANTIOQUIA",
      "TIPO_AREA" : "Rural",
      "AÑO" : "2000",
      "MUNICIPIO" : "REMEDIOS"
    },
    "geometry" : {
      "type" : "Point",
      "coordinates" : [ -74.693451, 7.028009 ]
    }
  }, {
    "type" : "Feature",
    "properties" : {
      "TIPO_EVENTO" : "5",
      "DEPARTAMENTO" : "ANTIOQUIA",
      "TIPO_AREA" : "Rural",
      "AÑO" : "2000",
      "MUNICIPIO" : "REMEDIOS"
    },
    "geometry" : {
      "type" : "Point",
      "coordinates" : [ -74.693451, 7.028009 ]
    }
  }, {
    "type" : "Feature",
    "properties" : {
      "TIPO_EVENTO" : "5",
      "DEPARTAMENTO" : "ANTIOQUIA",
      "TIPO_AREA" : "Rural",
      "AÑO" : "2000",
      "MUNICIPIO" : "SAN CARLOS"
    },
    "geometry" : {
      "type" : "Point",
      "coordinates" : [ -74.993636, 6.187566 ]
    }
  }, {
    "type" : "Feature",
    "properties" : {
      "TIPO_EVENTO" : "5",
      "DEPARTAMENTO" : "ANTIOQUIA",
      "TIPO_AREA" : "Rural",
      "AÑO" : "2000",
      "MUNICIPIO" : "SAN LUIS"
    },
    "geometry" : {
      "type" : "Point",
      "coordinates" : [ -74.994899, 6.042723 ]
    }
  }, {
    "type" : "Feature",
    "properties" : {
      "TIPO_EVENTO" : "5",
      "DEPARTAMENTO" : "ANTIOQUIA",
      "TIPO_AREA" : "Rural",
      "AÑO" : "2000",
      "MUNICIPIO" : "SAN LUIS"
    },
    "geometry" : {
      "type" : "Point",
      "coordinates" : [ -74.994899, 6.042723 ]
    }
  }, {
    "type" : "Feature",
    "properties" : {
      "TIPO_EVENTO" : "5",
      "DEPARTAMENTO" : "ANTIOQUIA",
      "TIPO_AREA" : "Rural",
      "AÑO" : "2000",
      "MUNICIPIO" : "SAN LUIS"
    },
    "geometry" : {
      "type" : "Point",
      "coordinates" : [ -74.994899, 6.042723 ]
    }
  }, {
    "type" : "Feature",
    "properties" : {
      "TIPO_EVENTO" : "5",
      "DEPARTAMENTO" : "ANTIOQUIA",
      "TIPO_AREA" : "Rural",
      "AÑO" : "2000",
      "MUNICIPIO" : "SAN VICENTE"
    },
    "geometry" : {
      "type" : "Point",
      "coordinates" : [ -75.336481, 6.287633 ]
    }
  }, {
    "type" : "Feature",
    "properties" : {
      "TIPO_EVENTO" : "5",
      "DEPARTAMENTO" : "NARIÑO",
      "TIPO_AREA" : "Rural",
      "AÑO" : "2000",
      "MUNICIPIO" : "PASTO"
    },
    "geometry" : {
      "type" : "Point",
      "coordinates" : [ -77.253136, 1.200989 ]
    }
  }, {
    "type" : "Feature",
    "properties" : {
      "TIPO_EVENTO" : "5",
      "DEPARTAMENTO" : "NORTE DE SANTANDER",
      "TIPO_AREA" : "Rural",
      "AÑO" : "2000",
      "MUNICIPIO" : "SARDINATA"
    },
    "geometry" : {
      "type" : "Point",
      "coordinates" : [ -72.801023, 8.083016 ]
    }
  }, {
    "type" : "Feature",
    "properties" : {
      "TIPO_EVENTO" : "5",
      "DEPARTAMENTO" : "NORTE DE SANTANDER",
      "TIPO_AREA" : "Rural",
      "AÑO" : "2000",
      "MUNICIPIO" : "SARDINATA"
    },
    "geometry" : {
      "type" : "Point",
      "coordinates" : [ -72.801023, 8.083016 ]
    }
  }, {
    "type" : "Feature",
    "properties" : {
      "TIPO_EVENTO" : "5",
      "DEPARTAMENTO" : "NORTE DE SANTANDER",
      "TIPO_AREA" : "Rural",
      "AÑO" : "2000",
      "MUNICIPIO" : "EL TARRA"
    },
    "geometry" : {
      "type" : "Point",
      "coordinates" : [ -73.097044, 8.574766 ]
    }
  }, {
    "type" : "Feature",
    "properties" : {
      "TIPO_EVENTO" : "5",
      "DEPARTAMENTO" : "SANTANDER",
      "TIPO_AREA" : "Rural",
      "AÑO" : "2000",
      "MUNICIPIO" : "BARRANCABERMEJA"
    },
    "geometry" : {
      "type" : "Point",
      "coordinates" : [ -73.855997, 7.061193 ]
    }
  }, {
    "type" : "Feature",
    "properties" : {
      "TIPO_EVENTO" : "5",
      "DEPARTAMENTO" : "SANTANDER",
      "TIPO_AREA" : "Urbana",
      "AÑO" : "2000",
      "MUNICIPIO" : "BARRANCABERMEJA"
    },
    "geometry" : {
      "type" : "Point",
      "coordinates" : [ -73.855997, 7.061193 ]
    }
  }, {
    "type" : "Feature",
    "properties" : {
      "TIPO_EVENTO" : "5",
      "DEPARTAMENTO" : "SANTANDER",
      "TIPO_AREA" : "Urbana",
      "AÑO" : "2000",
      "MUNICIPIO" : "BARRANCABERMEJA"
    },
    "geometry" : {
      "type" : "Point",
      "coordinates" : [ -73.855997, 7.061193 ]
    }
  }, {
    "type" : "Feature",
    "properties" : {
      "TIPO_EVENTO" : "5",
      "DEPARTAMENTO" : "SANTANDER",
      "TIPO_AREA" : "Urbana",
      "AÑO" : "2000",
      "MUNICIPIO" : "BARRANCABERMEJA"
    },
    "geometry" : {
      "type" : "Point",
      "coordinates" : [ -73.855997, 7.061193 ]
    }
  }, {
    "type" : "Feature",
    "properties" : {
      "TIPO_EVENTO" : "5",
      "DEPARTAMENTO" : "SANTANDER",
      "TIPO_AREA" : "Rural",
      "AÑO" : "2000",
      "MUNICIPIO" : "SAN VICENTE DE CHUCURÍ"
    },
    "geometry" : {
      "type" : "Point",
      "coordinates" : [ -73.413915, 6.884411 ]
    }
  }, {
    "type" : "Feature",
    "properties" : {
      "TIPO_EVENTO" : "5",
      "DEPARTAMENTO" : "SUCRE",
      "TIPO_AREA" : "Rural",
      "AÑO" : "2000",
      "MUNICIPIO" : "COLOSÓ"
    },
    "geometry" : {
      "type" : "Point",
      "coordinates" : [ -75.360993, 9.48494 ]
    }
  }, {
    "type" : "Feature",
    "properties" : {
      "TIPO_EVENTO" : "5",
      "DEPARTAMENTO" : "TOLIMA",
      "TIPO_AREA" : "Rural",
      "AÑO" : "2000",
      "MUNICIPIO" : "DOLORES"
    },
    "geometry" : {
      "type" : "Point",
      "coordinates" : [ -74.897326, 3.539477 ]
    }
  }, {
    "type" : "Feature",
    "properties" : {
      "TIPO_EVENTO" : "5",
      "DEPARTAMENTO" : "VALLE DEL CAUCA",
      "TIPO_AREA" : "Rural",
      "AÑO" : "2000",
      "MUNICIPIO" : "CALI"
    },
    "geometry" : {
      "type" : "Point",
      "coordinates" : [ -76.520562, 3.441883 ]
    }
  }, {
    "type" : "Feature",
    "properties" : {
      "TIPO_EVENTO" : "5",
      "DEPARTAMENTO" : "VALLE DEL CAUCA",
      "TIPO_AREA" : "Rural",
      "AÑO" : "2000",
      "MUNICIPIO" : "CALI"
    },
    "geometry" : {
      "type" : "Point",
      "coordinates" : [ -76.520562, 3.441883 ]
    }
  }, {
    "type" : "Feature",
    "properties" : {
      "TIPO_EVENTO" : "5",
      "DEPARTAMENTO" : "VALLE DEL CAUCA",
      "TIPO_AREA" : "Rural",
      "AÑO" : "2000",
      "MUNICIPIO" : "JAMUNDÍ"
    },
    "geometry" : {
      "type" : "Point",
      "coordinates" : [ -76.539375, 3.263488 ]
    }
  }, {
    "type" : "Feature",
    "properties" : {
      "TIPO_EVENTO" : "5",
      "DEPARTAMENTO" : "VALLE DEL CAUCA",
      "TIPO_AREA" : "Rural",
      "AÑO" : "2000",
      "MUNICIPIO" : "JAMUNDÍ"
    },
    "geometry" : {
      "type" : "Point",
      "coordinates" : [ -76.539375, 3.263488 ]
    }
  }, {
    "type" : "Feature",
    "properties" : {
      "TIPO_EVENTO" : "5",
      "DEPARTAMENTO" : "VALLE DEL CAUCA",
      "TIPO_AREA" : "Rural",
      "AÑO" : "2000",
      "MUNICIPIO" : "JAMUNDÍ"
    },
    "geometry" : {
      "type" : "Point",
      "coordinates" : [ -76.539375, 3.263488 ]
    }
  }, {
    "type" : "Feature",
    "properties" : {
      "TIPO_EVENTO" : "5",
      "DEPARTAMENTO" : "VALLE DEL CAUCA",
      "TIPO_AREA" : "Rural",
      "AÑO" : "2000",
      "MUNICIPIO" : "JAMUNDÍ"
    },
    "geometry" : {
      "type" : "Point",
      "coordinates" : [ -76.539375, 3.263488 ]
    }
  }, {
    "type" : "Feature",
    "properties" : {
      "TIPO_EVENTO" : "5",
      "DEPARTAMENTO" : "VALLE DEL CAUCA",
      "TIPO_AREA" : "Rural",
      "AÑO" : "2000",
      "MUNICIPIO" : "TULUÁ"
    },
    "geometry" : {
      "type" : "Point",
      "coordinates" : [ -76.212083, 4.084598 ]
    }
  }, {
    "type" : "Feature",
    "properties" : {
      "TIPO_EVENTO" : "5",
      "DEPARTAMENTO" : "ARAUCA",
      "TIPO_AREA" : "Rural",
      "AÑO" : "2000",
      "MUNICIPIO" : "ARAUCA"
    },
    "geometry" : {
      "type" : "Point",
      "coordinates" : [ -70.75831, 7.087606 ]
    }
  }, {
    "type" : "Feature",
    "properties" : {
      "TIPO_EVENTO" : "5",
      "DEPARTAMENTO" : "CASANARE",
      "TIPO_AREA" : "Rural",
      "AÑO" : "2000",
      "MUNICIPIO" : "TÁMARA"
    },
    "geometry" : {
      "type" : "Point",
      "coordinates" : [ -72.162979, 5.829771 ]
    }
  }, {
    "type" : "Feature",
    "properties" : {
      "TIPO_EVENTO" : "5",
      "DEPARTAMENTO" : "CASANARE",
      "TIPO_AREA" : "Rural",
      "AÑO" : "2000",
      "MUNICIPIO" : "TAURAMENA"
    },
    "geometry" : {
      "type" : "Point",
      "coordinates" : [ -72.747059, 5.017559 ]
    }
  }, {
    "type" : "Feature",
    "properties" : {
      "TIPO_EVENTO" : "5",
      "DEPARTAMENTO" : "VAUPES",
      "TIPO_AREA" : "Rural",
      "AÑO" : "2000",
      "MUNICIPIO" : "MITÚ"
    },
    "geometry" : {
      "type" : "Point",
      "coordinates" : [ -70.235462, 1.249969 ]
    }
  }, {
    "type" : "Feature",
    "properties" : {
      "TIPO_EVENTO" : "5",
      "DEPARTAMENTO" : "ANTIOQUIA",
      "TIPO_AREA" : "Rural",
      "AÑO" : "2000",
      "MUNICIPIO" : "SAN RAFAEL"
    },
    "geometry" : {
      "type" : "Point",
      "coordinates" : [ -75.027634, 6.294891 ]
    }
  }, {
    "type" : "Feature",
    "properties" : {
      "TIPO_EVENTO" : "5",
      "DEPARTAMENTO" : "ANTIOQUIA",
      "TIPO_AREA" : "Rural",
      "AÑO" : "2000",
      "MUNICIPIO" : "YONDÓ"
    },
    "geometry" : {
      "type" : "Point",
      "coordinates" : [ -73.909682, 7.006776 ]
    }
  }, {
    "type" : "Feature",
    "properties" : {
      "TIPO_EVENTO" : "5",
      "DEPARTAMENTO" : "ANTIOQUIA",
      "TIPO_AREA" : "Rural",
      "AÑO" : "2000",
      "MUNICIPIO" : "YONDÓ"
    },
    "geometry" : {
      "type" : "Point",
      "coordinates" : [ -73.909682, 7.006776 ]
    }
  }, {
    "type" : "Feature",
    "properties" : {
      "TIPO_EVENTO" : "5",
      "DEPARTAMENTO" : "ANTIOQUIA",
      "TIPO_AREA" : "Rural",
      "AÑO" : "2000",
      "MUNICIPIO" : "SANTA ROSA DE OSOS"
    },
    "geometry" : {
      "type" : "Point",
      "coordinates" : [ -75.460284, 6.647527 ]
    }
  }, {
    "type" : "Feature",
    "properties" : {
      "TIPO_EVENTO" : "5",
      "DEPARTAMENTO" : "MAGDALENA",
      "TIPO_AREA" : "Rural",
      "AÑO" : "2000",
      "MUNICIPIO" : "ZONA BANANERA"
    },
    "geometry" : {
      "type" : "Point",
      "coordinates" : [ -74.136128, 10.766014 ]
    }
  }, {
    "type" : "Feature",
    "properties" : {
      "TIPO_EVENTO" : "5",
      "DEPARTAMENTO" : "LA GUAJIRA",
      "TIPO_AREA" : "Rural",
      "AÑO" : "2000",
      "MUNICIPIO" : "SAN JUAN DEL CESAR"
    },
    "geometry" : {
      "type" : "Point",
      "coordinates" : [ -73.001889, 10.764517 ]
    }
  }, {
    "type" : "Feature",
    "properties" : {
      "TIPO_EVENTO" : "5",
      "DEPARTAMENTO" : "ANTIOQUIA",
      "TIPO_AREA" : "Rural",
      "AÑO" : "2000",
      "MUNICIPIO" : "SAN ROQUE"
    },
    "geometry" : {
      "type" : "Point",
      "coordinates" : [ -75.019268, 6.484969 ]
    }
  }, {
    "type" : "Feature",
    "properties" : {
      "TIPO_EVENTO" : "8",
      "DEPARTAMENTO" : "CESAR",
      "TIPO_AREA" : "Rural",
      "AÑO" : "2000",
      "MUNICIPIO" : "EL COPEY"
    },
    "geometry" : {
      "type" : "Point",
      "coordinates" : [ -73.960141, 10.151103 ]
    }
  }, {
    "type" : "Feature",
    "properties" : {
      "TIPO_EVENTO" : "8",
      "DEPARTAMENTO" : "SANTANDER",
      "TIPO_AREA" : "Rural",
      "AÑO" : "2000",
      "MUNICIPIO" : "RIONEGRO"
    },
    "geometry" : {
      "type" : "Point",
      "coordinates" : [ -73.152703, 7.268891 ]
    }
  }, {
    "type" : "Feature",
    "properties" : {
      "TIPO_EVENTO" : "8",
      "DEPARTAMENTO" : "VALLE DEL CAUCA",
      "TIPO_AREA" : "Rural",
      "AÑO" : "2000",
      "MUNICIPIO" : "SEVILLA"
    },
    "geometry" : {
      "type" : "Point",
      "coordinates" : [ -75.920118, 4.262605 ]
    }
  }, {
    "type" : "Feature",
    "properties" : {
      "TIPO_EVENTO" : "8",
      "DEPARTAMENTO" : "ARAUCA",
      "TIPO_AREA" : "Rural",
      "AÑO" : "2000",
      "MUNICIPIO" : "SARAVENA"
    },
    "geometry" : {
      "type" : "Point",
      "coordinates" : [ -71.878277, 6.958339 ]
    }
  }, {
    "type" : "Feature",
    "properties" : {
      "TIPO_EVENTO" : "8",
      "DEPARTAMENTO" : "CUNDINAMARCA",
      "TIPO_AREA" : "Urbana",
      "AÑO" : "2000",
      "MUNICIPIO" : "CABRERA"
    },
    "geometry" : {
      "type" : "Point",
      "coordinates" : [ -74.484762, 3.984124 ]
    }
  }, {
    "type" : "Feature",
    "properties" : {
      "TIPO_EVENTO" : "8",
      "DEPARTAMENTO" : "BOGOTA DC",
      "TIPO_AREA" : "Rural",
      "AÑO" : "2000",
      "MUNICIPIO" : "Bogotá DC"
    },
    "geometry" : {
      "type" : "Point",
      "coordinates" : [ -74.146592, 4.680486 ]
    }
  }, {
    "type" : "Feature",
    "properties" : {
      "TIPO_EVENTO" : "8",
      "DEPARTAMENTO" : "VALLE DEL CAUCA",
      "TIPO_AREA" : "Urbana",
      "AÑO" : "2000",
      "MUNICIPIO" : "CALI"
    },
    "geometry" : {
      "type" : "Point",
      "coordinates" : [ -76.520562, 3.441883 ]
    }
  }, {
    "type" : "Feature",
    "properties" : {
      "TIPO_EVENTO" : "8",
      "DEPARTAMENTO" : "ANTIOQUIA",
      "TIPO_AREA" : "Rural",
      "AÑO" : "2000",
      "MUNICIPIO" : "TURBO"
    },
    "geometry" : {
      "type" : "Point",
      "coordinates" : [ -76.73923237, 8.099159651 ]
    }
  }, {
    "type" : "Feature",
    "properties" : {
      "TIPO_EVENTO" : "8",
      "DEPARTAMENTO" : "ANTIOQUIA",
      "TIPO_AREA" : "Rural",
      "AÑO" : "2000",
      "MUNICIPIO" : "APARTADÓ"
    },
    "geometry" : {
      "type" : "Point",
      "coordinates" : [ -76.625111, 7.882098 ]
    }
  }, {
    "type" : "Feature",
    "properties" : {
      "TIPO_EVENTO" : "8",
      "DEPARTAMENTO" : "PUTUMAYO",
      "TIPO_AREA" : "Rural",
      "AÑO" : "2000",
      "MUNICIPIO" : "SANTIAGO"
    },
    "geometry" : {
      "type" : "Point",
      "coordinates" : [ -77.002314, 1.146769 ]
    }
  } ],
  "properties": {
    "fields":{
      "TIPO_EVENTO": {"lookup": {"1": "Accidente por MAP", "2": "Accidente por MUSE", "3": "Arsenal almacenada", "4": "Desminado militar en operaciones","5": "Incautaciones", "6":"Municiones sin explotar","7":"Producción de Minas (Fábrica)","8":"Sospecha de campo minado"}, "name": "Tipo de evento"},
      "AÑO": {"name": "Año"},
      "DEPARTAMENTO": {"name": "Departamento"},
      "MUNICIPIO": {"name": "Municipio"},
      "TIPO_AREA": {"name": "Tipo de area"}
    }
  }
}
