{
  "type" : "FeatureCollection",
  "features" : [ {
    "type" : "Feature",
    "properties" : {
      "TIPO_EVENTO" : "1",
      "DEPARTAMENTO" : "TOLIMA",
      "TIPO_AREA" : "Rural",
      "AÑO" : "2006",
      "MUNICIPIO" : "PLANADAS"
    },
    "geometry" : {
      "type" : "Point",
      "coordinates" : [ -75.643224, 3.197458 ]
    }
  }, {
    "type" : "Feature",
    "properties" : {
      "TIPO_EVENTO" : "1",
      "DEPARTAMENTO" : "SUCRE",
      "TIPO_AREA" : "Rural",
      "AÑO" : "2006",
      "MUNICIPIO" : "SAN ONOFRE"
    },
    "geometry" : {
      "type" : "Point",
      "coordinates" : [ -75.523136, 9.737003 ]
    }
  }, {
    "type" : "Feature",
    "properties" : {
      "TIPO_EVENTO" : "1",
      "DEPARTAMENTO" : "META",
      "TIPO_AREA" : "Rural",
      "AÑO" : "2006",
      "MUNICIPIO" : "VISTAHERMOSA"
    },
    "geometry" : {
      "type" : "Point",
      "coordinates" : [ -73.84083333, 2.830555556 ]
    }
  }, {
    "type" : "Feature",
    "properties" : {
      "TIPO_EVENTO" : "1",
      "DEPARTAMENTO" : "CAQUETA",
      "TIPO_AREA" : "Rural",
      "AÑO" : "2006",
      "MUNICIPIO" : "MONTAÑITA"
    },
    "geometry" : {
      "type" : "Point",
      "coordinates" : [ -75.46308951, 1.494944213 ]
    }
  }, {
    "type" : "Feature",
    "properties" : {
      "TIPO_EVENTO" : "1",
      "DEPARTAMENTO" : "CALDAS",
      "TIPO_AREA" : "Rural",
      "AÑO" : "2006",
      "MUNICIPIO" : "MARULANDA"
    },
    "geometry" : {
      "type" : "Point",
      "coordinates" : [ -75.260392, 5.284208 ]
    }
  }, {
    "type" : "Feature",
    "properties" : {
      "TIPO_EVENTO" : "1",
      "DEPARTAMENTO" : "ANTIOQUIA",
      "TIPO_AREA" : "Rural",
      "AÑO" : "2006",
      "MUNICIPIO" : "CAMPAMENTO"
    },
    "geometry" : {
      "type" : "Point",
      "coordinates" : [ -75.296386, 6.979151 ]
    }
  }, {
    "type" : "Feature",
    "properties" : {
      "TIPO_EVENTO" : "1",
      "DEPARTAMENTO" : "META",
      "TIPO_AREA" : "Rural",
      "AÑO" : "2006",
      "MUNICIPIO" : "VISTAHERMOSA"
    },
    "geometry" : {
      "type" : "Point",
      "coordinates" : [ -73.752373, 3.125088 ]
    }
  }, {
    "type" : "Feature",
    "properties" : {
      "TIPO_EVENTO" : "1",
      "DEPARTAMENTO" : "CALDAS",
      "TIPO_AREA" : "Rural",
      "AÑO" : "2006",
      "MUNICIPIO" : "MARULANDA"
    },
    "geometry" : {
      "type" : "Point",
      "coordinates" : [ -75.260392, 5.284208 ]
    }
  }, {
    "type" : "Feature",
    "properties" : {
      "TIPO_EVENTO" : "1",
      "DEPARTAMENTO" : "ANTIOQUIA",
      "TIPO_AREA" : "Rural",
      "AÑO" : "2006",
      "MUNICIPIO" : "CAMPAMENTO"
    },
    "geometry" : {
      "type" : "Point",
      "coordinates" : [ -75.296386, 6.979151 ]
    }
  }, {
    "type" : "Feature",
    "properties" : {
      "TIPO_EVENTO" : "1",
      "DEPARTAMENTO" : "NARIÑO",
      "TIPO_AREA" : "Rural",
      "AÑO" : "2006",
      "MUNICIPIO" : "POLICARPA"
    },
    "geometry" : {
      "type" : "Point",
      "coordinates" : [ -77.459098, 1.628192 ]
    }
  }, {
    "type" : "Feature",
    "properties" : {
      "TIPO_EVENTO" : "1",
      "DEPARTAMENTO" : "META",
      "TIPO_AREA" : "Rural",
      "AÑO" : "2006",
      "MUNICIPIO" : "VISTAHERMOSA"
    },
    "geometry" : {
      "type" : "Point",
      "coordinates" : [ -73.752373, 3.125088 ]
    }
  }, {
    "type" : "Feature",
    "properties" : {
      "TIPO_EVENTO" : "1",
      "DEPARTAMENTO" : "TOLIMA",
      "TIPO_AREA" : "Rural",
      "AÑO" : "2006",
      "MUNICIPIO" : "DOLORES"
    },
    "geometry" : {
      "type" : "Point",
      "coordinates" : [ -74.754167, 3.658889 ]
    }
  }, {
    "type" : "Feature",
    "properties" : {
      "TIPO_EVENTO" : "1",
      "DEPARTAMENTO" : "ANTIOQUIA",
      "TIPO_AREA" : "Rural",
      "AÑO" : "2006",
      "MUNICIPIO" : "ABEJORRAL"
    },
    "geometry" : {
      "type" : "Point",
      "coordinates" : [ -75.4775, 5.760556 ]
    }
  }, {
    "type" : "Feature",
    "properties" : {
      "TIPO_EVENTO" : "1",
      "DEPARTAMENTO" : "META",
      "TIPO_AREA" : "Rural",
      "AÑO" : "2006",
      "MUNICIPIO" : "VISTAHERMOSA"
    },
    "geometry" : {
      "type" : "Point",
      "coordinates" : [ -73.791944, 2.858889 ]
    }
  }, {
    "type" : "Feature",
    "properties" : {
      "TIPO_EVENTO" : "1",
      "DEPARTAMENTO" : "ANTIOQUIA",
      "TIPO_AREA" : "Rural",
      "AÑO" : "2006",
      "MUNICIPIO" : "GRANADA"
    },
    "geometry" : {
      "type" : "Point",
      "coordinates" : [ -75.185183, 6.143703 ]
    }
  }, {
    "type" : "Feature",
    "properties" : {
      "TIPO_EVENTO" : "1",
      "DEPARTAMENTO" : "TOLIMA",
      "TIPO_AREA" : "Rural",
      "AÑO" : "2006",
      "MUNICIPIO" : "PLANADAS"
    },
    "geometry" : {
      "type" : "Point",
      "coordinates" : [ -75.643224, 3.197458 ]
    }
  }, {
    "type" : "Feature",
    "properties" : {
      "TIPO_EVENTO" : "1",
      "DEPARTAMENTO" : "ANTIOQUIA",
      "TIPO_AREA" : "Rural",
      "AÑO" : "2006",
      "MUNICIPIO" : "DABEIBA"
    },
    "geometry" : {
      "type" : "Point",
      "coordinates" : [ -76.263894, 7.002761 ]
    }
  }, {
    "type" : "Feature",
    "properties" : {
      "TIPO_EVENTO" : "1",
      "DEPARTAMENTO" : "META",
      "TIPO_AREA" : "Rural",
      "AÑO" : "2006",
      "MUNICIPIO" : "VISTAHERMOSA"
    },
    "geometry" : {
      "type" : "Point",
      "coordinates" : [ -73.752373, 3.125088 ]
    }
  }, {
    "type" : "Feature",
    "properties" : {
      "TIPO_EVENTO" : "1",
      "DEPARTAMENTO" : "ANTIOQUIA",
      "TIPO_AREA" : "Rural",
      "AÑO" : "2006",
      "MUNICIPIO" : "SAN RAFAEL"
    },
    "geometry" : {
      "type" : "Point",
      "coordinates" : [ -75.027634, 6.294891 ]
    }
  }, {
    "type" : "Feature",
    "properties" : {
      "TIPO_EVENTO" : "1",
      "DEPARTAMENTO" : "VALLE DEL CAUCA",
      "TIPO_AREA" : "Rural",
      "AÑO" : "2006",
      "MUNICIPIO" : "TULUÁ"
    },
    "geometry" : {
      "type" : "Point",
      "coordinates" : [ -76.212083, 4.084598 ]
    }
  }, {
    "type" : "Feature",
    "properties" : {
      "TIPO_EVENTO" : "1",
      "DEPARTAMENTO" : "META",
      "TIPO_AREA" : "Rural",
      "AÑO" : "2006",
      "MUNICIPIO" : "VISTAHERMOSA"
    },
    "geometry" : {
      "type" : "Point",
      "coordinates" : [ -73.781506, 3.092292 ]
    }
  }, {
    "type" : "Feature",
    "properties" : {
      "TIPO_EVENTO" : "1",
      "DEPARTAMENTO" : "PUTUMAYO",
      "TIPO_AREA" : "Rural",
      "AÑO" : "2006",
      "MUNICIPIO" : "PUERTO ASÍS"
    },
    "geometry" : {
      "type" : "Point",
      "coordinates" : [ -76.49818, 0.502569 ]
    }
  }, {
    "type" : "Feature",
    "properties" : {
      "TIPO_EVENTO" : "1",
      "DEPARTAMENTO" : "META",
      "TIPO_AREA" : "Rural",
      "AÑO" : "2006",
      "MUNICIPIO" : "VISTAHERMOSA"
    },
    "geometry" : {
      "type" : "Point",
      "coordinates" : [ -73.752373, 3.125088 ]
    }
  }, {
    "type" : "Feature",
    "properties" : {
      "TIPO_EVENTO" : "1",
      "DEPARTAMENTO" : "META",
      "TIPO_AREA" : "Rural",
      "AÑO" : "2006",
      "MUNICIPIO" : "VISTAHERMOSA"
    },
    "geometry" : {
      "type" : "Point",
      "coordinates" : [ -73.752373, 3.125088 ]
    }
  }, {
    "type" : "Feature",
    "properties" : {
      "TIPO_EVENTO" : "1",
      "DEPARTAMENTO" : "CAQUETA",
      "TIPO_AREA" : "Rural",
      "AÑO" : "2006",
      "MUNICIPIO" : "EL DONCELLO"
    },
    "geometry" : {
      "type" : "Point",
      "coordinates" : [ -75.263056, 1.773056 ]
    }
  }, {
    "type" : "Feature",
    "properties" : {
      "TIPO_EVENTO" : "1",
      "DEPARTAMENTO" : "HUILA",
      "TIPO_AREA" : "Rural",
      "AÑO" : "2006",
      "MUNICIPIO" : "ALGECIRAS"
    },
    "geometry" : {
      "type" : "Point",
      "coordinates" : [ -75.148889, 2.591667 ]
    }
  }, {
    "type" : "Feature",
    "properties" : {
      "TIPO_EVENTO" : "1",
      "DEPARTAMENTO" : "TOLIMA",
      "TIPO_AREA" : "Rural",
      "AÑO" : "2006",
      "MUNICIPIO" : "CHAPARRAL"
    },
    "geometry" : {
      "type" : "Point",
      "coordinates" : [ -75.593056, 3.781389 ]
    }
  }, {
    "type" : "Feature",
    "properties" : {
      "TIPO_EVENTO" : "1",
      "DEPARTAMENTO" : "BOLIVAR",
      "TIPO_AREA" : "Rural",
      "AÑO" : "2006",
      "MUNICIPIO" : "EL CARMEN DE BOLÍVAR"
    },
    "geometry" : {
      "type" : "Point",
      "coordinates" : [ -75.12241208, 9.721296285 ]
    }
  }, {
    "type" : "Feature",
    "properties" : {
      "TIPO_EVENTO" : "1",
      "DEPARTAMENTO" : "TOLIMA",
      "TIPO_AREA" : "Rural",
      "AÑO" : "2006",
      "MUNICIPIO" : "SAN ANTONIO"
    },
    "geometry" : {
      "type" : "Point",
      "coordinates" : [ -75.508056, 3.851389 ]
    }
  }, {
    "type" : "Feature",
    "properties" : {
      "TIPO_EVENTO" : "1",
      "DEPARTAMENTO" : "RISARALDA",
      "TIPO_AREA" : "Rural",
      "AÑO" : "2006",
      "MUNICIPIO" : "MISTRATÓ"
    },
    "geometry" : {
      "type" : "Point",
      "coordinates" : [ -76.037778, 5.433333 ]
    }
  }, {
    "type" : "Feature",
    "properties" : {
      "TIPO_EVENTO" : "1",
      "DEPARTAMENTO" : "META",
      "TIPO_AREA" : "Rural",
      "AÑO" : "2006",
      "MUNICIPIO" : "VISTAHERMOSA"
    },
    "geometry" : {
      "type" : "Point",
      "coordinates" : [ -73.752373, 3.125088 ]
    }
  }, {
    "type" : "Feature",
    "properties" : {
      "TIPO_EVENTO" : "1",
      "DEPARTAMENTO" : "ANTIOQUIA",
      "TIPO_AREA" : "Rural",
      "AÑO" : "2006",
      "MUNICIPIO" : "ITUANGO"
    },
    "geometry" : {
      "type" : "Point",
      "coordinates" : [ -75.825, 7.237 ]
    }
  }, {
    "type" : "Feature",
    "properties" : {
      "TIPO_EVENTO" : "1",
      "DEPARTAMENTO" : "BOYACA",
      "TIPO_AREA" : "Rural",
      "AÑO" : "2006",
      "MUNICIPIO" : "PAJARITO"
    },
    "geometry" : {
      "type" : "Point",
      "coordinates" : [ -72.711667, 5.479444 ]
    }
  }, {
    "type" : "Feature",
    "properties" : {
      "TIPO_EVENTO" : "1",
      "DEPARTAMENTO" : "META",
      "TIPO_AREA" : "Rural",
      "AÑO" : "2006",
      "MUNICIPIO" : "SAN JUANITO"
    },
    "geometry" : {
      "type" : "Point",
      "coordinates" : [ -73.651746, 4.480787 ]
    }
  }, {
    "type" : "Feature",
    "properties" : {
      "TIPO_EVENTO" : "1",
      "DEPARTAMENTO" : "BOLIVAR",
      "TIPO_AREA" : "Rural",
      "AÑO" : "2006",
      "MUNICIPIO" : "EL CARMEN DE BOLÍVAR"
    },
    "geometry" : {
      "type" : "Point",
      "coordinates" : [ -75.12241208, 9.721296285 ]
    }
  }, {
    "type" : "Feature",
    "properties" : {
      "TIPO_EVENTO" : "1",
      "DEPARTAMENTO" : "META",
      "TIPO_AREA" : "Rural",
      "AÑO" : "2006",
      "MUNICIPIO" : "VISTAHERMOSA"
    },
    "geometry" : {
      "type" : "Point",
      "coordinates" : [ -73.660556, 2.9275 ]
    }
  }, {
    "type" : "Feature",
    "properties" : {
      "TIPO_EVENTO" : "1",
      "DEPARTAMENTO" : "BOLIVAR",
      "TIPO_AREA" : "Rural",
      "AÑO" : "2006",
      "MUNICIPIO" : "EL CARMEN DE BOLÍVAR"
    },
    "geometry" : {
      "type" : "Point",
      "coordinates" : [ -75.12241208, 9.721296285 ]
    }
  }, {
    "type" : "Feature",
    "properties" : {
      "TIPO_EVENTO" : "1",
      "DEPARTAMENTO" : "BOLIVAR",
      "TIPO_AREA" : "Rural",
      "AÑO" : "2006",
      "MUNICIPIO" : "EL CARMEN DE BOLÍVAR"
    },
    "geometry" : {
      "type" : "Point",
      "coordinates" : [ -75.12241208, 9.721296285 ]
    }
  }, {
    "type" : "Feature",
    "properties" : {
      "TIPO_EVENTO" : "1",
      "DEPARTAMENTO" : "BOLIVAR",
      "TIPO_AREA" : "Rural",
      "AÑO" : "2006",
      "MUNICIPIO" : "EL CARMEN DE BOLÍVAR"
    },
    "geometry" : {
      "type" : "Point",
      "coordinates" : [ -75.12241208, 9.721296285 ]
    }
  }, {
    "type" : "Feature",
    "properties" : {
      "TIPO_EVENTO" : "1",
      "DEPARTAMENTO" : "NORTE DE SANTANDER",
      "TIPO_AREA" : "Rural",
      "AÑO" : "2006",
      "MUNICIPIO" : "HACARÍ"
    },
    "geometry" : {
      "type" : "Point",
      "coordinates" : [ -73.046944, 8.280278 ]
    }
  }, {
    "type" : "Feature",
    "properties" : {
      "TIPO_EVENTO" : "1",
      "DEPARTAMENTO" : "ANTIOQUIA",
      "TIPO_AREA" : "Rural",
      "AÑO" : "2006",
      "MUNICIPIO" : "VALDIVIA"
    },
    "geometry" : {
      "type" : "Point",
      "coordinates" : [ -75.438081, 7.165222 ]
    }
  }, {
    "type" : "Feature",
    "properties" : {
      "TIPO_EVENTO" : "1",
      "DEPARTAMENTO" : "NORTE DE SANTANDER",
      "TIPO_AREA" : "Rural",
      "AÑO" : "2006",
      "MUNICIPIO" : "TEORAMA"
    },
    "geometry" : {
      "type" : "Point",
      "coordinates" : [ -73.287706, 8.437183 ]
    }
  }, {
    "type" : "Feature",
    "properties" : {
      "TIPO_EVENTO" : "1",
      "DEPARTAMENTO" : "CAQUETA",
      "TIPO_AREA" : "Rural",
      "AÑO" : "2006",
      "MUNICIPIO" : "MONTAÑITA"
    },
    "geometry" : {
      "type" : "Point",
      "coordinates" : [ -75.035278, 1.103333 ]
    }
  }, {
    "type" : "Feature",
    "properties" : {
      "TIPO_EVENTO" : "1",
      "DEPARTAMENTO" : "ANTIOQUIA",
      "TIPO_AREA" : "Rural",
      "AÑO" : "2006",
      "MUNICIPIO" : "SONSÓN"
    },
    "geometry" : {
      "type" : "Point",
      "coordinates" : [ -75.29222222, 5.541666667 ]
    }
  }, {
    "type" : "Feature",
    "properties" : {
      "TIPO_EVENTO" : "1",
      "DEPARTAMENTO" : "CALDAS",
      "TIPO_AREA" : "Rural",
      "AÑO" : "2006",
      "MUNICIPIO" : "SAMANÁ"
    },
    "geometry" : {
      "type" : "Point",
      "coordinates" : [ -74.989572, 5.411801 ]
    }
  }, {
    "type" : "Feature",
    "properties" : {
      "TIPO_EVENTO" : "1",
      "DEPARTAMENTO" : "NORTE DE SANTANDER",
      "TIPO_AREA" : "Rural",
      "AÑO" : "2006",
      "MUNICIPIO" : "SAN CALIXTO"
    },
    "geometry" : {
      "type" : "Point",
      "coordinates" : [ -73.086667, 8.405556 ]
    }
  }, {
    "type" : "Feature",
    "properties" : {
      "TIPO_EVENTO" : "1",
      "DEPARTAMENTO" : "NORTE DE SANTANDER",
      "TIPO_AREA" : "Rural",
      "AÑO" : "2006",
      "MUNICIPIO" : "HACARÍ"
    },
    "geometry" : {
      "type" : "Point",
      "coordinates" : [ -73.145699, 8.321825 ]
    }
  }, {
    "type" : "Feature",
    "properties" : {
      "TIPO_EVENTO" : "1",
      "DEPARTAMENTO" : "NORTE DE SANTANDER",
      "TIPO_AREA" : "Rural",
      "AÑO" : "2006",
      "MUNICIPIO" : "HACARÍ"
    },
    "geometry" : {
      "type" : "Point",
      "coordinates" : [ -73.145699, 8.321825 ]
    }
  }, {
    "type" : "Feature",
    "properties" : {
      "TIPO_EVENTO" : "1",
      "DEPARTAMENTO" : "BOLIVAR",
      "TIPO_AREA" : "Rural",
      "AÑO" : "2006",
      "MUNICIPIO" : "CANTAGALLO"
    },
    "geometry" : {
      "type" : "Point",
      "coordinates" : [ -73.918975, 7.379167 ]
    }
  }, {
    "type" : "Feature",
    "properties" : {
      "TIPO_EVENTO" : "1",
      "DEPARTAMENTO" : "META",
      "TIPO_AREA" : "Rural",
      "AÑO" : "2006",
      "MUNICIPIO" : "SAN JUAN DE ARAMA"
    },
    "geometry" : {
      "type" : "Point",
      "coordinates" : [ -73.84166667, 3.291666667 ]
    }
  }, {
    "type" : "Feature",
    "properties" : {
      "TIPO_EVENTO" : "1",
      "DEPARTAMENTO" : "META",
      "TIPO_AREA" : "Rural",
      "AÑO" : "2006",
      "MUNICIPIO" : "SAN JUAN DE ARAMA"
    },
    "geometry" : {
      "type" : "Point",
      "coordinates" : [ -73.846667, 3.296667 ]
    }
  }, {
    "type" : "Feature",
    "properties" : {
      "TIPO_EVENTO" : "1",
      "DEPARTAMENTO" : "CESAR",
      "TIPO_AREA" : "Rural",
      "AÑO" : "2006",
      "MUNICIPIO" : "BECERRIL"
    },
    "geometry" : {
      "type" : "Point",
      "coordinates" : [ -73.114444, 9.7425 ]
    }
  }, {
    "type" : "Feature",
    "properties" : {
      "TIPO_EVENTO" : "1",
      "DEPARTAMENTO" : "NORTE DE SANTANDER",
      "TIPO_AREA" : "Rural",
      "AÑO" : "2006",
      "MUNICIPIO" : "HACARÍ"
    },
    "geometry" : {
      "type" : "Point",
      "coordinates" : [ -73.019167, 8.359167 ]
    }
  }, {
    "type" : "Feature",
    "properties" : {
      "TIPO_EVENTO" : "1",
      "DEPARTAMENTO" : "CAQUETA",
      "TIPO_AREA" : "Rural",
      "AÑO" : "2006",
      "MUNICIPIO" : "PUERTO RICO"
    },
    "geometry" : {
      "type" : "Point",
      "coordinates" : [ -75.26, 2.405 ]
    }
  }, {
    "type" : "Feature",
    "properties" : {
      "TIPO_EVENTO" : "1",
      "DEPARTAMENTO" : "RISARALDA",
      "TIPO_AREA" : "Rural",
      "AÑO" : "2006",
      "MUNICIPIO" : "MISTRATÓ"
    },
    "geometry" : {
      "type" : "Point",
      "coordinates" : [ -75.883341, 5.298203 ]
    }
  }, {
    "type" : "Feature",
    "properties" : {
      "TIPO_EVENTO" : "1",
      "DEPARTAMENTO" : "NORTE DE SANTANDER",
      "TIPO_AREA" : "Rural",
      "AÑO" : "2006",
      "MUNICIPIO" : "TEORAMA"
    },
    "geometry" : {
      "type" : "Point",
      "coordinates" : [ -73.233889, 8.605278 ]
    }
  }, {
    "type" : "Feature",
    "properties" : {
      "TIPO_EVENTO" : "1",
      "DEPARTAMENTO" : "META",
      "TIPO_AREA" : "Rural",
      "AÑO" : "2006",
      "MUNICIPIO" : "VISTAHERMOSA"
    },
    "geometry" : {
      "type" : "Point",
      "coordinates" : [ -73.718056, 2.902778 ]
    }
  }, {
    "type" : "Feature",
    "properties" : {
      "TIPO_EVENTO" : "2",
      "DEPARTAMENTO" : "CAUCA",
      "TIPO_AREA" : "Rural",
      "AÑO" : "2006",
      "MUNICIPIO" : "PÁEZ"
    },
    "geometry" : {
      "type" : "Point",
      "coordinates" : [ -75.9730437, 2.664087619 ]
    }
  }, {
    "type" : "Feature",
    "properties" : {
      "TIPO_EVENTO" : "1",
      "DEPARTAMENTO" : "NORTE DE SANTANDER",
      "TIPO_AREA" : "Rural",
      "AÑO" : "2006",
      "MUNICIPIO" : "EL TARRA"
    },
    "geometry" : {
      "type" : "Point",
      "coordinates" : [ -73.097044, 8.574766 ]
    }
  }, {
    "type" : "Feature",
    "properties" : {
      "TIPO_EVENTO" : "1",
      "DEPARTAMENTO" : "CAQUETA",
      "TIPO_AREA" : "Rural",
      "AÑO" : "2006",
      "MUNICIPIO" : "PUERTO RICO"
    },
    "geometry" : {
      "type" : "Point",
      "coordinates" : [ -75.159112, 1.909652 ]
    }
  }, {
    "type" : "Feature",
    "properties" : {
      "TIPO_EVENTO" : "1",
      "DEPARTAMENTO" : "CAQUETA",
      "TIPO_AREA" : "Rural",
      "AÑO" : "2006",
      "MUNICIPIO" : "MONTAÑITA"
    },
    "geometry" : {
      "type" : "Point",
      "coordinates" : [ -75.034, 1.06 ]
    }
  }, {
    "type" : "Feature",
    "properties" : {
      "TIPO_EVENTO" : "1",
      "DEPARTAMENTO" : "NORTE DE SANTANDER",
      "TIPO_AREA" : "Rural",
      "AÑO" : "2006",
      "MUNICIPIO" : "HACARÍ"
    },
    "geometry" : {
      "type" : "Point",
      "coordinates" : [ -73.036667, 8.409167 ]
    }
  }, {
    "type" : "Feature",
    "properties" : {
      "TIPO_EVENTO" : "1",
      "DEPARTAMENTO" : "TOLIMA",
      "TIPO_AREA" : "Rural",
      "AÑO" : "2006",
      "MUNICIPIO" : "PLANADAS"
    },
    "geometry" : {
      "type" : "Point",
      "coordinates" : [ -75.673056, 3.069444 ]
    }
  }, {
    "type" : "Feature",
    "properties" : {
      "TIPO_EVENTO" : "1",
      "DEPARTAMENTO" : "TOLIMA",
      "TIPO_AREA" : "Rural",
      "AÑO" : "2006",
      "MUNICIPIO" : "CHAPARRAL"
    },
    "geometry" : {
      "type" : "Point",
      "coordinates" : [ -75.693889, 3.900278 ]
    }
  }, {
    "type" : "Feature",
    "properties" : {
      "TIPO_EVENTO" : "1",
      "DEPARTAMENTO" : "NORTE DE SANTANDER",
      "TIPO_AREA" : "Rural",
      "AÑO" : "2006",
      "MUNICIPIO" : "TIBÚ"
    },
    "geometry" : {
      "type" : "Point",
      "coordinates" : [ -72.609167, 8.484167 ]
    }
  }, {
    "type" : "Feature",
    "properties" : {
      "TIPO_EVENTO" : "1",
      "DEPARTAMENTO" : "ANTIOQUIA",
      "TIPO_AREA" : "Rural",
      "AÑO" : "2006",
      "MUNICIPIO" : "SONSÓN"
    },
    "geometry" : {
      "type" : "Point",
      "coordinates" : [ -75.322778, 5.653889 ]
    }
  }, {
    "type" : "Feature",
    "properties" : {
      "TIPO_EVENTO" : "1",
      "DEPARTAMENTO" : "ANTIOQUIA",
      "TIPO_AREA" : "Rural",
      "AÑO" : "2006",
      "MUNICIPIO" : "SAN RAFAEL"
    },
    "geometry" : {
      "type" : "Point",
      "coordinates" : [ -74.921, 6.375 ]
    }
  }, {
    "type" : "Feature",
    "properties" : {
      "TIPO_EVENTO" : "1",
      "DEPARTAMENTO" : "META",
      "TIPO_AREA" : "Rural",
      "AÑO" : "2006",
      "MUNICIPIO" : "VISTAHERMOSA"
    },
    "geometry" : {
      "type" : "Point",
      "coordinates" : [ -73.752373, 3.125088 ]
    }
  }, {
    "type" : "Feature",
    "properties" : {
      "TIPO_EVENTO" : "1",
      "DEPARTAMENTO" : "CAUCA",
      "TIPO_AREA" : "Rural",
      "AÑO" : "2006",
      "MUNICIPIO" : "PÁEZ"
    },
    "geometry" : {
      "type" : "Point",
      "coordinates" : [ -75.9730437, 2.664087619 ]
    }
  }, {
    "type" : "Feature",
    "properties" : {
      "TIPO_EVENTO" : "1",
      "DEPARTAMENTO" : "ANTIOQUIA",
      "TIPO_AREA" : "Rural",
      "AÑO" : "2006",
      "MUNICIPIO" : "SAN RAFAEL"
    },
    "geometry" : {
      "type" : "Point",
      "coordinates" : [ -75.027634, 6.294891 ]
    }
  }, {
    "type" : "Feature",
    "properties" : {
      "TIPO_EVENTO" : "1",
      "DEPARTAMENTO" : "ANTIOQUIA",
      "TIPO_AREA" : "Rural",
      "AÑO" : "2006",
      "MUNICIPIO" : "CAMPAMENTO"
    },
    "geometry" : {
      "type" : "Point",
      "coordinates" : [ -75.296386, 6.979151 ]
    }
  }, {
    "type" : "Feature",
    "properties" : {
      "TIPO_EVENTO" : "1",
      "DEPARTAMENTO" : "NORTE DE SANTANDER",
      "TIPO_AREA" : "Rural",
      "AÑO" : "2006",
      "MUNICIPIO" : "HACARÍ"
    },
    "geometry" : {
      "type" : "Point",
      "coordinates" : [ -73.053364, 8.394033 ]
    }
  }, {
    "type" : "Feature",
    "properties" : {
      "TIPO_EVENTO" : "1",
      "DEPARTAMENTO" : "CALDAS",
      "TIPO_AREA" : "Rural",
      "AÑO" : "2006",
      "MUNICIPIO" : "SAMANÁ"
    },
    "geometry" : {
      "type" : "Point",
      "coordinates" : [ -75.070278, 5.530278 ]
    }
  }, {
    "type" : "Feature",
    "properties" : {
      "TIPO_EVENTO" : "1",
      "DEPARTAMENTO" : "CAQUETA",
      "TIPO_AREA" : "Rural",
      "AÑO" : "2006",
      "MUNICIPIO" : "SAN VICENTE DEL CAGUÁN"
    },
    "geometry" : {
      "type" : "Point",
      "coordinates" : [ -74.768227, 2.120008 ]
    }
  }, {
    "type" : "Feature",
    "properties" : {
      "TIPO_EVENTO" : "1",
      "DEPARTAMENTO" : "CAQUETA",
      "TIPO_AREA" : "Rural",
      "AÑO" : "2006",
      "MUNICIPIO" : "PUERTO RICO"
    },
    "geometry" : {
      "type" : "Point",
      "coordinates" : [ -75.159112, 1.909652 ]
    }
  }, {
    "type" : "Feature",
    "properties" : {
      "TIPO_EVENTO" : "1",
      "DEPARTAMENTO" : "META",
      "TIPO_AREA" : "Rural",
      "AÑO" : "2006",
      "MUNICIPIO" : "PUERTO GAITÁN"
    },
    "geometry" : {
      "type" : "Point",
      "coordinates" : [ -72.08464841, 4.319290723 ]
    }
  }, {
    "type" : "Feature",
    "properties" : {
      "TIPO_EVENTO" : "1",
      "DEPARTAMENTO" : "NARIÑO",
      "TIPO_AREA" : "Rural",
      "AÑO" : "2006",
      "MUNICIPIO" : "CUMBAL"
    },
    "geometry" : {
      "type" : "Point",
      "coordinates" : [ -77.9225, 1.0625 ]
    }
  }, {
    "type" : "Feature",
    "properties" : {
      "TIPO_EVENTO" : "1",
      "DEPARTAMENTO" : "META",
      "TIPO_AREA" : "Rural",
      "AÑO" : "2006",
      "MUNICIPIO" : "PUERTO RICO"
    },
    "geometry" : {
      "type" : "Point",
      "coordinates" : [ -73.060278, 2.525833 ]
    }
  }, {
    "type" : "Feature",
    "properties" : {
      "TIPO_EVENTO" : "1",
      "DEPARTAMENTO" : "PUTUMAYO",
      "TIPO_AREA" : "Rural",
      "AÑO" : "2006",
      "MUNICIPIO" : "MOCOA"
    },
    "geometry" : {
      "type" : "Point",
      "coordinates" : [ -76.651021, 1.140023 ]
    }
  }, {
    "type" : "Feature",
    "properties" : {
      "TIPO_EVENTO" : "1",
      "DEPARTAMENTO" : "ARAUCA",
      "TIPO_AREA" : "Rural",
      "AÑO" : "2006",
      "MUNICIPIO" : "ARAUQUITA"
    },
    "geometry" : {
      "type" : "Point",
      "coordinates" : [ -71.384978, 7.023186 ]
    }
  }, {
    "type" : "Feature",
    "properties" : {
      "TIPO_EVENTO" : "2",
      "DEPARTAMENTO" : "ANTIOQUIA",
      "TIPO_AREA" : "Rural",
      "AÑO" : "2006",
      "MUNICIPIO" : "DABEIBA"
    },
    "geometry" : {
      "type" : "Point",
      "coordinates" : [ -76.263894, 7.002761 ]
    }
  }, {
    "type" : "Feature",
    "properties" : {
      "TIPO_EVENTO" : "1",
      "DEPARTAMENTO" : "NORTE DE SANTANDER",
      "TIPO_AREA" : "Rural",
      "AÑO" : "2006",
      "MUNICIPIO" : "HACARÍ"
    },
    "geometry" : {
      "type" : "Point",
      "coordinates" : [ -73.145699, 8.321825 ]
    }
  }, {
    "type" : "Feature",
    "properties" : {
      "TIPO_EVENTO" : "1",
      "DEPARTAMENTO" : "PUTUMAYO",
      "TIPO_AREA" : "Rural",
      "AÑO" : "2006",
      "MUNICIPIO" : "PUERTO ASÍS"
    },
    "geometry" : {
      "type" : "Point",
      "coordinates" : [ -76.49818, 0.502569 ]
    }
  }, {
    "type" : "Feature",
    "properties" : {
      "TIPO_EVENTO" : "1",
      "DEPARTAMENTO" : "BOLIVAR",
      "TIPO_AREA" : "Rural",
      "AÑO" : "2006",
      "MUNICIPIO" : "EL CARMEN DE BOLÍVAR"
    },
    "geometry" : {
      "type" : "Point",
      "coordinates" : [ -75.122094, 9.685015 ]
    }
  }, {
    "type" : "Feature",
    "properties" : {
      "TIPO_EVENTO" : "1",
      "DEPARTAMENTO" : "RISARALDA",
      "TIPO_AREA" : "Rural",
      "AÑO" : "2006",
      "MUNICIPIO" : "MISTRATÓ"
    },
    "geometry" : {
      "type" : "Point",
      "coordinates" : [ -75.883341, 5.298203 ]
    }
  }, {
    "type" : "Feature",
    "properties" : {
      "TIPO_EVENTO" : "1",
      "DEPARTAMENTO" : "ANTIOQUIA",
      "TIPO_AREA" : "Rural",
      "AÑO" : "2006",
      "MUNICIPIO" : "SAN RAFAEL"
    },
    "geometry" : {
      "type" : "Point",
      "coordinates" : [ -75.027634, 6.294891 ]
    }
  }, {
    "type" : "Feature",
    "properties" : {
      "TIPO_EVENTO" : "1",
      "DEPARTAMENTO" : "META",
      "TIPO_AREA" : "Rural",
      "AÑO" : "2006",
      "MUNICIPIO" : "VISTAHERMOSA"
    },
    "geometry" : {
      "type" : "Point",
      "coordinates" : [ -73.752373, 3.125088 ]
    }
  }, {
    "type" : "Feature",
    "properties" : {
      "TIPO_EVENTO" : "1",
      "DEPARTAMENTO" : "LA GUAJIRA",
      "TIPO_AREA" : "Rural",
      "AÑO" : "2006",
      "MUNICIPIO" : "DIBULLA"
    },
    "geometry" : {
      "type" : "Point",
      "coordinates" : [ -73.568889, 11.102222 ]
    }
  }, {
    "type" : "Feature",
    "properties" : {
      "TIPO_EVENTO" : "1",
      "DEPARTAMENTO" : "ARAUCA",
      "TIPO_AREA" : "Rural",
      "AÑO" : "2006",
      "MUNICIPIO" : "FORTUL"
    },
    "geometry" : {
      "type" : "Point",
      "coordinates" : [ -71.770658, 6.792924 ]
    }
  }, {
    "type" : "Feature",
    "properties" : {
      "TIPO_EVENTO" : "1",
      "DEPARTAMENTO" : "META",
      "TIPO_AREA" : "Rural",
      "AÑO" : "2006",
      "MUNICIPIO" : "VISTAHERMOSA"
    },
    "geometry" : {
      "type" : "Point",
      "coordinates" : [ -73.752373, 3.125088 ]
    }
  }, {
    "type" : "Feature",
    "properties" : {
      "TIPO_EVENTO" : "1",
      "DEPARTAMENTO" : "ARAUCA",
      "TIPO_AREA" : "Rural",
      "AÑO" : "2006",
      "MUNICIPIO" : "PUERTO RONDÓN"
    },
    "geometry" : {
      "type" : "Point",
      "coordinates" : [ -71.09961, 6.280311 ]
    }
  }, {
    "type" : "Feature",
    "properties" : {
      "TIPO_EVENTO" : "2",
      "DEPARTAMENTO" : "META",
      "TIPO_AREA" : "Rural",
      "AÑO" : "2006",
      "MUNICIPIO" : "PUERTO RICO"
    },
    "geometry" : {
      "type" : "Point",
      "coordinates" : [ -73.207891, 2.939542 ]
    }
  }, {
    "type" : "Feature",
    "properties" : {
      "TIPO_EVENTO" : "1",
      "DEPARTAMENTO" : "GUAVIARE",
      "TIPO_AREA" : "Rural",
      "AÑO" : "2006",
      "MUNICIPIO" : "SAN JOSÉ DEL GUAVIARE"
    },
    "geometry" : {
      "type" : "Point",
      "coordinates" : [ -72.640033, 2.564079 ]
    }
  }, {
    "type" : "Feature",
    "properties" : {
      "TIPO_EVENTO" : "1",
      "DEPARTAMENTO" : "SUCRE",
      "TIPO_AREA" : "Rural",
      "AÑO" : "2006",
      "MUNICIPIO" : "OVEJAS"
    },
    "geometry" : {
      "type" : "Point",
      "coordinates" : [ -75.229197, 9.517463 ]
    }
  }, {
    "type" : "Feature",
    "properties" : {
      "TIPO_EVENTO" : "1",
      "DEPARTAMENTO" : "LA GUAJIRA",
      "TIPO_AREA" : "Rural",
      "AÑO" : "2006",
      "MUNICIPIO" : "SAN JUAN DEL CESAR"
    },
    "geometry" : {
      "type" : "Point",
      "coordinates" : [ -73.100556, 10.884444 ]
    }
  }, {
    "type" : "Feature",
    "properties" : {
      "TIPO_EVENTO" : "1",
      "DEPARTAMENTO" : "NORTE DE SANTANDER",
      "TIPO_AREA" : "Rural",
      "AÑO" : "2006",
      "MUNICIPIO" : "TIBÚ"
    },
    "geometry" : {
      "type" : "Point",
      "coordinates" : [ -72.735541, 8.639326 ]
    }
  }, {
    "type" : "Feature",
    "properties" : {
      "TIPO_EVENTO" : "1",
      "DEPARTAMENTO" : "META",
      "TIPO_AREA" : "Rural",
      "AÑO" : "2006",
      "MUNICIPIO" : "LA MACARENA"
    },
    "geometry" : {
      "type" : "Point",
      "coordinates" : [ -73.784832, 2.182506 ]
    }
  }, {
    "type" : "Feature",
    "properties" : {
      "TIPO_EVENTO" : "1",
      "DEPARTAMENTO" : "META",
      "TIPO_AREA" : "Rural",
      "AÑO" : "2006",
      "MUNICIPIO" : "EL DORADO"
    },
    "geometry" : {
      "type" : "Point",
      "coordinates" : [ -73.816347, 3.676942 ]
    }
  }, {
    "type" : "Feature",
    "properties" : {
      "TIPO_EVENTO" : "1",
      "DEPARTAMENTO" : "META",
      "TIPO_AREA" : "Rural",
      "AÑO" : "2006",
      "MUNICIPIO" : "PUERTO RICO"
    },
    "geometry" : {
      "type" : "Point",
      "coordinates" : [ -73.207891, 2.939542 ]
    }
  }, {
    "type" : "Feature",
    "properties" : {
      "TIPO_EVENTO" : "1",
      "DEPARTAMENTO" : "BOLIVAR",
      "TIPO_AREA" : "Rural",
      "AÑO" : "2006",
      "MUNICIPIO" : "ZAMBRANO"
    },
    "geometry" : {
      "type" : "Point",
      "coordinates" : [ -74.832099, 9.733253 ]
    }
  }, {
    "type" : "Feature",
    "properties" : {
      "TIPO_EVENTO" : "1",
      "DEPARTAMENTO" : "CHOCO",
      "TIPO_AREA" : "Rural",
      "AÑO" : "2006",
      "MUNICIPIO" : "QUIBDÓ"
    },
    "geometry" : {
      "type" : "Point",
      "coordinates" : [ -76.494167, 5.718056 ]
    }
  }, {
    "type" : "Feature",
    "properties" : {
      "TIPO_EVENTO" : "1",
      "DEPARTAMENTO" : "ANTIOQUIA",
      "TIPO_AREA" : "Rural",
      "AÑO" : "2006",
      "MUNICIPIO" : "SAN RAFAEL"
    },
    "geometry" : {
      "type" : "Point",
      "coordinates" : [ -75.027634, 6.294891 ]
    }
  }, {
    "type" : "Feature",
    "properties" : {
      "TIPO_EVENTO" : "1",
      "DEPARTAMENTO" : "NARIÑO",
      "TIPO_AREA" : "Rural",
      "AÑO" : "2006",
      "MUNICIPIO" : "IPIALES"
    },
    "geometry" : {
      "type" : "Point",
      "coordinates" : [ -77.166667, 0.398056 ]
    }
  }, {
    "type" : "Feature",
    "properties" : {
      "TIPO_EVENTO" : "1",
      "DEPARTAMENTO" : "SUCRE",
      "TIPO_AREA" : "Rural",
      "AÑO" : "2006",
      "MUNICIPIO" : "LOS PALMITOS"
    },
    "geometry" : {
      "type" : "Point",
      "coordinates" : [ -75.263788, 9.388073 ]
    }
  }, {
    "type" : "Feature",
    "properties" : {
      "TIPO_EVENTO" : "2",
      "DEPARTAMENTO" : "MAGDALENA",
      "TIPO_AREA" : "Rural",
      "AÑO" : "2006",
      "MUNICIPIO" : "PLATO"
    },
    "geometry" : {
      "type" : "Point",
      "coordinates" : [ -74.792198, 9.794433 ]
    }
  }, {
    "type" : "Feature",
    "properties" : {
      "TIPO_EVENTO" : "1",
      "DEPARTAMENTO" : "HUILA",
      "TIPO_AREA" : "Rural",
      "AÑO" : "2006",
      "MUNICIPIO" : "BARAYA"
    },
    "geometry" : {
      "type" : "Point",
      "coordinates" : [ -74.915833, 3.101667 ]
    }
  }, {
    "type" : "Feature",
    "properties" : {
      "TIPO_EVENTO" : "1",
      "DEPARTAMENTO" : "BOLIVAR",
      "TIPO_AREA" : "Rural",
      "AÑO" : "2006",
      "MUNICIPIO" : "ZAMBRANO"
    },
    "geometry" : {
      "type" : "Point",
      "coordinates" : [ -74.832099, 9.733253 ]
    }
  }, {
    "type" : "Feature",
    "properties" : {
      "TIPO_EVENTO" : "1",
      "DEPARTAMENTO" : "TOLIMA",
      "TIPO_AREA" : "Rural",
      "AÑO" : "2006",
      "MUNICIPIO" : "HERVEO"
    },
    "geometry" : {
      "type" : "Point",
      "coordinates" : [ -75.20138889, 5.125 ]
    }
  }, {
    "type" : "Feature",
    "properties" : {
      "TIPO_EVENTO" : "1",
      "DEPARTAMENTO" : "META",
      "TIPO_AREA" : "Rural",
      "AÑO" : "2006",
      "MUNICIPIO" : "VISTAHERMOSA"
    },
    "geometry" : {
      "type" : "Point",
      "coordinates" : [ -73.752373, 3.125088 ]
    }
  }, {
    "type" : "Feature",
    "properties" : {
      "TIPO_EVENTO" : "1",
      "DEPARTAMENTO" : "BOLIVAR",
      "TIPO_AREA" : "Rural",
      "AÑO" : "2006",
      "MUNICIPIO" : "EL CARMEN DE BOLÍVAR"
    },
    "geometry" : {
      "type" : "Point",
      "coordinates" : [ -75.122094, 9.685015 ]
    }
  }, {
    "type" : "Feature",
    "properties" : {
      "TIPO_EVENTO" : "1",
      "DEPARTAMENTO" : "CAQUETA",
      "TIPO_AREA" : "Rural",
      "AÑO" : "2006",
      "MUNICIPIO" : "PUERTO RICO"
    },
    "geometry" : {
      "type" : "Point",
      "coordinates" : [ -74.893056, 2.041944 ]
    }
  }, {
    "type" : "Feature",
    "properties" : {
      "TIPO_EVENTO" : "1",
      "DEPARTAMENTO" : "NARIÑO",
      "TIPO_AREA" : "Rural",
      "AÑO" : "2006",
      "MUNICIPIO" : "IPIALES"
    },
    "geometry" : {
      "type" : "Point",
      "coordinates" : [ -77.168333, 0.426667 ]
    }
  }, {
    "type" : "Feature",
    "properties" : {
      "TIPO_EVENTO" : "1",
      "DEPARTAMENTO" : "NORTE DE SANTANDER",
      "TIPO_AREA" : "Rural",
      "AÑO" : "2006",
      "MUNICIPIO" : "HACARÍ"
    },
    "geometry" : {
      "type" : "Point",
      "coordinates" : [ -73.061944, 8.229444 ]
    }
  }, {
    "type" : "Feature",
    "properties" : {
      "TIPO_EVENTO" : "1",
      "DEPARTAMENTO" : "BOLIVAR",
      "TIPO_AREA" : "Rural",
      "AÑO" : "2006",
      "MUNICIPIO" : "EL CARMEN DE BOLÍVAR"
    },
    "geometry" : {
      "type" : "Point",
      "coordinates" : [ -75.12241208, 9.721296285 ]
    }
  }, {
    "type" : "Feature",
    "properties" : {
      "TIPO_EVENTO" : "1",
      "DEPARTAMENTO" : "CUNDINAMARCA",
      "TIPO_AREA" : "Rural",
      "AÑO" : "2006",
      "MUNICIPIO" : "CAPARRAPÍ"
    },
    "geometry" : {
      "type" : "Point",
      "coordinates" : [ -74.491084, 5.346732 ]
    }
  }, {
    "type" : "Feature",
    "properties" : {
      "TIPO_EVENTO" : "1",
      "DEPARTAMENTO" : "CAQUETA",
      "TIPO_AREA" : "Rural",
      "AÑO" : "2006",
      "MUNICIPIO" : "SAN VICENTE DEL CAGUÁN"
    },
    "geometry" : {
      "type" : "Point",
      "coordinates" : [ -74.893333, 2.623333 ]
    }
  }, {
    "type" : "Feature",
    "properties" : {
      "TIPO_EVENTO" : "1",
      "DEPARTAMENTO" : "VALLE DEL CAUCA",
      "TIPO_AREA" : "Rural",
      "AÑO" : "2006",
      "MUNICIPIO" : "BUGA"
    },
    "geometry" : {
      "type" : "Point",
      "coordinates" : [ -76.157778, 3.880278 ]
    }
  }, {
    "type" : "Feature",
    "properties" : {
      "TIPO_EVENTO" : "1",
      "DEPARTAMENTO" : "VALLE DEL CAUCA",
      "TIPO_AREA" : "Rural",
      "AÑO" : "2006",
      "MUNICIPIO" : "PRADERA"
    },
    "geometry" : {
      "type" : "Point",
      "coordinates" : [ -76.255928, 3.372723 ]
    }
  }, {
    "type" : "Feature",
    "properties" : {
      "TIPO_EVENTO" : "1",
      "DEPARTAMENTO" : "NORTE DE SANTANDER",
      "TIPO_AREA" : "Rural",
      "AÑO" : "2006",
      "MUNICIPIO" : "ÁBREGO"
    },
    "geometry" : {
      "type" : "Point",
      "coordinates" : [ -73.040833, 8.242778 ]
    }
  }, {
    "type" : "Feature",
    "properties" : {
      "TIPO_EVENTO" : "1",
      "DEPARTAMENTO" : "CAUCA",
      "TIPO_AREA" : "Rural",
      "AÑO" : "2006",
      "MUNICIPIO" : "JAMBALÓ"
    },
    "geometry" : {
      "type" : "Point",
      "coordinates" : [ -76.324799, 2.776824 ]
    }
  }, {
    "type" : "Feature",
    "properties" : {
      "TIPO_EVENTO" : "1",
      "DEPARTAMENTO" : "ANTIOQUIA",
      "TIPO_AREA" : "Rural",
      "AÑO" : "2006",
      "MUNICIPIO" : "SAN LUIS"
    },
    "geometry" : {
      "type" : "Point",
      "coordinates" : [ -74.994899, 6.042723 ]
    }
  }, {
    "type" : "Feature",
    "properties" : {
      "TIPO_EVENTO" : "1",
      "DEPARTAMENTO" : "ANTIOQUIA",
      "TIPO_AREA" : "Rural",
      "AÑO" : "2006",
      "MUNICIPIO" : "SAN RAFAEL"
    },
    "geometry" : {
      "type" : "Point",
      "coordinates" : [ -75.027634, 6.294891 ]
    }
  }, {
    "type" : "Feature",
    "properties" : {
      "TIPO_EVENTO" : "1",
      "DEPARTAMENTO" : "CAUCA",
      "TIPO_AREA" : "Rural",
      "AÑO" : "2006",
      "MUNICIPIO" : "ARGELIA"
    },
    "geometry" : {
      "type" : "Point",
      "coordinates" : [ -77.2421893, 2.247169129 ]
    }
  }, {
    "type" : "Feature",
    "properties" : {
      "TIPO_EVENTO" : "1",
      "DEPARTAMENTO" : "META",
      "TIPO_AREA" : "Rural",
      "AÑO" : "2006",
      "MUNICIPIO" : "VISTAHERMOSA"
    },
    "geometry" : {
      "type" : "Point",
      "coordinates" : [ -73.485833, 2.895556 ]
    }
  }, {
    "type" : "Feature",
    "properties" : {
      "TIPO_EVENTO" : "1",
      "DEPARTAMENTO" : "CAUCA",
      "TIPO_AREA" : "Rural",
      "AÑO" : "2006",
      "MUNICIPIO" : "INZÁ"
    },
    "geometry" : {
      "type" : "Point",
      "coordinates" : [ -76.063664, 2.550284 ]
    }
  }, {
    "type" : "Feature",
    "properties" : {
      "TIPO_EVENTO" : "1",
      "DEPARTAMENTO" : "CAQUETA",
      "TIPO_AREA" : "Rural",
      "AÑO" : "2006",
      "MUNICIPIO" : "CARTAGENA DEL CHAIRÁ"
    },
    "geometry" : {
      "type" : "Point",
      "coordinates" : [ -74.843733, 1.335258 ]
    }
  }, {
    "type" : "Feature",
    "properties" : {
      "TIPO_EVENTO" : "1",
      "DEPARTAMENTO" : "CAUCA",
      "TIPO_AREA" : "Rural",
      "AÑO" : "2006",
      "MUNICIPIO" : "JAMBALÓ"
    },
    "geometry" : {
      "type" : "Point",
      "coordinates" : [ -76.368056, 2.848056 ]
    }
  }, {
    "type" : "Feature",
    "properties" : {
      "TIPO_EVENTO" : "1",
      "DEPARTAMENTO" : "VALLE DEL CAUCA",
      "TIPO_AREA" : "Rural",
      "AÑO" : "2006",
      "MUNICIPIO" : "RIOFRÍO"
    },
    "geometry" : {
      "type" : "Point",
      "coordinates" : [ -76.288503, 4.156967 ]
    }
  }, {
    "type" : "Feature",
    "properties" : {
      "TIPO_EVENTO" : "1",
      "DEPARTAMENTO" : "HUILA",
      "TIPO_AREA" : "Rural",
      "AÑO" : "2006",
      "MUNICIPIO" : "ALGECIRAS"
    },
    "geometry" : {
      "type" : "Point",
      "coordinates" : [ -75.313361, 2.522444 ]
    }
  }, {
    "type" : "Feature",
    "properties" : {
      "TIPO_EVENTO" : "1",
      "DEPARTAMENTO" : "CESAR",
      "TIPO_AREA" : "Rural",
      "AÑO" : "2006",
      "MUNICIPIO" : "LA JAGUA DE IBIRICO"
    },
    "geometry" : {
      "type" : "Point",
      "coordinates" : [ -73.33274, 9.560655 ]
    }
  }, {
    "type" : "Feature",
    "properties" : {
      "TIPO_EVENTO" : "2",
      "DEPARTAMENTO" : "VALLE DEL CAUCA",
      "TIPO_AREA" : "Rural",
      "AÑO" : "2006",
      "MUNICIPIO" : "FLORIDA"
    },
    "geometry" : {
      "type" : "Point",
      "coordinates" : [ -76.243463, 3.326974 ]
    }
  }, {
    "type" : "Feature",
    "properties" : {
      "TIPO_EVENTO" : "1",
      "DEPARTAMENTO" : "ARAUCA",
      "TIPO_AREA" : "Rural",
      "AÑO" : "2006",
      "MUNICIPIO" : "SARAVENA"
    },
    "geometry" : {
      "type" : "Point",
      "coordinates" : [ -71.878277, 6.958339 ]
    }
  }, {
    "type" : "Feature",
    "properties" : {
      "TIPO_EVENTO" : "1",
      "DEPARTAMENTO" : "ANTIOQUIA",
      "TIPO_AREA" : "Rural",
      "AÑO" : "2006",
      "MUNICIPIO" : "SAN LUIS"
    },
    "geometry" : {
      "type" : "Point",
      "coordinates" : [ -74.994899, 6.042723 ]
    }
  }, {
    "type" : "Feature",
    "properties" : {
      "TIPO_EVENTO" : "1",
      "DEPARTAMENTO" : "CAUCA",
      "TIPO_AREA" : "Rural",
      "AÑO" : "2006",
      "MUNICIPIO" : "EL TAMBO"
    },
    "geometry" : {
      "type" : "Point",
      "coordinates" : [ -76.810904, 2.451476 ]
    }
  }, {
    "type" : "Feature",
    "properties" : {
      "TIPO_EVENTO" : "1",
      "DEPARTAMENTO" : "ANTIOQUIA",
      "TIPO_AREA" : "Rural",
      "AÑO" : "2006",
      "MUNICIPIO" : "SAN CARLOS"
    },
    "geometry" : {
      "type" : "Point",
      "coordinates" : [ -74.993636, 6.187566 ]
    }
  }, {
    "type" : "Feature",
    "properties" : {
      "TIPO_EVENTO" : "1",
      "DEPARTAMENTO" : "CAQUETA",
      "TIPO_AREA" : "Rural",
      "AÑO" : "2006",
      "MUNICIPIO" : "SAN VICENTE DEL CAGUÁN"
    },
    "geometry" : {
      "type" : "Point",
      "coordinates" : [ -74.975556, 2.748056 ]
    }
  }, {
    "type" : "Feature",
    "properties" : {
      "TIPO_EVENTO" : "1",
      "DEPARTAMENTO" : "TOLIMA",
      "TIPO_AREA" : "Rural",
      "AÑO" : "2006",
      "MUNICIPIO" : "PLANADAS"
    },
    "geometry" : {
      "type" : "Point",
      "coordinates" : [ -75.718056, 3.003333 ]
    }
  }, {
    "type" : "Feature",
    "properties" : {
      "TIPO_EVENTO" : "1",
      "DEPARTAMENTO" : "META",
      "TIPO_AREA" : "Rural",
      "AÑO" : "2006",
      "MUNICIPIO" : "VISTAHERMOSA"
    },
    "geometry" : {
      "type" : "Point",
      "coordinates" : [ -73.752373, 3.125088 ]
    }
  }, {
    "type" : "Feature",
    "properties" : {
      "TIPO_EVENTO" : "1",
      "DEPARTAMENTO" : "ANTIOQUIA",
      "TIPO_AREA" : "Rural",
      "AÑO" : "2006",
      "MUNICIPIO" : "SAN RAFAEL"
    },
    "geometry" : {
      "type" : "Point",
      "coordinates" : [ -75.066944, 6.238056 ]
    }
  }, {
    "type" : "Feature",
    "properties" : {
      "TIPO_EVENTO" : "1",
      "DEPARTAMENTO" : "BOLIVAR",
      "TIPO_AREA" : "Rural",
      "AÑO" : "2006",
      "MUNICIPIO" : "CANTAGALLO"
    },
    "geometry" : {
      "type" : "Point",
      "coordinates" : [ -74.160556, 7.102778 ]
    }
  }, {
    "type" : "Feature",
    "properties" : {
      "TIPO_EVENTO" : "1",
      "DEPARTAMENTO" : "CASANARE",
      "TIPO_AREA" : "Rural",
      "AÑO" : "2006",
      "MUNICIPIO" : "YOPAL"
    },
    "geometry" : {
      "type" : "Point",
      "coordinates" : [ -72.42004, 5.353927 ]
    }
  }, {
    "type" : "Feature",
    "properties" : {
      "TIPO_EVENTO" : "1",
      "DEPARTAMENTO" : "CALDAS",
      "TIPO_AREA" : "Rural",
      "AÑO" : "2006",
      "MUNICIPIO" : "PENSILVANIA"
    },
    "geometry" : {
      "type" : "Point",
      "coordinates" : [ -75.291, 5.365 ]
    }
  }, {
    "type" : "Feature",
    "properties" : {
      "TIPO_EVENTO" : "1",
      "DEPARTAMENTO" : "ANTIOQUIA",
      "TIPO_AREA" : "Rural",
      "AÑO" : "2006",
      "MUNICIPIO" : "ANORÍ"
    },
    "geometry" : {
      "type" : "Point",
      "coordinates" : [ -75.147222, 7.073333 ]
    }
  }, {
    "type" : "Feature",
    "properties" : {
      "TIPO_EVENTO" : "1",
      "DEPARTAMENTO" : "META",
      "TIPO_AREA" : "Rural",
      "AÑO" : "2006",
      "MUNICIPIO" : "SAN JUAN DE ARAMA"
    },
    "geometry" : {
      "type" : "Point",
      "coordinates" : [ -73.853427, 3.30867 ]
    }
  }, {
    "type" : "Feature",
    "properties" : {
      "TIPO_EVENTO" : "1",
      "DEPARTAMENTO" : "ARAUCA",
      "TIPO_AREA" : "Rural",
      "AÑO" : "2006",
      "MUNICIPIO" : "TAME"
    },
    "geometry" : {
      "type" : "Point",
      "coordinates" : [ -71.730855, 6.461209 ]
    }
  }, {
    "type" : "Feature",
    "properties" : {
      "TIPO_EVENTO" : "1",
      "DEPARTAMENTO" : "ARAUCA",
      "TIPO_AREA" : "Rural",
      "AÑO" : "2006",
      "MUNICIPIO" : "TAME"
    },
    "geometry" : {
      "type" : "Point",
      "coordinates" : [ -71.730855, 6.461209 ]
    }
  }, {
    "type" : "Feature",
    "properties" : {
      "TIPO_EVENTO" : "1",
      "DEPARTAMENTO" : "TOLIMA",
      "TIPO_AREA" : "Rural",
      "AÑO" : "2006",
      "MUNICIPIO" : "PLANADAS"
    },
    "geometry" : {
      "type" : "Point",
      "coordinates" : [ -75.643224, 3.197458 ]
    }
  }, {
    "type" : "Feature",
    "properties" : {
      "TIPO_EVENTO" : "1",
      "DEPARTAMENTO" : "ANTIOQUIA",
      "TIPO_AREA" : "Rural",
      "AÑO" : "2006",
      "MUNICIPIO" : "SAN CARLOS"
    },
    "geometry" : {
      "type" : "Point",
      "coordinates" : [ -74.931667, 6.208889 ]
    }
  }, {
    "type" : "Feature",
    "properties" : {
      "TIPO_EVENTO" : "1",
      "DEPARTAMENTO" : "ANTIOQUIA",
      "TIPO_AREA" : "Rural",
      "AÑO" : "2006",
      "MUNICIPIO" : "SONSÓN"
    },
    "geometry" : {
      "type" : "Point",
      "coordinates" : [ -75.263889, 5.683056 ]
    }
  }, {
    "type" : "Feature",
    "properties" : {
      "TIPO_EVENTO" : "1",
      "DEPARTAMENTO" : "ANTIOQUIA",
      "TIPO_AREA" : "Rural",
      "AÑO" : "2006",
      "MUNICIPIO" : "ZARAGOZA"
    },
    "geometry" : {
      "type" : "Point",
      "coordinates" : [ -74.867778, 7.490632 ]
    }
  }, {
    "type" : "Feature",
    "properties" : {
      "TIPO_EVENTO" : "1",
      "DEPARTAMENTO" : "ANTIOQUIA",
      "TIPO_AREA" : "Rural",
      "AÑO" : "2006",
      "MUNICIPIO" : "AMALFI"
    },
    "geometry" : {
      "type" : "Point",
      "coordinates" : [ -74.924167, 7.244167 ]
    }
  }, {
    "type" : "Feature",
    "properties" : {
      "TIPO_EVENTO" : "1",
      "DEPARTAMENTO" : "CAUCA",
      "TIPO_AREA" : "Rural",
      "AÑO" : "2006",
      "MUNICIPIO" : "SANTA ROSA"
    },
    "geometry" : {
      "type" : "Point",
      "coordinates" : [ -76.526389, 1.350833 ]
    }
  }, {
    "type" : "Feature",
    "properties" : {
      "TIPO_EVENTO" : "1",
      "DEPARTAMENTO" : "VICHADA",
      "TIPO_AREA" : "Rural",
      "AÑO" : "2006",
      "MUNICIPIO" : "PUERTO CARREÑO"
    },
    "geometry" : {
      "type" : "Point",
      "coordinates" : [ -67.50075, 6.180721 ]
    }
  }, {
    "type" : "Feature",
    "properties" : {
      "TIPO_EVENTO" : "1",
      "DEPARTAMENTO" : "META",
      "TIPO_AREA" : "Rural",
      "AÑO" : "2006",
      "MUNICIPIO" : "VISTAHERMOSA"
    },
    "geometry" : {
      "type" : "Point",
      "coordinates" : [ -73.752373, 3.125088 ]
    }
  }, {
    "type" : "Feature",
    "properties" : {
      "TIPO_EVENTO" : "1",
      "DEPARTAMENTO" : "BOLIVAR",
      "TIPO_AREA" : "Rural",
      "AÑO" : "2006",
      "MUNICIPIO" : "EL CARMEN DE BOLÍVAR"
    },
    "geometry" : {
      "type" : "Point",
      "coordinates" : [ -75.287, 9.812 ]
    }
  }, {
    "type" : "Feature",
    "properties" : {
      "TIPO_EVENTO" : "1",
      "DEPARTAMENTO" : "META",
      "TIPO_AREA" : "Rural",
      "AÑO" : "2006",
      "MUNICIPIO" : "VISTAHERMOSA"
    },
    "geometry" : {
      "type" : "Point",
      "coordinates" : [ -73.752373, 3.125088 ]
    }
  }, {
    "type" : "Feature",
    "properties" : {
      "TIPO_EVENTO" : "1",
      "DEPARTAMENTO" : "META",
      "TIPO_AREA" : "Rural",
      "AÑO" : "2006",
      "MUNICIPIO" : "VISTAHERMOSA"
    },
    "geometry" : {
      "type" : "Point",
      "coordinates" : [ -73.752373, 3.125088 ]
    }
  }, {
    "type" : "Feature",
    "properties" : {
      "TIPO_EVENTO" : "1",
      "DEPARTAMENTO" : "META",
      "TIPO_AREA" : "Rural",
      "AÑO" : "2006",
      "MUNICIPIO" : "VISTAHERMOSA"
    },
    "geometry" : {
      "type" : "Point",
      "coordinates" : [ -73.764415, 3.088217 ]
    }
  }, {
    "type" : "Feature",
    "properties" : {
      "TIPO_EVENTO" : "1",
      "DEPARTAMENTO" : "META",
      "TIPO_AREA" : "Rural",
      "AÑO" : "2006",
      "MUNICIPIO" : "VISTAHERMOSA"
    },
    "geometry" : {
      "type" : "Point",
      "coordinates" : [ -73.752373, 3.125088 ]
    }
  }, {
    "type" : "Feature",
    "properties" : {
      "TIPO_EVENTO" : "1",
      "DEPARTAMENTO" : "ANTIOQUIA",
      "TIPO_AREA" : "Rural",
      "AÑO" : "2006",
      "MUNICIPIO" : "ITUANGO"
    },
    "geometry" : {
      "type" : "Point",
      "coordinates" : [ -75.764403, 7.171637 ]
    }
  }, {
    "type" : "Feature",
    "properties" : {
      "TIPO_EVENTO" : "1",
      "DEPARTAMENTO" : "CAUCA",
      "TIPO_AREA" : "Rural",
      "AÑO" : "2006",
      "MUNICIPIO" : "SANTA ROSA"
    },
    "geometry" : {
      "type" : "Point",
      "coordinates" : [ -76.515, 1.393 ]
    }
  }, {
    "type" : "Feature",
    "properties" : {
      "TIPO_EVENTO" : "1",
      "DEPARTAMENTO" : "CAQUETA",
      "TIPO_AREA" : "Rural",
      "AÑO" : "2006",
      "MUNICIPIO" : "SAN VICENTE DEL CAGUÁN"
    },
    "geometry" : {
      "type" : "Point",
      "coordinates" : [ -74.719167, 2.119167 ]
    }
  }, {
    "type" : "Feature",
    "properties" : {
      "TIPO_EVENTO" : "1",
      "DEPARTAMENTO" : "ANTIOQUIA",
      "TIPO_AREA" : "Rural",
      "AÑO" : "2006",
      "MUNICIPIO" : "VALDIVIA"
    },
    "geometry" : {
      "type" : "Point",
      "coordinates" : [ -75.438081, 7.165222 ]
    }
  }, {
    "type" : "Feature",
    "properties" : {
      "TIPO_EVENTO" : "1",
      "DEPARTAMENTO" : "ANTIOQUIA",
      "TIPO_AREA" : "Rural",
      "AÑO" : "2006",
      "MUNICIPIO" : "VALDIVIA"
    },
    "geometry" : {
      "type" : "Point",
      "coordinates" : [ -75.288333, 7.276944 ]
    }
  }, {
    "type" : "Feature",
    "properties" : {
      "TIPO_EVENTO" : "1",
      "DEPARTAMENTO" : "ARAUCA",
      "TIPO_AREA" : "Rural",
      "AÑO" : "2006",
      "MUNICIPIO" : "FORTUL"
    },
    "geometry" : {
      "type" : "Point",
      "coordinates" : [ -71.770658, 6.792924 ]
    }
  }, {
    "type" : "Feature",
    "properties" : {
      "TIPO_EVENTO" : "1",
      "DEPARTAMENTO" : "PUTUMAYO",
      "TIPO_AREA" : "Rural",
      "AÑO" : "2006",
      "MUNICIPIO" : "PUERTO CAICEDO"
    },
    "geometry" : {
      "type" : "Point",
      "coordinates" : [ -76.603594, 0.68938 ]
    }
  }, {
    "type" : "Feature",
    "properties" : {
      "TIPO_EVENTO" : "1",
      "DEPARTAMENTO" : "NARIÑO",
      "TIPO_AREA" : "Rural",
      "AÑO" : "2006",
      "MUNICIPIO" : "CUMBITARA"
    },
    "geometry" : {
      "type" : "Point",
      "coordinates" : [ -77.586667, 1.6275 ]
    }
  }, {
    "type" : "Feature",
    "properties" : {
      "TIPO_EVENTO" : "1",
      "DEPARTAMENTO" : "TOLIMA",
      "TIPO_AREA" : "Rural",
      "AÑO" : "2006",
      "MUNICIPIO" : "CHAPARRAL"
    },
    "geometry" : {
      "type" : "Point",
      "coordinates" : [ -75.705556, 3.901389 ]
    }
  }, {
    "type" : "Feature",
    "properties" : {
      "TIPO_EVENTO" : "1",
      "DEPARTAMENTO" : "CAQUETA",
      "TIPO_AREA" : "Rural",
      "AÑO" : "2006",
      "MUNICIPIO" : "SAN VICENTE DEL CAGUÁN"
    },
    "geometry" : {
      "type" : "Point",
      "coordinates" : [ -74.790556, 2.671667 ]
    }
  }, {
    "type" : "Feature",
    "properties" : {
      "TIPO_EVENTO" : "1",
      "DEPARTAMENTO" : "META",
      "TIPO_AREA" : "Rural",
      "AÑO" : "2006",
      "MUNICIPIO" : "LA MACARENA"
    },
    "geometry" : {
      "type" : "Point",
      "coordinates" : [ -73.784832, 2.182506 ]
    }
  }, {
    "type" : "Feature",
    "properties" : {
      "TIPO_EVENTO" : "1",
      "DEPARTAMENTO" : "META",
      "TIPO_AREA" : "Rural",
      "AÑO" : "2006",
      "MUNICIPIO" : "VISTAHERMOSA"
    },
    "geometry" : {
      "type" : "Point",
      "coordinates" : [ -73.752373, 3.125088 ]
    }
  }, {
    "type" : "Feature",
    "properties" : {
      "TIPO_EVENTO" : "1",
      "DEPARTAMENTO" : "CAUCA",
      "TIPO_AREA" : "Rural",
      "AÑO" : "2006",
      "MUNICIPIO" : "PATÍA"
    },
    "geometry" : {
      "type" : "Point",
      "coordinates" : [ -77.034445, 2.298056 ]
    }
  }, {
    "type" : "Feature",
    "properties" : {
      "TIPO_EVENTO" : "1",
      "DEPARTAMENTO" : "CAQUETA",
      "TIPO_AREA" : "Rural",
      "AÑO" : "2006",
      "MUNICIPIO" : "FLORENCIA"
    },
    "geometry" : {
      "type" : "Point",
      "coordinates" : [ -75.619118, 1.621012 ]
    }
  }, {
    "type" : "Feature",
    "properties" : {
      "TIPO_EVENTO" : "1",
      "DEPARTAMENTO" : "CAUCA",
      "TIPO_AREA" : "Rural",
      "AÑO" : "2006",
      "MUNICIPIO" : "SANTA ROSA"
    },
    "geometry" : {
      "type" : "Point",
      "coordinates" : [ -76.536667, 1.328889 ]
    }
  }, {
    "type" : "Feature",
    "properties" : {
      "TIPO_EVENTO" : "1",
      "DEPARTAMENTO" : "CAUCA",
      "TIPO_AREA" : "Rural",
      "AÑO" : "2006",
      "MUNICIPIO" : "EL TAMBO"
    },
    "geometry" : {
      "type" : "Point",
      "coordinates" : [ -77.128056, 2.4825 ]
    }
  }, {
    "type" : "Feature",
    "properties" : {
      "TIPO_EVENTO" : "1",
      "DEPARTAMENTO" : "NARIÑO",
      "TIPO_AREA" : "Rural",
      "AÑO" : "2006",
      "MUNICIPIO" : "SAMANIEGO"
    },
    "geometry" : {
      "type" : "Point",
      "coordinates" : [ -77.59313, 1.337083 ]
    }
  }, {
    "type" : "Feature",
    "properties" : {
      "TIPO_EVENTO" : "2",
      "DEPARTAMENTO" : "CAQUETA",
      "TIPO_AREA" : "Rural",
      "AÑO" : "2006",
      "MUNICIPIO" : "MONTAÑITA"
    },
    "geometry" : {
      "type" : "Point",
      "coordinates" : [ -75.46308951, 1.494944213 ]
    }
  }, {
    "type" : "Feature",
    "properties" : {
      "TIPO_EVENTO" : "1",
      "DEPARTAMENTO" : "NORTE DE SANTANDER",
      "TIPO_AREA" : "Rural",
      "AÑO" : "2006",
      "MUNICIPIO" : "TEORAMA"
    },
    "geometry" : {
      "type" : "Point",
      "coordinates" : [ -73.303333, 8.604167 ]
    }
  }, {
    "type" : "Feature",
    "properties" : {
      "TIPO_EVENTO" : "1",
      "DEPARTAMENTO" : "NORTE DE SANTANDER",
      "TIPO_AREA" : "Rural",
      "AÑO" : "2006",
      "MUNICIPIO" : "SARDINATA"
    },
    "geometry" : {
      "type" : "Point",
      "coordinates" : [ -72.730556, 8.141667 ]
    }
  }, {
    "type" : "Feature",
    "properties" : {
      "TIPO_EVENTO" : "1",
      "DEPARTAMENTO" : "META",
      "TIPO_AREA" : "Rural",
      "AÑO" : "2006",
      "MUNICIPIO" : "SAN JUAN DE ARAMA"
    },
    "geometry" : {
      "type" : "Point",
      "coordinates" : [ -73.87976, 3.2352 ]
    }
  }, {
    "type" : "Feature",
    "properties" : {
      "TIPO_EVENTO" : "1",
      "DEPARTAMENTO" : "BOGOTA DC",
      "TIPO_AREA" : "Rural",
      "AÑO" : "2006",
      "MUNICIPIO" : "Bogotá DC"
    },
    "geometry" : {
      "type" : "Point",
      "coordinates" : [ -74.146592, 4.680486 ]
    }
  }, {
    "type" : "Feature",
    "properties" : {
      "TIPO_EVENTO" : "1",
      "DEPARTAMENTO" : "CALDAS",
      "TIPO_AREA" : "Rural",
      "AÑO" : "2006",
      "MUNICIPIO" : "PENSILVANIA"
    },
    "geometry" : {
      "type" : "Point",
      "coordinates" : [ -75.236667, 5.496667 ]
    }
  }, {
    "type" : "Feature",
    "properties" : {
      "TIPO_EVENTO" : "1",
      "DEPARTAMENTO" : "CAQUETA",
      "TIPO_AREA" : "Rural",
      "AÑO" : "2006",
      "MUNICIPIO" : "SAN VICENTE DEL CAGUÁN"
    },
    "geometry" : {
      "type" : "Point",
      "coordinates" : [ -74.831389, 2.736667 ]
    }
  }, {
    "type" : "Feature",
    "properties" : {
      "TIPO_EVENTO" : "1",
      "DEPARTAMENTO" : "ANTIOQUIA",
      "TIPO_AREA" : "Rural",
      "AÑO" : "2006",
      "MUNICIPIO" : "SAN CARLOS"
    },
    "geometry" : {
      "type" : "Point",
      "coordinates" : [ -74.993636, 6.187566 ]
    }
  }, {
    "type" : "Feature",
    "properties" : {
      "TIPO_EVENTO" : "1",
      "DEPARTAMENTO" : "ARAUCA",
      "TIPO_AREA" : "Rural",
      "AÑO" : "2006",
      "MUNICIPIO" : "TAME"
    },
    "geometry" : {
      "type" : "Point",
      "coordinates" : [ -71.730855, 6.461209 ]
    }
  }, {
    "type" : "Feature",
    "properties" : {
      "TIPO_EVENTO" : "1",
      "DEPARTAMENTO" : "ANTIOQUIA",
      "TIPO_AREA" : "Rural",
      "AÑO" : "2006",
      "MUNICIPIO" : "SAN CARLOS"
    },
    "geometry" : {
      "type" : "Point",
      "coordinates" : [ -74.922, 6.074 ]
    }
  }, {
    "type" : "Feature",
    "properties" : {
      "TIPO_EVENTO" : "1",
      "DEPARTAMENTO" : "META",
      "TIPO_AREA" : "Rural",
      "AÑO" : "2006",
      "MUNICIPIO" : "PUERTO GAITÁN"
    },
    "geometry" : {
      "type" : "Point",
      "coordinates" : [ -71.563056, 3.766944 ]
    }
  }, {
    "type" : "Feature",
    "properties" : {
      "TIPO_EVENTO" : "1",
      "DEPARTAMENTO" : "TOLIMA",
      "TIPO_AREA" : "Rural",
      "AÑO" : "2006",
      "MUNICIPIO" : "CHAPARRAL"
    },
    "geometry" : {
      "type" : "Point",
      "coordinates" : [ -75.586667, 3.834444 ]
    }
  }, {
    "type" : "Feature",
    "properties" : {
      "TIPO_EVENTO" : "1",
      "DEPARTAMENTO" : "ANTIOQUIA",
      "TIPO_AREA" : "Rural",
      "AÑO" : "2006",
      "MUNICIPIO" : "ANORÍ"
    },
    "geometry" : {
      "type" : "Point",
      "coordinates" : [ -75.147222, 7.073333 ]
    }
  }, {
    "type" : "Feature",
    "properties" : {
      "TIPO_EVENTO" : "1",
      "DEPARTAMENTO" : "TOLIMA",
      "TIPO_AREA" : "Rural",
      "AÑO" : "2006",
      "MUNICIPIO" : "PLANADAS"
    },
    "geometry" : {
      "type" : "Point",
      "coordinates" : [ -75.643224, 3.197458 ]
    }
  }, {
    "type" : "Feature",
    "properties" : {
      "TIPO_EVENTO" : "1",
      "DEPARTAMENTO" : "ANTIOQUIA",
      "TIPO_AREA" : "Rural",
      "AÑO" : "2006",
      "MUNICIPIO" : "SAN CARLOS"
    },
    "geometry" : {
      "type" : "Point",
      "coordinates" : [ -74.915833, 6.110556 ]
    }
  }, {
    "type" : "Feature",
    "properties" : {
      "TIPO_EVENTO" : "1",
      "DEPARTAMENTO" : "META",
      "TIPO_AREA" : "Rural",
      "AÑO" : "2006",
      "MUNICIPIO" : "VISTAHERMOSA"
    },
    "geometry" : {
      "type" : "Point",
      "coordinates" : [ -73.752373, 3.125088 ]
    }
  }, {
    "type" : "Feature",
    "properties" : {
      "TIPO_EVENTO" : "1",
      "DEPARTAMENTO" : "TOLIMA",
      "TIPO_AREA" : "Rural",
      "AÑO" : "2006",
      "MUNICIPIO" : "ROVIRA"
    },
    "geometry" : {
      "type" : "Point",
      "coordinates" : [ -75.390278, 4.1925 ]
    }
  }, {
    "type" : "Feature",
    "properties" : {
      "TIPO_EVENTO" : "1",
      "DEPARTAMENTO" : "LA GUAJIRA",
      "TIPO_AREA" : "Rural",
      "AÑO" : "2006",
      "MUNICIPIO" : "DIBULLA"
    },
    "geometry" : {
      "type" : "Point",
      "coordinates" : [ -73.306402, 11.267972 ]
    }
  }, {
    "type" : "Feature",
    "properties" : {
      "TIPO_EVENTO" : "1",
      "DEPARTAMENTO" : "CASANARE",
      "TIPO_AREA" : "Rural",
      "AÑO" : "2006",
      "MUNICIPIO" : "SÁCAMA"
    },
    "geometry" : {
      "type" : "Point",
      "coordinates" : [ -72.126667, 6.065278 ]
    }
  }, {
    "type" : "Feature",
    "properties" : {
      "TIPO_EVENTO" : "1",
      "DEPARTAMENTO" : "VALLE DEL CAUCA",
      "TIPO_AREA" : "Rural",
      "AÑO" : "2006",
      "MUNICIPIO" : "EL ÁGUILA"
    },
    "geometry" : {
      "type" : "Point",
      "coordinates" : [ -76.042884, 4.906666 ]
    }
  }, {
    "type" : "Feature",
    "properties" : {
      "TIPO_EVENTO" : "1",
      "DEPARTAMENTO" : "TOLIMA",
      "TIPO_AREA" : "Rural",
      "AÑO" : "2006",
      "MUNICIPIO" : "COYAIMA"
    },
    "geometry" : {
      "type" : "Point",
      "coordinates" : [ -75.195293, 3.799677 ]
    }
  }, {
    "type" : "Feature",
    "properties" : {
      "TIPO_EVENTO" : "1",
      "DEPARTAMENTO" : "TOLIMA",
      "TIPO_AREA" : "Rural",
      "AÑO" : "2006",
      "MUNICIPIO" : "PLANADAS"
    },
    "geometry" : {
      "type" : "Point",
      "coordinates" : [ -75.743, 3.02 ]
    }
  }, {
    "type" : "Feature",
    "properties" : {
      "TIPO_EVENTO" : "1",
      "DEPARTAMENTO" : "ANTIOQUIA",
      "TIPO_AREA" : "Rural",
      "AÑO" : "2006",
      "MUNICIPIO" : "VALDIVIA"
    },
    "geometry" : {
      "type" : "Point",
      "coordinates" : [ -75.254444, 7.291667 ]
    }
  }, {
    "type" : "Feature",
    "properties" : {
      "TIPO_EVENTO" : "1",
      "DEPARTAMENTO" : "ANTIOQUIA",
      "TIPO_AREA" : "Rural",
      "AÑO" : "2006",
      "MUNICIPIO" : "ITUANGO"
    },
    "geometry" : {
      "type" : "Point",
      "coordinates" : [ -75.629, 7.335 ]
    }
  }, {
    "type" : "Feature",
    "properties" : {
      "TIPO_EVENTO" : "2",
      "DEPARTAMENTO" : "VALLE DEL CAUCA",
      "TIPO_AREA" : "Urbana",
      "AÑO" : "2006",
      "MUNICIPIO" : "FLORIDA"
    },
    "geometry" : {
      "type" : "Point",
      "coordinates" : [ -76.243463, 3.326974 ]
    }
  }, {
    "type" : "Feature",
    "properties" : {
      "TIPO_EVENTO" : "2",
      "DEPARTAMENTO" : "GUAINIA",
      "TIPO_AREA" : "Rural",
      "AÑO" : "2006",
      "MUNICIPIO" : "INIRIDA"
    },
    "geometry" : {
      "type" : "Point",
      "coordinates" : [ -67.905232, 3.845438 ]
    }
  }, {
    "type" : "Feature",
    "properties" : {
      "TIPO_EVENTO" : "1",
      "DEPARTAMENTO" : "CAUCA",
      "TIPO_AREA" : "Rural",
      "AÑO" : "2006",
      "MUNICIPIO" : "BALBOA"
    },
    "geometry" : {
      "type" : "Point",
      "coordinates" : [ -77.217142, 2.039527 ]
    }
  }, {
    "type" : "Feature",
    "properties" : {
      "TIPO_EVENTO" : "1",
      "DEPARTAMENTO" : "META",
      "TIPO_AREA" : "Rural",
      "AÑO" : "2006",
      "MUNICIPIO" : "VISTAHERMOSA"
    },
    "geometry" : {
      "type" : "Point",
      "coordinates" : [ -73.752373, 3.125088 ]
    }
  }, {
    "type" : "Feature",
    "properties" : {
      "TIPO_EVENTO" : "1",
      "DEPARTAMENTO" : "NARIÑO",
      "TIPO_AREA" : "Rural",
      "AÑO" : "2006",
      "MUNICIPIO" : "SAMANIEGO"
    },
    "geometry" : {
      "type" : "Point",
      "coordinates" : [ -77.59313, 1.337083 ]
    }
  }, {
    "type" : "Feature",
    "properties" : {
      "TIPO_EVENTO" : "1",
      "DEPARTAMENTO" : "CALDAS",
      "TIPO_AREA" : "Rural",
      "AÑO" : "2006",
      "MUNICIPIO" : "SAMANÁ"
    },
    "geometry" : {
      "type" : "Point",
      "coordinates" : [ -74.989572, 5.411801 ]
    }
  }, {
    "type" : "Feature",
    "properties" : {
      "TIPO_EVENTO" : "1",
      "DEPARTAMENTO" : "NORTE DE SANTANDER",
      "TIPO_AREA" : "Rural",
      "AÑO" : "2006",
      "MUNICIPIO" : "HACARÍ"
    },
    "geometry" : {
      "type" : "Point",
      "coordinates" : [ -73.1575, 8.264167 ]
    }
  }, {
    "type" : "Feature",
    "properties" : {
      "TIPO_EVENTO" : "1",
      "DEPARTAMENTO" : "VALLE DEL CAUCA",
      "TIPO_AREA" : "Rural",
      "AÑO" : "2006",
      "MUNICIPIO" : "BUGA"
    },
    "geometry" : {
      "type" : "Point",
      "coordinates" : [ -76.114444, 3.875556 ]
    }
  }, {
    "type" : "Feature",
    "properties" : {
      "TIPO_EVENTO" : "1",
      "DEPARTAMENTO" : "ANTIOQUIA",
      "TIPO_AREA" : "Rural",
      "AÑO" : "2006",
      "MUNICIPIO" : "CAMPAMENTO"
    },
    "geometry" : {
      "type" : "Point",
      "coordinates" : [ -75.286944, 7.056389 ]
    }
  }, {
    "type" : "Feature",
    "properties" : {
      "TIPO_EVENTO" : "1",
      "DEPARTAMENTO" : "ANTIOQUIA",
      "TIPO_AREA" : "Rural",
      "AÑO" : "2006",
      "MUNICIPIO" : "SAN CARLOS"
    },
    "geometry" : {
      "type" : "Point",
      "coordinates" : [ -74.993636, 6.187566 ]
    }
  }, {
    "type" : "Feature",
    "properties" : {
      "TIPO_EVENTO" : "1",
      "DEPARTAMENTO" : "ANTIOQUIA",
      "TIPO_AREA" : "Rural",
      "AÑO" : "2006",
      "MUNICIPIO" : "AMALFI"
    },
    "geometry" : {
      "type" : "Point",
      "coordinates" : [ -74.907222, 7.152222 ]
    }
  }, {
    "type" : "Feature",
    "properties" : {
      "TIPO_EVENTO" : "1",
      "DEPARTAMENTO" : "ANTIOQUIA",
      "TIPO_AREA" : "Rural",
      "AÑO" : "2006",
      "MUNICIPIO" : "ITUANGO"
    },
    "geometry" : {
      "type" : "Point",
      "coordinates" : [ -75.86, 7.136 ]
    }
  }, {
    "type" : "Feature",
    "properties" : {
      "TIPO_EVENTO" : "1",
      "DEPARTAMENTO" : "BOLIVAR",
      "TIPO_AREA" : "Rural",
      "AÑO" : "2006",
      "MUNICIPIO" : "SAN PABLO"
    },
    "geometry" : {
      "type" : "Point",
      "coordinates" : [ -73.933361, 7.483919 ]
    }
  }, {
    "type" : "Feature",
    "properties" : {
      "TIPO_EVENTO" : "1",
      "DEPARTAMENTO" : "NORTE DE SANTANDER",
      "TIPO_AREA" : "Rural",
      "AÑO" : "2006",
      "MUNICIPIO" : "TEORAMA"
    },
    "geometry" : {
      "type" : "Point",
      "coordinates" : [ -73.287706, 8.437183 ]
    }
  }, {
    "type" : "Feature",
    "properties" : {
      "TIPO_EVENTO" : "1",
      "DEPARTAMENTO" : "ANTIOQUIA",
      "TIPO_AREA" : "Rural",
      "AÑO" : "2006",
      "MUNICIPIO" : "PUERTO BERRÍO"
    },
    "geometry" : {
      "type" : "Point",
      "coordinates" : [ -74.407956, 6.485476 ]
    }
  }, {
    "type" : "Feature",
    "properties" : {
      "TIPO_EVENTO" : "1",
      "DEPARTAMENTO" : "TOLIMA",
      "TIPO_AREA" : "Rural",
      "AÑO" : "2006",
      "MUNICIPIO" : "DOLORES"
    },
    "geometry" : {
      "type" : "Point",
      "coordinates" : [ -74.675278, 3.694167 ]
    }
  }, {
    "type" : "Feature",
    "properties" : {
      "TIPO_EVENTO" : "1",
      "DEPARTAMENTO" : "BOLIVAR",
      "TIPO_AREA" : "Rural",
      "AÑO" : "2006",
      "MUNICIPIO" : "EL CARMEN DE BOLÍVAR"
    },
    "geometry" : {
      "type" : "Point",
      "coordinates" : [ -75.122094, 9.685015 ]
    }
  }, {
    "type" : "Feature",
    "properties" : {
      "TIPO_EVENTO" : "1",
      "DEPARTAMENTO" : "HUILA",
      "TIPO_AREA" : "Rural",
      "AÑO" : "2006",
      "MUNICIPIO" : "ALGECIRAS"
    },
    "geometry" : {
      "type" : "Point",
      "coordinates" : [ -75.145556, 2.5925 ]
    }
  }, {
    "type" : "Feature",
    "properties" : {
      "TIPO_EVENTO" : "1",
      "DEPARTAMENTO" : "NORTE DE SANTANDER",
      "TIPO_AREA" : "Rural",
      "AÑO" : "2006",
      "MUNICIPIO" : "TEORAMA"
    },
    "geometry" : {
      "type" : "Point",
      "coordinates" : [ -73.230833, 8.579444 ]
    }
  }, {
    "type" : "Feature",
    "properties" : {
      "TIPO_EVENTO" : "1",
      "DEPARTAMENTO" : "NORTE DE SANTANDER",
      "TIPO_AREA" : "Rural",
      "AÑO" : "2006",
      "MUNICIPIO" : "SAN CALIXTO"
    },
    "geometry" : {
      "type" : "Point",
      "coordinates" : [ -73.240278, 8.453056 ]
    }
  }, {
    "type" : "Feature",
    "properties" : {
      "TIPO_EVENTO" : "1",
      "DEPARTAMENTO" : "CALDAS",
      "TIPO_AREA" : "Rural",
      "AÑO" : "2006",
      "MUNICIPIO" : "MANIZALES"
    },
    "geometry" : {
      "type" : "Point",
      "coordinates" : [ -75.489517, 5.055732 ]
    }
  }, {
    "type" : "Feature",
    "properties" : {
      "TIPO_EVENTO" : "1",
      "DEPARTAMENTO" : "ANTIOQUIA",
      "TIPO_AREA" : "Rural",
      "AÑO" : "2006",
      "MUNICIPIO" : "VALDIVIA"
    },
    "geometry" : {
      "type" : "Point",
      "coordinates" : [ -75.248333, 7.404167 ]
    }
  }, {
    "type" : "Feature",
    "properties" : {
      "TIPO_EVENTO" : "1",
      "DEPARTAMENTO" : "NARIÑO",
      "TIPO_AREA" : "Rural",
      "AÑO" : "2006",
      "MUNICIPIO" : "MALLAMA"
    },
    "geometry" : {
      "type" : "Point",
      "coordinates" : [ -77.864498, 1.140984 ]
    }
  }, {
    "type" : "Feature",
    "properties" : {
      "TIPO_EVENTO" : "1",
      "DEPARTAMENTO" : "ANTIOQUIA",
      "TIPO_AREA" : "Rural",
      "AÑO" : "2006",
      "MUNICIPIO" : "ITUANGO"
    },
    "geometry" : {
      "type" : "Point",
      "coordinates" : [ -75.720556, 7.336667 ]
    }
  }, {
    "type" : "Feature",
    "properties" : {
      "TIPO_EVENTO" : "1",
      "DEPARTAMENTO" : "ARAUCA",
      "TIPO_AREA" : "Rural",
      "AÑO" : "2006",
      "MUNICIPIO" : "SARAVENA"
    },
    "geometry" : {
      "type" : "Point",
      "coordinates" : [ -71.696944, 7.035833 ]
    }
  }, {
    "type" : "Feature",
    "properties" : {
      "TIPO_EVENTO" : "1",
      "DEPARTAMENTO" : "CALDAS",
      "TIPO_AREA" : "Rural",
      "AÑO" : "2006",
      "MUNICIPIO" : "MARULANDA"
    },
    "geometry" : {
      "type" : "Point",
      "coordinates" : [ -75.264167, 5.291667 ]
    }
  }, {
    "type" : "Feature",
    "properties" : {
      "TIPO_EVENTO" : "1",
      "DEPARTAMENTO" : "ANTIOQUIA",
      "TIPO_AREA" : "Rural",
      "AÑO" : "2006",
      "MUNICIPIO" : "VALDIVIA"
    },
    "geometry" : {
      "type" : "Point",
      "coordinates" : [ -75.2325, 7.305278 ]
    }
  }, {
    "type" : "Feature",
    "properties" : {
      "TIPO_EVENTO" : "1",
      "DEPARTAMENTO" : "ARAUCA",
      "TIPO_AREA" : "Rural",
      "AÑO" : "2006",
      "MUNICIPIO" : "TAME"
    },
    "geometry" : {
      "type" : "Point",
      "coordinates" : [ -71.96083333, 6.183055556 ]
    }
  }, {
    "type" : "Feature",
    "properties" : {
      "TIPO_EVENTO" : "1",
      "DEPARTAMENTO" : "CAUCA",
      "TIPO_AREA" : "Rural",
      "AÑO" : "2006",
      "MUNICIPIO" : "PIENDAMÓ"
    },
    "geometry" : {
      "type" : "Point",
      "coordinates" : [ -76.5775, 2.743333333 ]
    }
  }, {
    "type" : "Feature",
    "properties" : {
      "TIPO_EVENTO" : "1",
      "DEPARTAMENTO" : "HUILA",
      "TIPO_AREA" : "Rural",
      "AÑO" : "2006",
      "MUNICIPIO" : "ALGECIRAS"
    },
    "geometry" : {
      "type" : "Point",
      "coordinates" : [ -75.256389, 2.469167 ]
    }
  }, {
    "type" : "Feature",
    "properties" : {
      "TIPO_EVENTO" : "1",
      "DEPARTAMENTO" : "ANTIOQUIA",
      "TIPO_AREA" : "Rural",
      "AÑO" : "2006",
      "MUNICIPIO" : "VALDIVIA"
    },
    "geometry" : {
      "type" : "Point",
      "coordinates" : [ -75.225, 7.308 ]
    }
  }, {
    "type" : "Feature",
    "properties" : {
      "TIPO_EVENTO" : "1",
      "DEPARTAMENTO" : "META",
      "TIPO_AREA" : "Rural",
      "AÑO" : "2006",
      "MUNICIPIO" : "LA MACARENA"
    },
    "geometry" : {
      "type" : "Point",
      "coordinates" : [ -73.784832, 2.182506 ]
    }
  }, {
    "type" : "Feature",
    "properties" : {
      "TIPO_EVENTO" : "1",
      "DEPARTAMENTO" : "CALDAS",
      "TIPO_AREA" : "Rural",
      "AÑO" : "2006",
      "MUNICIPIO" : "SAMANÁ"
    },
    "geometry" : {
      "type" : "Point",
      "coordinates" : [ -74.989572, 5.411801 ]
    }
  }, {
    "type" : "Feature",
    "properties" : {
      "TIPO_EVENTO" : "1",
      "DEPARTAMENTO" : "META",
      "TIPO_AREA" : "Rural",
      "AÑO" : "2006",
      "MUNICIPIO" : "SAN JUAN DE ARAMA"
    },
    "geometry" : {
      "type" : "Point",
      "coordinates" : [ -73.88133, 3.260295 ]
    }
  }, {
    "type" : "Feature",
    "properties" : {
      "TIPO_EVENTO" : "1",
      "DEPARTAMENTO" : "META",
      "TIPO_AREA" : "Rural",
      "AÑO" : "2006",
      "MUNICIPIO" : "SAN JUAN DE ARAMA"
    },
    "geometry" : {
      "type" : "Point",
      "coordinates" : [ -73.870988, 3.233389 ]
    }
  }, {
    "type" : "Feature",
    "properties" : {
      "TIPO_EVENTO" : "1",
      "DEPARTAMENTO" : "META",
      "TIPO_AREA" : "Rural",
      "AÑO" : "2006",
      "MUNICIPIO" : "SAN JUAN DE ARAMA"
    },
    "geometry" : {
      "type" : "Point",
      "coordinates" : [ -73.889202, 3.266871 ]
    }
  }, {
    "type" : "Feature",
    "properties" : {
      "TIPO_EVENTO" : "1",
      "DEPARTAMENTO" : "META",
      "TIPO_AREA" : "Rural",
      "AÑO" : "2006",
      "MUNICIPIO" : "SAN JUAN DE ARAMA"
    },
    "geometry" : {
      "type" : "Point",
      "coordinates" : [ -73.853427, 3.30867 ]
    }
  }, {
    "type" : "Feature",
    "properties" : {
      "TIPO_EVENTO" : "1",
      "DEPARTAMENTO" : "META",
      "TIPO_AREA" : "Rural",
      "AÑO" : "2006",
      "MUNICIPIO" : "PUERTO RICO"
    },
    "geometry" : {
      "type" : "Point",
      "coordinates" : [ -73.207891, 2.939542 ]
    }
  }, {
    "type" : "Feature",
    "properties" : {
      "TIPO_EVENTO" : "1",
      "DEPARTAMENTO" : "NARIÑO",
      "TIPO_AREA" : "Rural",
      "AÑO" : "2006",
      "MUNICIPIO" : "POLICARPA"
    },
    "geometry" : {
      "type" : "Point",
      "coordinates" : [ -77.459098, 1.628192 ]
    }
  }, {
    "type" : "Feature",
    "properties" : {
      "TIPO_EVENTO" : "2",
      "DEPARTAMENTO" : "ANTIOQUIA",
      "TIPO_AREA" : "Rural",
      "AÑO" : "2006",
      "MUNICIPIO" : "CAÑASGORDAS"
    },
    "geometry" : {
      "type" : "Point",
      "coordinates" : [ -76.025341, 6.751363 ]
    }
  }, {
    "type" : "Feature",
    "properties" : {
      "TIPO_EVENTO" : "1",
      "DEPARTAMENTO" : "NORTE DE SANTANDER",
      "TIPO_AREA" : "Rural",
      "AÑO" : "2006",
      "MUNICIPIO" : "SAN CALIXTO"
    },
    "geometry" : {
      "type" : "Point",
      "coordinates" : [ -73.207765, 8.40286 ]
    }
  }, {
    "type" : "Feature",
    "properties" : {
      "TIPO_EVENTO" : "1",
      "DEPARTAMENTO" : "NORTE DE SANTANDER",
      "TIPO_AREA" : "Rural",
      "AÑO" : "2006",
      "MUNICIPIO" : "SARDINATA"
    },
    "geometry" : {
      "type" : "Point",
      "coordinates" : [ -72.801023, 8.083016 ]
    }
  }, {
    "type" : "Feature",
    "properties" : {
      "TIPO_EVENTO" : "1",
      "DEPARTAMENTO" : "CHOCO",
      "TIPO_AREA" : "Rural",
      "AÑO" : "2006",
      "MUNICIPIO" : "ITSMINA"
    },
    "geometry" : {
      "type" : "Point",
      "coordinates" : [ -76.685826, 5.154883 ]
    }
  }, {
    "type" : "Feature",
    "properties" : {
      "TIPO_EVENTO" : "1",
      "DEPARTAMENTO" : "NORTE DE SANTANDER",
      "TIPO_AREA" : "Rural",
      "AÑO" : "2006",
      "MUNICIPIO" : "CONVENCIÓN"
    },
    "geometry" : {
      "type" : "Point",
      "coordinates" : [ -73.349167, 8.576389 ]
    }
  }, {
    "type" : "Feature",
    "properties" : {
      "TIPO_EVENTO" : "1",
      "DEPARTAMENTO" : "META",
      "TIPO_AREA" : "Rural",
      "AÑO" : "2006",
      "MUNICIPIO" : "VISTAHERMOSA"
    },
    "geometry" : {
      "type" : "Point",
      "coordinates" : [ -73.72004642, 3.082588802 ]
    }
  }, {
    "type" : "Feature",
    "properties" : {
      "TIPO_EVENTO" : "1",
      "DEPARTAMENTO" : "HUILA",
      "TIPO_AREA" : "Rural",
      "AÑO" : "2006",
      "MUNICIPIO" : "RIVERA"
    },
    "geometry" : {
      "type" : "Point",
      "coordinates" : [ -75.1325, 2.723056 ]
    }
  }, {
    "type" : "Feature",
    "properties" : {
      "TIPO_EVENTO" : "1",
      "DEPARTAMENTO" : "TOLIMA",
      "TIPO_AREA" : "Rural",
      "AÑO" : "2006",
      "MUNICIPIO" : "SAN ANTONIO"
    },
    "geometry" : {
      "type" : "Point",
      "coordinates" : [ -75.478556, 3.915116 ]
    }
  }, {
    "type" : "Feature",
    "properties" : {
      "TIPO_EVENTO" : "1",
      "DEPARTAMENTO" : "VAUPES",
      "TIPO_AREA" : "Rural",
      "AÑO" : "2006",
      "MUNICIPIO" : "CARURÚ"
    },
    "geometry" : {
      "type" : "Point",
      "coordinates" : [ -71.296639, 1.012487 ]
    }
  }, {
    "type" : "Feature",
    "properties" : {
      "TIPO_EVENTO" : "1",
      "DEPARTAMENTO" : "VALLE DEL CAUCA",
      "TIPO_AREA" : "Rural",
      "AÑO" : "2006",
      "MUNICIPIO" : "BUENAVENTURA"
    },
    "geometry" : {
      "type" : "Point",
      "coordinates" : [ -77.010839, 3.882868 ]
    }
  }, {
    "type" : "Feature",
    "properties" : {
      "TIPO_EVENTO" : "1",
      "DEPARTAMENTO" : "VALLE DEL CAUCA",
      "TIPO_AREA" : "Rural",
      "AÑO" : "2006",
      "MUNICIPIO" : "BUENAVENTURA"
    },
    "geometry" : {
      "type" : "Point",
      "coordinates" : [ -77.010839, 3.882868 ]
    }
  }, {
    "type" : "Feature",
    "properties" : {
      "TIPO_EVENTO" : "1",
      "DEPARTAMENTO" : "TOLIMA",
      "TIPO_AREA" : "Rural",
      "AÑO" : "2006",
      "MUNICIPIO" : "PLANADAS"
    },
    "geometry" : {
      "type" : "Point",
      "coordinates" : [ -75.754167, 3.021944 ]
    }
  }, {
    "type" : "Feature",
    "properties" : {
      "TIPO_EVENTO" : "1",
      "DEPARTAMENTO" : "NORTE DE SANTANDER",
      "TIPO_AREA" : "Rural",
      "AÑO" : "2006",
      "MUNICIPIO" : "SAN CALIXTO"
    },
    "geometry" : {
      "type" : "Point",
      "coordinates" : [ -73.135556, 8.451667 ]
    }
  }, {
    "type" : "Feature",
    "properties" : {
      "TIPO_EVENTO" : "1",
      "DEPARTAMENTO" : "NARIÑO",
      "TIPO_AREA" : "Rural",
      "AÑO" : "2006",
      "MUNICIPIO" : "CUMBITARA"
    },
    "geometry" : {
      "type" : "Point",
      "coordinates" : [ -77.579056, 1.64746 ]
    }
  }, {
    "type" : "Feature",
    "properties" : {
      "TIPO_EVENTO" : "1",
      "DEPARTAMENTO" : "ANTIOQUIA",
      "TIPO_AREA" : "Rural",
      "AÑO" : "2006",
      "MUNICIPIO" : "CARMEN DE VIBORAL"
    },
    "geometry" : {
      "type" : "Point",
      "coordinates" : [ -75.235278, 5.864722 ]
    }
  }, {
    "type" : "Feature",
    "properties" : {
      "TIPO_EVENTO" : "1",
      "DEPARTAMENTO" : "CORDOBA",
      "TIPO_AREA" : "Rural",
      "AÑO" : "2006",
      "MUNICIPIO" : "PUERTO LIBERTADOR"
    },
    "geometry" : {
      "type" : "Point",
      "coordinates" : [ -75.670508, 7.883545 ]
    }
  }, {
    "type" : "Feature",
    "properties" : {
      "TIPO_EVENTO" : "1",
      "DEPARTAMENTO" : "CORDOBA",
      "TIPO_AREA" : "Rural",
      "AÑO" : "2006",
      "MUNICIPIO" : "TIERRALTA"
    },
    "geometry" : {
      "type" : "Point",
      "coordinates" : [ -76.052223, 8.181547 ]
    }
  }, {
    "type" : "Feature",
    "properties" : {
      "TIPO_EVENTO" : "1",
      "DEPARTAMENTO" : "NARIÑO",
      "TIPO_AREA" : "Rural",
      "AÑO" : "2006",
      "MUNICIPIO" : "LOS ANDES"
    },
    "geometry" : {
      "type" : "Point",
      "coordinates" : [ -77.521244, 1.493975 ]
    }
  }, {
    "type" : "Feature",
    "properties" : {
      "TIPO_EVENTO" : "1",
      "DEPARTAMENTO" : "NARIÑO",
      "TIPO_AREA" : "Rural",
      "AÑO" : "2006",
      "MUNICIPIO" : "LOS ANDES"
    },
    "geometry" : {
      "type" : "Point",
      "coordinates" : [ -77.521244, 1.493975 ]
    }
  }, {
    "type" : "Feature",
    "properties" : {
      "TIPO_EVENTO" : "1",
      "DEPARTAMENTO" : "ANTIOQUIA",
      "TIPO_AREA" : "Rural",
      "AÑO" : "2006",
      "MUNICIPIO" : "TARAZÁ"
    },
    "geometry" : {
      "type" : "Point",
      "coordinates" : [ -75.400212, 7.582546 ]
    }
  }, {
    "type" : "Feature",
    "properties" : {
      "TIPO_EVENTO" : "1",
      "DEPARTAMENTO" : "TOLIMA",
      "TIPO_AREA" : "Rural",
      "AÑO" : "2006",
      "MUNICIPIO" : "ATACO"
    },
    "geometry" : {
      "type" : "Point",
      "coordinates" : [ -75.591667, 3.364444 ]
    }
  }, {
    "type" : "Feature",
    "properties" : {
      "TIPO_EVENTO" : "1",
      "DEPARTAMENTO" : "ANTIOQUIA",
      "TIPO_AREA" : "Rural",
      "AÑO" : "2006",
      "MUNICIPIO" : "ANORÍ"
    },
    "geometry" : {
      "type" : "Point",
      "coordinates" : [ -75.147222, 7.073333 ]
    }
  }, {
    "type" : "Feature",
    "properties" : {
      "TIPO_EVENTO" : "1",
      "DEPARTAMENTO" : "CALDAS",
      "TIPO_AREA" : "Rural",
      "AÑO" : "2006",
      "MUNICIPIO" : "MARULANDA"
    },
    "geometry" : {
      "type" : "Point",
      "coordinates" : [ -75.260392, 5.284208 ]
    }
  }, {
    "type" : "Feature",
    "properties" : {
      "TIPO_EVENTO" : "1",
      "DEPARTAMENTO" : "CALDAS",
      "TIPO_AREA" : "Rural",
      "AÑO" : "2006",
      "MUNICIPIO" : "SAMANÁ"
    },
    "geometry" : {
      "type" : "Point",
      "coordinates" : [ -74.989572, 5.411801 ]
    }
  }, {
    "type" : "Feature",
    "properties" : {
      "TIPO_EVENTO" : "1",
      "DEPARTAMENTO" : "CALDAS",
      "TIPO_AREA" : "Rural",
      "AÑO" : "2006",
      "MUNICIPIO" : "RIOSUCIO"
    },
    "geometry" : {
      "type" : "Point",
      "coordinates" : [ -75.703599, 5.424265 ]
    }
  }, {
    "type" : "Feature",
    "properties" : {
      "TIPO_EVENTO" : "1",
      "DEPARTAMENTO" : "CALDAS",
      "TIPO_AREA" : "Rural",
      "AÑO" : "2006",
      "MUNICIPIO" : "ANSERMA"
    },
    "geometry" : {
      "type" : "Point",
      "coordinates" : [ -75.784234, 5.237227 ]
    }
  }, {
    "type" : "Feature",
    "properties" : {
      "TIPO_EVENTO" : "1",
      "DEPARTAMENTO" : "CAQUETA",
      "TIPO_AREA" : "Rural",
      "AÑO" : "2006",
      "MUNICIPIO" : "SOLITA"
    },
    "geometry" : {
      "type" : "Point",
      "coordinates" : [ -75.618776, 0.872572 ]
    }
  }, {
    "type" : "Feature",
    "properties" : {
      "TIPO_EVENTO" : "1",
      "DEPARTAMENTO" : "ANTIOQUIA",
      "TIPO_AREA" : "Rural",
      "AÑO" : "2006",
      "MUNICIPIO" : "SAN LUIS"
    },
    "geometry" : {
      "type" : "Point",
      "coordinates" : [ -74.994899, 6.042723 ]
    }
  }, {
    "type" : "Feature",
    "properties" : {
      "TIPO_EVENTO" : "2",
      "DEPARTAMENTO" : "CAQUETA",
      "TIPO_AREA" : "Rural",
      "AÑO" : "2006",
      "MUNICIPIO" : "MILÁN"
    },
    "geometry" : {
      "type" : "Point",
      "coordinates" : [ -75.507011, 1.289829 ]
    }
  }, {
    "type" : "Feature",
    "properties" : {
      "TIPO_EVENTO" : "1",
      "DEPARTAMENTO" : "CAQUETA",
      "TIPO_AREA" : "Rural",
      "AÑO" : "2006",
      "MUNICIPIO" : "EL DONCELLO"
    },
    "geometry" : {
      "type" : "Point",
      "coordinates" : [ -75.284447, 1.678015 ]
    }
  }, {
    "type" : "Feature",
    "properties" : {
      "TIPO_EVENTO" : "1",
      "DEPARTAMENTO" : "NORTE DE SANTANDER",
      "TIPO_AREA" : "Rural",
      "AÑO" : "2006",
      "MUNICIPIO" : "EL TARRA"
    },
    "geometry" : {
      "type" : "Point",
      "coordinates" : [ -73.114444, 8.613056 ]
    }
  }, {
    "type" : "Feature",
    "properties" : {
      "TIPO_EVENTO" : "1",
      "DEPARTAMENTO" : "CHOCO",
      "TIPO_AREA" : "Rural",
      "AÑO" : "2006",
      "MUNICIPIO" : "QUIBDÓ"
    },
    "geometry" : {
      "type" : "Point",
      "coordinates" : [ -76.650754, 5.694248 ]
    }
  }, {
    "type" : "Feature",
    "properties" : {
      "TIPO_EVENTO" : "1",
      "DEPARTAMENTO" : "CALDAS",
      "TIPO_AREA" : "Rural",
      "AÑO" : "2006",
      "MUNICIPIO" : "SAMANÁ"
    },
    "geometry" : {
      "type" : "Point",
      "coordinates" : [ -74.999167, 5.5225 ]
    }
  }, {
    "type" : "Feature",
    "properties" : {
      "TIPO_EVENTO" : "1",
      "DEPARTAMENTO" : "BOLIVAR",
      "TIPO_AREA" : "Rural",
      "AÑO" : "2006",
      "MUNICIPIO" : "CANTAGALLO"
    },
    "geometry" : {
      "type" : "Point",
      "coordinates" : [ -73.918975, 7.379167 ]
    }
  }, {
    "type" : "Feature",
    "properties" : {
      "TIPO_EVENTO" : "1",
      "DEPARTAMENTO" : "META",
      "TIPO_AREA" : "Rural",
      "AÑO" : "2006",
      "MUNICIPIO" : "PUERTO GAITÁN"
    },
    "geometry" : {
      "type" : "Point",
      "coordinates" : [ -71.3225, 3.773889 ]
    }
  }, {
    "type" : "Feature",
    "properties" : {
      "TIPO_EVENTO" : "1",
      "DEPARTAMENTO" : "BOLIVAR",
      "TIPO_AREA" : "Rural",
      "AÑO" : "2006",
      "MUNICIPIO" : "SANTA ROSA DEL SUR"
    },
    "geometry" : {
      "type" : "Point",
      "coordinates" : [ -74.2, 8.12 ]
    }
  }, {
    "type" : "Feature",
    "properties" : {
      "TIPO_EVENTO" : "1",
      "DEPARTAMENTO" : "META",
      "TIPO_AREA" : "Rural",
      "AÑO" : "2006",
      "MUNICIPIO" : "LA MACARENA"
    },
    "geometry" : {
      "type" : "Point",
      "coordinates" : [ -73.784832, 2.182506 ]
    }
  }, {
    "type" : "Feature",
    "properties" : {
      "TIPO_EVENTO" : "1",
      "DEPARTAMENTO" : "META",
      "TIPO_AREA" : "Rural",
      "AÑO" : "2006",
      "MUNICIPIO" : "PUERTO GAITÁN"
    },
    "geometry" : {
      "type" : "Point",
      "coordinates" : [ -72.082187, 4.312939 ]
    }
  }, {
    "type" : "Feature",
    "properties" : {
      "TIPO_EVENTO" : "1",
      "DEPARTAMENTO" : "NARIÑO",
      "TIPO_AREA" : "Rural",
      "AÑO" : "2006",
      "MUNICIPIO" : "MALLAMA"
    },
    "geometry" : {
      "type" : "Point",
      "coordinates" : [ -77.864498, 1.140984 ]
    }
  }, {
    "type" : "Feature",
    "properties" : {
      "TIPO_EVENTO" : "1",
      "DEPARTAMENTO" : "ANTIOQUIA",
      "TIPO_AREA" : "Rural",
      "AÑO" : "2006",
      "MUNICIPIO" : "SONSÓN"
    },
    "geometry" : {
      "type" : "Point",
      "coordinates" : [ -75.208056, 5.854167 ]
    }
  }, {
    "type" : "Feature",
    "properties" : {
      "TIPO_EVENTO" : "2",
      "DEPARTAMENTO" : "META",
      "TIPO_AREA" : "Rural",
      "AÑO" : "2006",
      "MUNICIPIO" : "VILLAVICENCIO"
    },
    "geometry" : {
      "type" : "Point",
      "coordinates" : [ -73.624479, 4.155378 ]
    }
  }, {
    "type" : "Feature",
    "properties" : {
      "TIPO_EVENTO" : "1",
      "DEPARTAMENTO" : "NORTE DE SANTANDER",
      "TIPO_AREA" : "Rural",
      "AÑO" : "2006",
      "MUNICIPIO" : "HACARÍ"
    },
    "geometry" : {
      "type" : "Point",
      "coordinates" : [ -73.0875, 8.435833 ]
    }
  }, {
    "type" : "Feature",
    "properties" : {
      "TIPO_EVENTO" : "1",
      "DEPARTAMENTO" : "ANTIOQUIA",
      "TIPO_AREA" : "Rural",
      "AÑO" : "2006",
      "MUNICIPIO" : "TARAZÁ"
    },
    "geometry" : {
      "type" : "Point",
      "coordinates" : [ -75.400212, 7.582546 ]
    }
  }, {
    "type" : "Feature",
    "properties" : {
      "TIPO_EVENTO" : "1",
      "DEPARTAMENTO" : "NORTE DE SANTANDER",
      "TIPO_AREA" : "Rural",
      "AÑO" : "2006",
      "MUNICIPIO" : "TEORAMA"
    },
    "geometry" : {
      "type" : "Point",
      "coordinates" : [ -73.201667, 8.613056 ]
    }
  }, {
    "type" : "Feature",
    "properties" : {
      "TIPO_EVENTO" : "2",
      "DEPARTAMENTO" : "ARAUCA",
      "TIPO_AREA" : "Rural",
      "AÑO" : "2006",
      "MUNICIPIO" : "ARAUQUITA"
    },
    "geometry" : {
      "type" : "Point",
      "coordinates" : [ -71.384978, 7.023186 ]
    }
  }, {
    "type" : "Feature",
    "properties" : {
      "TIPO_EVENTO" : "1",
      "DEPARTAMENTO" : "META",
      "TIPO_AREA" : "Rural",
      "AÑO" : "2006",
      "MUNICIPIO" : "SAN JUAN DE ARAMA"
    },
    "geometry" : {
      "type" : "Point",
      "coordinates" : [ -73.878772, 3.380464 ]
    }
  }, {
    "type" : "Feature",
    "properties" : {
      "TIPO_EVENTO" : "2",
      "DEPARTAMENTO" : "ARAUCA",
      "TIPO_AREA" : "Rural",
      "AÑO" : "2006",
      "MUNICIPIO" : "ARAUQUITA"
    },
    "geometry" : {
      "type" : "Point",
      "coordinates" : [ -71.384978, 7.023186 ]
    }
  }, {
    "type" : "Feature",
    "properties" : {
      "TIPO_EVENTO" : "2",
      "DEPARTAMENTO" : "ARAUCA",
      "TIPO_AREA" : "Rural",
      "AÑO" : "2006",
      "MUNICIPIO" : "ARAUQUITA"
    },
    "geometry" : {
      "type" : "Point",
      "coordinates" : [ -71.384978, 7.023186 ]
    }
  }, {
    "type" : "Feature",
    "properties" : {
      "TIPO_EVENTO" : "1",
      "DEPARTAMENTO" : "NORTE DE SANTANDER",
      "TIPO_AREA" : "Rural",
      "AÑO" : "2006",
      "MUNICIPIO" : "HACARÍ"
    },
    "geometry" : {
      "type" : "Point",
      "coordinates" : [ -73.088132, 8.286541 ]
    }
  }, {
    "type" : "Feature",
    "properties" : {
      "TIPO_EVENTO" : "1",
      "DEPARTAMENTO" : "ANTIOQUIA",
      "TIPO_AREA" : "Rural",
      "AÑO" : "2006",
      "MUNICIPIO" : "SAN LUIS"
    },
    "geometry" : {
      "type" : "Point",
      "coordinates" : [ -74.994899, 6.042723 ]
    }
  }, {
    "type" : "Feature",
    "properties" : {
      "TIPO_EVENTO" : "1",
      "DEPARTAMENTO" : "ANTIOQUIA",
      "TIPO_AREA" : "Rural",
      "AÑO" : "2006",
      "MUNICIPIO" : "SAN LUIS"
    },
    "geometry" : {
      "type" : "Point",
      "coordinates" : [ -74.994899, 6.042723 ]
    }
  }, {
    "type" : "Feature",
    "properties" : {
      "TIPO_EVENTO" : "1",
      "DEPARTAMENTO" : "ANTIOQUIA",
      "TIPO_AREA" : "Rural",
      "AÑO" : "2006",
      "MUNICIPIO" : "SAN LUIS"
    },
    "geometry" : {
      "type" : "Point",
      "coordinates" : [ -74.994899, 6.042723 ]
    }
  }, {
    "type" : "Feature",
    "properties" : {
      "TIPO_EVENTO" : "1",
      "DEPARTAMENTO" : "ANTIOQUIA",
      "TIPO_AREA" : "Rural",
      "AÑO" : "2006",
      "MUNICIPIO" : "ITUANGO"
    },
    "geometry" : {
      "type" : "Point",
      "coordinates" : [ -75.764403, 7.171637 ]
    }
  }, {
    "type" : "Feature",
    "properties" : {
      "TIPO_EVENTO" : "2",
      "DEPARTAMENTO" : "CAUCA",
      "TIPO_AREA" : "Rural",
      "AÑO" : "2006",
      "MUNICIPIO" : "SANTANDER DE QUILICHAO"
    },
    "geometry" : {
      "type" : "Point",
      "coordinates" : [ -76.479644, 3.036983 ]
    }
  }, {
    "type" : "Feature",
    "properties" : {
      "TIPO_EVENTO" : "1",
      "DEPARTAMENTO" : "HUILA",
      "TIPO_AREA" : "Rural",
      "AÑO" : "2006",
      "MUNICIPIO" : "NEIVA"
    },
    "geometry" : {
      "type" : "Point",
      "coordinates" : [ -75.51, 3.094 ]
    }
  }, {
    "type" : "Feature",
    "properties" : {
      "TIPO_EVENTO" : "1",
      "DEPARTAMENTO" : "ANTIOQUIA",
      "TIPO_AREA" : "Rural",
      "AÑO" : "2006",
      "MUNICIPIO" : "SAN LUIS"
    },
    "geometry" : {
      "type" : "Point",
      "coordinates" : [ -74.994899, 6.042723 ]
    }
  }, {
    "type" : "Feature",
    "properties" : {
      "TIPO_EVENTO" : "1",
      "DEPARTAMENTO" : "BOLIVAR",
      "TIPO_AREA" : "Rural",
      "AÑO" : "2006",
      "MUNICIPIO" : "SANTA ROSA DEL SUR"
    },
    "geometry" : {
      "type" : "Point",
      "coordinates" : [ -74.051674, 7.963275 ]
    }
  }, {
    "type" : "Feature",
    "properties" : {
      "TIPO_EVENTO" : "1",
      "DEPARTAMENTO" : "ARAUCA",
      "TIPO_AREA" : "Rural",
      "AÑO" : "2006",
      "MUNICIPIO" : "FORTUL"
    },
    "geometry" : {
      "type" : "Point",
      "coordinates" : [ -71.770658, 6.792924 ]
    }
  }, {
    "type" : "Feature",
    "properties" : {
      "TIPO_EVENTO" : "1",
      "DEPARTAMENTO" : "BOLIVAR",
      "TIPO_AREA" : "Rural",
      "AÑO" : "2006",
      "MUNICIPIO" : "SAN JACINTO"
    },
    "geometry" : {
      "type" : "Point",
      "coordinates" : [ -75.116664, 9.858672 ]
    }
  }, {
    "type" : "Feature",
    "properties" : {
      "TIPO_EVENTO" : "1",
      "DEPARTAMENTO" : "CAQUETA",
      "TIPO_AREA" : "Rural",
      "AÑO" : "2006",
      "MUNICIPIO" : "VALPARAÍSO"
    },
    "geometry" : {
      "type" : "Point",
      "coordinates" : [ -75.707194, 1.195129 ]
    }
  }, {
    "type" : "Feature",
    "properties" : {
      "TIPO_EVENTO" : "1",
      "DEPARTAMENTO" : "CAQUETA",
      "TIPO_AREA" : "Rural",
      "AÑO" : "2006",
      "MUNICIPIO" : "SAN VICENTE DEL CAGUÁN"
    },
    "geometry" : {
      "type" : "Point",
      "coordinates" : [ -74.768227, 2.120008 ]
    }
  }, {
    "type" : "Feature",
    "properties" : {
      "TIPO_EVENTO" : "1",
      "DEPARTAMENTO" : "NORTE DE SANTANDER",
      "TIPO_AREA" : "Rural",
      "AÑO" : "2006",
      "MUNICIPIO" : "LA PLAYA"
    },
    "geometry" : {
      "type" : "Point",
      "coordinates" : [ -73.205, 8.272 ]
    }
  }, {
    "type" : "Feature",
    "properties" : {
      "TIPO_EVENTO" : "1",
      "DEPARTAMENTO" : "ARAUCA",
      "TIPO_AREA" : "Rural",
      "AÑO" : "2006",
      "MUNICIPIO" : "ARAUQUITA"
    },
    "geometry" : {
      "type" : "Point",
      "coordinates" : [ -71.231667, 6.580556 ]
    }
  }, {
    "type" : "Feature",
    "properties" : {
      "TIPO_EVENTO" : "1",
      "DEPARTAMENTO" : "ANTIOQUIA",
      "TIPO_AREA" : "Rural",
      "AÑO" : "2006",
      "MUNICIPIO" : "ITUANGO"
    },
    "geometry" : {
      "type" : "Point",
      "coordinates" : [ -75.819444, 7.316667 ]
    }
  }, {
    "type" : "Feature",
    "properties" : {
      "TIPO_EVENTO" : "1",
      "DEPARTAMENTO" : "CAQUETA",
      "TIPO_AREA" : "Rural",
      "AÑO" : "2006",
      "MUNICIPIO" : "SAN VICENTE DEL CAGUÁN"
    },
    "geometry" : {
      "type" : "Point",
      "coordinates" : [ -74.843056, 2.743889 ]
    }
  }, {
    "type" : "Feature",
    "properties" : {
      "TIPO_EVENTO" : "1",
      "DEPARTAMENTO" : "TOLIMA",
      "TIPO_AREA" : "Rural",
      "AÑO" : "2006",
      "MUNICIPIO" : "PLANADAS"
    },
    "geometry" : {
      "type" : "Point",
      "coordinates" : [ -75.643224, 3.197458 ]
    }
  }, {
    "type" : "Feature",
    "properties" : {
      "TIPO_EVENTO" : "1",
      "DEPARTAMENTO" : "ANTIOQUIA",
      "TIPO_AREA" : "Rural",
      "AÑO" : "2006",
      "MUNICIPIO" : "YARUMAL"
    },
    "geometry" : {
      "type" : "Point",
      "coordinates" : [ -75.354566, 7.071255 ]
    }
  }, {
    "type" : "Feature",
    "properties" : {
      "TIPO_EVENTO" : "1",
      "DEPARTAMENTO" : "META",
      "TIPO_AREA" : "Rural",
      "AÑO" : "2006",
      "MUNICIPIO" : "LA MACARENA"
    },
    "geometry" : {
      "type" : "Point",
      "coordinates" : [ -73.784832, 2.182506 ]
    }
  }, {
    "type" : "Feature",
    "properties" : {
      "TIPO_EVENTO" : "1",
      "DEPARTAMENTO" : "ANTIOQUIA",
      "TIPO_AREA" : "Rural",
      "AÑO" : "2006",
      "MUNICIPIO" : "GRANADA"
    },
    "geometry" : {
      "type" : "Point",
      "coordinates" : [ -75.08666667, 6.045555556 ]
    }
  }, {
    "type" : "Feature",
    "properties" : {
      "TIPO_EVENTO" : "1",
      "DEPARTAMENTO" : "ANTIOQUIA",
      "TIPO_AREA" : "Rural",
      "AÑO" : "2006",
      "MUNICIPIO" : "CAMPAMENTO"
    },
    "geometry" : {
      "type" : "Point",
      "coordinates" : [ -75.296386, 6.979151 ]
    }
  }, {
    "type" : "Feature",
    "properties" : {
      "TIPO_EVENTO" : "1",
      "DEPARTAMENTO" : "HUILA",
      "TIPO_AREA" : "Rural",
      "AÑO" : "2006",
      "MUNICIPIO" : "BARAYA"
    },
    "geometry" : {
      "type" : "Point",
      "coordinates" : [ -75.003056, 3.125833 ]
    }
  }, {
    "type" : "Feature",
    "properties" : {
      "TIPO_EVENTO" : "1",
      "DEPARTAMENTO" : "NARIÑO",
      "TIPO_AREA" : "Rural",
      "AÑO" : "2006",
      "MUNICIPIO" : "RICAURTE"
    },
    "geometry" : {
      "type" : "Point",
      "coordinates" : [ -78.096389, 1.209167 ]
    }
  }, {
    "type" : "Feature",
    "properties" : {
      "TIPO_EVENTO" : "1",
      "DEPARTAMENTO" : "NARIÑO",
      "TIPO_AREA" : "Rural",
      "AÑO" : "2006",
      "MUNICIPIO" : "POLICARPA"
    },
    "geometry" : {
      "type" : "Point",
      "coordinates" : [ -77.501667, 1.8025 ]
    }
  }, {
    "type" : "Feature",
    "properties" : {
      "TIPO_EVENTO" : "1",
      "DEPARTAMENTO" : "NARIÑO",
      "TIPO_AREA" : "Rural",
      "AÑO" : "2006",
      "MUNICIPIO" : "RICAURTE"
    },
    "geometry" : {
      "type" : "Point",
      "coordinates" : [ -78.095556, 1.210278 ]
    }
  }, {
    "type" : "Feature",
    "properties" : {
      "TIPO_EVENTO" : "1",
      "DEPARTAMENTO" : "META",
      "TIPO_AREA" : "Rural",
      "AÑO" : "2006",
      "MUNICIPIO" : "LA MACARENA"
    },
    "geometry" : {
      "type" : "Point",
      "coordinates" : [ -73.784832, 2.182506 ]
    }
  }, {
    "type" : "Feature",
    "properties" : {
      "TIPO_EVENTO" : "1",
      "DEPARTAMENTO" : "ANTIOQUIA",
      "TIPO_AREA" : "Rural",
      "AÑO" : "2006",
      "MUNICIPIO" : "SAN FRANCISCO"
    },
    "geometry" : {
      "type" : "Point",
      "coordinates" : [ -75.051972, 5.968063 ]
    }
  }, {
    "type" : "Feature",
    "properties" : {
      "TIPO_EVENTO" : "1",
      "DEPARTAMENTO" : "ANTIOQUIA",
      "TIPO_AREA" : "Rural",
      "AÑO" : "2006",
      "MUNICIPIO" : "COCORNÁ"
    },
    "geometry" : {
      "type" : "Point",
      "coordinates" : [ -75.185085, 6.058001 ]
    }
  }, {
    "type" : "Feature",
    "properties" : {
      "TIPO_EVENTO" : "2",
      "DEPARTAMENTO" : "CAQUETA",
      "TIPO_AREA" : "Rural",
      "AÑO" : "2006",
      "MUNICIPIO" : "FLORENCIA"
    },
    "geometry" : {
      "type" : "Point",
      "coordinates" : [ -75.619118, 1.621012 ]
    }
  }, {
    "type" : "Feature",
    "properties" : {
      "TIPO_EVENTO" : "1",
      "DEPARTAMENTO" : "NARIÑO",
      "TIPO_AREA" : "Rural",
      "AÑO" : "2006",
      "MUNICIPIO" : "SAMANIEGO"
    },
    "geometry" : {
      "type" : "Point",
      "coordinates" : [ -77.59313, 1.337083 ]
    }
  }, {
    "type" : "Feature",
    "properties" : {
      "TIPO_EVENTO" : "1",
      "DEPARTAMENTO" : "CAQUETA",
      "TIPO_AREA" : "Rural",
      "AÑO" : "2006",
      "MUNICIPIO" : "PUERTO RICO"
    },
    "geometry" : {
      "type" : "Point",
      "coordinates" : [ -75.159112, 1.909652 ]
    }
  }, {
    "type" : "Feature",
    "properties" : {
      "TIPO_EVENTO" : "1",
      "DEPARTAMENTO" : "CALDAS",
      "TIPO_AREA" : "Rural",
      "AÑO" : "2006",
      "MUNICIPIO" : "SAMANÁ"
    },
    "geometry" : {
      "type" : "Point",
      "coordinates" : [ -74.989572, 5.411801 ]
    }
  }, {
    "type" : "Feature",
    "properties" : {
      "TIPO_EVENTO" : "1",
      "DEPARTAMENTO" : "ANTIOQUIA",
      "TIPO_AREA" : "Rural",
      "AÑO" : "2006",
      "MUNICIPIO" : "SAN FRANCISCO"
    },
    "geometry" : {
      "type" : "Point",
      "coordinates" : [ -75.063056, 5.946667 ]
    }
  }, {
    "type" : "Feature",
    "properties" : {
      "TIPO_EVENTO" : "1",
      "DEPARTAMENTO" : "ANTIOQUIA",
      "TIPO_AREA" : "Rural",
      "AÑO" : "2006",
      "MUNICIPIO" : "SAN FRANCISCO"
    },
    "geometry" : {
      "type" : "Point",
      "coordinates" : [ -75.0275, 5.920556 ]
    }
  }, {
    "type" : "Feature",
    "properties" : {
      "TIPO_EVENTO" : "1",
      "DEPARTAMENTO" : "ARAUCA",
      "TIPO_AREA" : "Rural",
      "AÑO" : "2006",
      "MUNICIPIO" : "ARAUQUITA"
    },
    "geometry" : {
      "type" : "Point",
      "coordinates" : [ -71.384978, 7.023186 ]
    }
  }, {
    "type" : "Feature",
    "properties" : {
      "TIPO_EVENTO" : "1",
      "DEPARTAMENTO" : "TOLIMA",
      "TIPO_AREA" : "Rural",
      "AÑO" : "2006",
      "MUNICIPIO" : "LÍBANO"
    },
    "geometry" : {
      "type" : "Point",
      "coordinates" : [ -75.058333, 4.795556 ]
    }
  }, {
    "type" : "Feature",
    "properties" : {
      "TIPO_EVENTO" : "1",
      "DEPARTAMENTO" : "ANTIOQUIA",
      "TIPO_AREA" : "Rural",
      "AÑO" : "2006",
      "MUNICIPIO" : "ITUANGO"
    },
    "geometry" : {
      "type" : "Point",
      "coordinates" : [ -75.815278, 7.343889 ]
    }
  }, {
    "type" : "Feature",
    "properties" : {
      "TIPO_EVENTO" : "1",
      "DEPARTAMENTO" : "CALDAS",
      "TIPO_AREA" : "Rural",
      "AÑO" : "2006",
      "MUNICIPIO" : "SAMANÁ"
    },
    "geometry" : {
      "type" : "Point",
      "coordinates" : [ -74.989572, 5.411801 ]
    }
  }, {
    "type" : "Feature",
    "properties" : {
      "TIPO_EVENTO" : "1",
      "DEPARTAMENTO" : "META",
      "TIPO_AREA" : "Rural",
      "AÑO" : "2006",
      "MUNICIPIO" : "VISTAHERMOSA"
    },
    "geometry" : {
      "type" : "Point",
      "coordinates" : [ -73.85, 3.182 ]
    }
  }, {
    "type" : "Feature",
    "properties" : {
      "TIPO_EVENTO" : "1",
      "DEPARTAMENTO" : "META",
      "TIPO_AREA" : "Rural",
      "AÑO" : "2006",
      "MUNICIPIO" : "PUERTO RICO"
    },
    "geometry" : {
      "type" : "Point",
      "coordinates" : [ -73.207891, 2.939542 ]
    }
  }, {
    "type" : "Feature",
    "properties" : {
      "TIPO_EVENTO" : "1",
      "DEPARTAMENTO" : "META",
      "TIPO_AREA" : "Rural",
      "AÑO" : "2006",
      "MUNICIPIO" : "LEJANÍAS"
    },
    "geometry" : {
      "type" : "Point",
      "coordinates" : [ -74.074444, 3.618056 ]
    }
  }, {
    "type" : "Feature",
    "properties" : {
      "TIPO_EVENTO" : "1",
      "DEPARTAMENTO" : "CAQUETA",
      "TIPO_AREA" : "Rural",
      "AÑO" : "2006",
      "MUNICIPIO" : "FLORENCIA"
    },
    "geometry" : {
      "type" : "Point",
      "coordinates" : [ -75.606944, 1.7125 ]
    }
  }, {
    "type" : "Feature",
    "properties" : {
      "TIPO_EVENTO" : "1",
      "DEPARTAMENTO" : "BOLIVAR",
      "TIPO_AREA" : "Rural",
      "AÑO" : "2006",
      "MUNICIPIO" : "EL GUAMO"
    },
    "geometry" : {
      "type" : "Point",
      "coordinates" : [ -74.981026, 10.027773 ]
    }
  }, {
    "type" : "Feature",
    "properties" : {
      "TIPO_EVENTO" : "1",
      "DEPARTAMENTO" : "BOLIVAR",
      "TIPO_AREA" : "Rural",
      "AÑO" : "2006",
      "MUNICIPIO" : "SAN PABLO"
    },
    "geometry" : {
      "type" : "Point",
      "coordinates" : [ -73.933361, 7.483919 ]
    }
  }, {
    "type" : "Feature",
    "properties" : {
      "TIPO_EVENTO" : "1",
      "DEPARTAMENTO" : "NORTE DE SANTANDER",
      "TIPO_AREA" : "Rural",
      "AÑO" : "2006",
      "MUNICIPIO" : "TIBÚ"
    },