{
  "type" : "FeatureCollection",
  "features" : [ {
    "type" : "Feature",
    "properties" : {
      "TIPO_EVENTO" : "1",
      "DEPARTAMENTO" : "META",
      "TIPO_AREA" : "Rural",
      "AÑO" : "2008",
      "MUNICIPIO" : "URIBE"
    },
    "geometry" : {
      "type" : "Point",
      "coordinates" : [ -74.446, 3.215 ]
    }
  }, {
    "type" : "Feature",
    "properties" : {
      "TIPO_EVENTO" : "1",
      "DEPARTAMENTO" : "NARIÑO",
      "TIPO_AREA" : "Rural",
      "AÑO" : "2008",
      "MUNICIPIO" : "RICAURTE"
    },
    "geometry" : {
      "type" : "Point",
      "coordinates" : [ -78.181048, 1.150473 ]
    }
  }, {
    "type" : "Feature",
    "properties" : {
      "TIPO_EVENTO" : "4",
      "DEPARTAMENTO" : "META",
      "TIPO_AREA" : "Rural",
      "AÑO" : "2008",
      "MUNICIPIO" : "URIBE"
    },
    "geometry" : {
      "type" : "Point",
      "coordinates" : [ -74.546389, 3.264167 ]
    }
  }, {
    "type" : "Feature",
    "properties" : {
      "TIPO_EVENTO" : "1",
      "DEPARTAMENTO" : "CORDOBA",
      "TIPO_AREA" : "Rural",
      "AÑO" : "2008",
      "MUNICIPIO" : "MONTELÍBANO"
    },
    "geometry" : {
      "type" : "Point",
      "coordinates" : [ -76.00777778, 7.38 ]
    }
  }, {
    "type" : "Feature",
    "properties" : {
      "TIPO_EVENTO" : "1",
      "DEPARTAMENTO" : "CORDOBA",
      "TIPO_AREA" : "Rural",
      "AÑO" : "2008",
      "MUNICIPIO" : "TIERRALTA"
    },
    "geometry" : {
      "type" : "Point",
      "coordinates" : [ -76.11638889, 7.413611111 ]
    }
  }, {
    "type" : "Feature",
    "properties" : {
      "TIPO_EVENTO" : "1",
      "DEPARTAMENTO" : "NORTE DE SANTANDER",
      "TIPO_AREA" : "Rural",
      "AÑO" : "2008",
      "MUNICIPIO" : "HACARÍ"
    },
    "geometry" : {
      "type" : "Point",
      "coordinates" : [ -73.0825, 8.437777778 ]
    }
  }, {
    "type" : "Feature",
    "properties" : {
      "TIPO_EVENTO" : "1",
      "DEPARTAMENTO" : "CORDOBA",
      "TIPO_AREA" : "Rural",
      "AÑO" : "2008",
      "MUNICIPIO" : "TIERRALTA"
    },
    "geometry" : {
      "type" : "Point",
      "coordinates" : [ -76.14277778, 7.495277778 ]
    }
  }, {
    "type" : "Feature",
    "properties" : {
      "TIPO_EVENTO" : "1",
      "DEPARTAMENTO" : "CORDOBA",
      "TIPO_AREA" : "Rural",
      "AÑO" : "2008",
      "MUNICIPIO" : "TIERRALTA"
    },
    "geometry" : {
      "type" : "Point",
      "coordinates" : [ -76.14, 7.500277778 ]
    }
  }, {
    "type" : "Feature",
    "properties" : {
      "TIPO_EVENTO" : "1",
      "DEPARTAMENTO" : "CAQUETA",
      "TIPO_AREA" : "Rural",
      "AÑO" : "2008",
      "MUNICIPIO" : "MONTAÑITA"
    },
    "geometry" : {
      "type" : "Point",
      "coordinates" : [ -75.47416667, 1.476666667 ]
    }
  }, {
    "type" : "Feature",
    "properties" : {
      "TIPO_EVENTO" : "1",
      "DEPARTAMENTO" : "BOGOTA DC",
      "TIPO_AREA" : "Rural",
      "AÑO" : "2008",
      "MUNICIPIO" : "Bogotá DC"
    },
    "geometry" : {
      "type" : "Point",
      "coordinates" : [ -74.20111111, 4.134166667 ]
    }
  }, {
    "type" : "Feature",
    "properties" : {
      "TIPO_EVENTO" : "1",
      "DEPARTAMENTO" : "VALLE DEL CAUCA",
      "TIPO_AREA" : "Rural",
      "AÑO" : "2008",
      "MUNICIPIO" : "PALMIRA"
    },
    "geometry" : {
      "type" : "Point",
      "coordinates" : [ -76.02666667, 3.580833333 ]
    }
  }, {
    "type" : "Feature",
    "properties" : {
      "TIPO_EVENTO" : "1",
      "DEPARTAMENTO" : "META",
      "TIPO_AREA" : "Rural",
      "AÑO" : "2008",
      "MUNICIPIO" : "EL CASTILLO"
    },
    "geometry" : {
      "type" : "Point",
      "coordinates" : [ -73.98416667, 3.638611111 ]
    }
  }, {
    "type" : "Feature",
    "properties" : {
      "TIPO_EVENTO" : "1",
      "DEPARTAMENTO" : "CAQUETA",
      "TIPO_AREA" : "Rural",
      "AÑO" : "2008",
      "MUNICIPIO" : "SAN VICENTE DEL CAGUÁN"
    },
    "geometry" : {
      "type" : "Point",
      "coordinates" : [ -74.69777778, 2.687777778 ]
    }
  }, {
    "type" : "Feature",
    "properties" : {
      "TIPO_EVENTO" : "1",
      "DEPARTAMENTO" : "CAQUETA",
      "TIPO_AREA" : "Rural",
      "AÑO" : "2008",
      "MUNICIPIO" : "SAN VICENTE DEL CAGUÁN"
    },
    "geometry" : {
      "type" : "Point",
      "coordinates" : [ -74.732, 2.667 ]
    }
  }, {
    "type" : "Feature",
    "properties" : {
      "TIPO_EVENTO" : "1",
      "DEPARTAMENTO" : "META",
      "TIPO_AREA" : "Rural",
      "AÑO" : "2008",
      "MUNICIPIO" : "MESETAS"
    },
    "geometry" : {
      "type" : "Point",
      "coordinates" : [ -74.06111111, 3.313611111 ]
    }
  }, {
    "type" : "Feature",
    "properties" : {
      "TIPO_EVENTO" : "1",
      "DEPARTAMENTO" : "META",
      "TIPO_AREA" : "Rural",
      "AÑO" : "2008",
      "MUNICIPIO" : "MESETAS"
    },
    "geometry" : {
      "type" : "Point",
      "coordinates" : [ -74.05555556, 3.311111111 ]
    }
  }, {
    "type" : "Feature",
    "properties" : {
      "TIPO_EVENTO" : "1",
      "DEPARTAMENTO" : "CORDOBA",
      "TIPO_AREA" : "Rural",
      "AÑO" : "2008",
      "MUNICIPIO" : "TIERRALTA"
    },
    "geometry" : {
      "type" : "Point",
      "coordinates" : [ -75.97944444, 7.538611111 ]
    }
  }, {
    "type" : "Feature",
    "properties" : {
      "TIPO_EVENTO" : "1",
      "DEPARTAMENTO" : "CAQUETA",
      "TIPO_AREA" : "Rural",
      "AÑO" : "2008",
      "MUNICIPIO" : "SAN VICENTE DEL CAGUÁN"
    },
    "geometry" : {
      "type" : "Point",
      "coordinates" : [ -74.73833333, 2.658333333 ]
    }
  }, {
    "type" : "Feature",
    "properties" : {
      "TIPO_EVENTO" : "1",
      "DEPARTAMENTO" : "CORDOBA",
      "TIPO_AREA" : "Rural",
      "AÑO" : "2008",
      "MUNICIPIO" : "TIERRALTA"
    },
    "geometry" : {
      "type" : "Point",
      "coordinates" : [ -76.42611111, 7.625555556 ]
    }
  }, {
    "type" : "Feature",
    "properties" : {
      "TIPO_EVENTO" : "1",
      "DEPARTAMENTO" : "CAQUETA",
      "TIPO_AREA" : "Rural",
      "AÑO" : "2008",
      "MUNICIPIO" : "SAN VICENTE DEL CAGUÁN"
    },
    "geometry" : {
      "type" : "Point",
      "coordinates" : [ -74.84166667, 2.689444444 ]
    }
  }, {
    "type" : "Feature",
    "properties" : {
      "TIPO_EVENTO" : "1",
      "DEPARTAMENTO" : "TOLIMA",
      "TIPO_AREA" : "Rural",
      "AÑO" : "2008",
      "MUNICIPIO" : "PLANADAS"
    },
    "geometry" : {
      "type" : "Point",
      "coordinates" : [ -75.67720361, 3.082527778 ]
    }
  }, {
    "type" : "Feature",
    "properties" : {
      "TIPO_EVENTO" : "1",
      "DEPARTAMENTO" : "VALLE DEL CAUCA",
      "TIPO_AREA" : "Rural",
      "AÑO" : "2008",
      "MUNICIPIO" : "FLORIDA"
    },
    "geometry" : {
      "type" : "Point",
      "coordinates" : [ -76.14833333, 3.227222222 ]
    }
  }, {
    "type" : "Feature",
    "properties" : {
      "TIPO_EVENTO" : "1",
      "DEPARTAMENTO" : "NARIÑO",
      "TIPO_AREA" : "Rural",
      "AÑO" : "2008",
      "MUNICIPIO" : "POLICARPA"
    },
    "geometry" : {
      "type" : "Point",
      "coordinates" : [ -77.5525, 1.818055556 ]
    }
  }, {
    "type" : "Feature",
    "properties" : {
      "TIPO_EVENTO" : "1",
      "DEPARTAMENTO" : "NARIÑO",
      "TIPO_AREA" : "Rural",
      "AÑO" : "2008",
      "MUNICIPIO" : "SANTA CRUZ"
    },
    "geometry" : {
      "type" : "Point",
      "coordinates" : [ -77.79833333, 1.414444444 ]
    }
  }, {
    "type" : "Feature",
    "properties" : {
      "TIPO_EVENTO" : "1",
      "DEPARTAMENTO" : "CORDOBA",
      "TIPO_AREA" : "Rural",
      "AÑO" : "2008",
      "MUNICIPIO" : "TIERRALTA"
    },
    "geometry" : {
      "type" : "Point",
      "coordinates" : [ -76.1375, 7.488888889 ]
    }
  }, {
    "type" : "Feature",
    "properties" : {
      "TIPO_EVENTO" : "1",
      "DEPARTAMENTO" : "VALLE DEL CAUCA",
      "TIPO_AREA" : "Rural",
      "AÑO" : "2008",
      "MUNICIPIO" : "BUENAVENTURA"
    },
    "geometry" : {
      "type" : "Point",
      "coordinates" : [ -76.79166667, 3.844722222 ]
    }
  }, {
    "type" : "Feature",
    "properties" : {
      "TIPO_EVENTO" : "1",
      "DEPARTAMENTO" : "NORTE DE SANTANDER",
      "TIPO_AREA" : "Rural",
      "AÑO" : "2008",
      "MUNICIPIO" : "TIBÚ"
    },
    "geometry" : {
      "type" : "Point",
      "coordinates" : [ -72.58722222, 8.511111111 ]
    }
  }, {
    "type" : "Feature",
    "properties" : {
      "TIPO_EVENTO" : "1",
      "DEPARTAMENTO" : "META",
      "TIPO_AREA" : "Rural",
      "AÑO" : "2008",
      "MUNICIPIO" : "LA MACARENA"
    },
    "geometry" : {
      "type" : "Point",
      "coordinates" : [ -73.58416667, 2.414166667 ]
    }
  }, {
    "type" : "Feature",
    "properties" : {
      "TIPO_EVENTO" : "1",
      "DEPARTAMENTO" : "META",
      "TIPO_AREA" : "Rural",
      "AÑO" : "2008",
      "MUNICIPIO" : "VISTAHERMOSA"
    },
    "geometry" : {
      "type" : "Point",
      "coordinates" : [ -73.49666667, 2.959166667 ]
    }
  }, {
    "type" : "Feature",
    "properties" : {
      "TIPO_EVENTO" : "1",
      "DEPARTAMENTO" : "ANTIOQUIA",
      "TIPO_AREA" : "Rural",
      "AÑO" : "2008",
      "MUNICIPIO" : "ANORÍ"
    },
    "geometry" : {
      "type" : "Point",
      "coordinates" : [ -75.10444444, 7.130277778 ]
    }
  }, {
    "type" : "Feature",
    "properties" : {
      "TIPO_EVENTO" : "1",
      "DEPARTAMENTO" : "BOLIVAR",
      "TIPO_AREA" : "Rural",
      "AÑO" : "2008",
      "MUNICIPIO" : "SIMITÍ"
    },
    "geometry" : {
      "type" : "Point",
      "coordinates" : [ -74.17666667, 7.608611111 ]
    }
  }, {
    "type" : "Feature",
    "properties" : {
      "TIPO_EVENTO" : "5",
      "DEPARTAMENTO" : "CAUCA",
      "TIPO_AREA" : "Rural",
      "AÑO" : "2008",
      "MUNICIPIO" : "PÁEZ"
    },
    "geometry" : {
      "type" : "Point",
      "coordinates" : [ -75.9730437, 2.664087619 ]
    }
  }, {
    "type" : "Feature",
    "properties" : {
      "TIPO_EVENTO" : "1",
      "DEPARTAMENTO" : "NORTE DE SANTANDER",
      "TIPO_AREA" : "Rural",
      "AÑO" : "2008",
      "MUNICIPIO" : "SARDINATA"
    },
    "geometry" : {
      "type" : "Point",
      "coordinates" : [ -72.98083333, 8.368055556 ]
    }
  }, {
    "type" : "Feature",
    "properties" : {
      "TIPO_EVENTO" : "1",
      "DEPARTAMENTO" : "NARIÑO",
      "TIPO_AREA" : "Rural",
      "AÑO" : "2008",
      "MUNICIPIO" : "SAMANIEGO"
    },
    "geometry" : {
      "type" : "Point",
      "coordinates" : [ -77.716944, 1.505556 ]
    }
  }, {
    "type" : "Feature",
    "properties" : {
      "TIPO_EVENTO" : "1",
      "DEPARTAMENTO" : "META",
      "TIPO_AREA" : "Rural",
      "AÑO" : "2008",
      "MUNICIPIO" : "MESETAS"
    },
    "geometry" : {
      "type" : "Point",
      "coordinates" : [ -74.09777389, 3.374260278 ]
    }
  }, {
    "type" : "Feature",
    "properties" : {
      "TIPO_EVENTO" : "1",
      "DEPARTAMENTO" : "META",
      "TIPO_AREA" : "Rural",
      "AÑO" : "2008",
      "MUNICIPIO" : "MESETAS"
    },
    "geometry" : {
      "type" : "Point",
      "coordinates" : [ -74.09777389, 3.374260278 ]
    }
  }, {
    "type" : "Feature",
    "properties" : {
      "TIPO_EVENTO" : "1",
      "DEPARTAMENTO" : "ARAUCA",
      "TIPO_AREA" : "Rural",
      "AÑO" : "2008",
      "MUNICIPIO" : "TAME"
    },
    "geometry" : {
      "type" : "Point",
      "coordinates" : [ -72.09666667, 6.218055556 ]
    }
  }, {
    "type" : "Feature",
    "properties" : {
      "TIPO_EVENTO" : "1",
      "DEPARTAMENTO" : "NARIÑO",
      "TIPO_AREA" : "Rural",
      "AÑO" : "2008",
      "MUNICIPIO" : "RICAURTE"
    },
    "geometry" : {
      "type" : "Point",
      "coordinates" : [ -77.8675, 1.398888889 ]
    }
  }, {
    "type" : "Feature",
    "properties" : {
      "TIPO_EVENTO" : "1",
      "DEPARTAMENTO" : "ANTIOQUIA",
      "TIPO_AREA" : "Rural",
      "AÑO" : "2008",
      "MUNICIPIO" : "SAN CARLOS"
    },
    "geometry" : {
      "type" : "Point",
      "coordinates" : [ -75.0225, 6.1425 ]
    }
  }, {
    "type" : "Feature",
    "properties" : {
      "TIPO_EVENTO" : "1",
      "DEPARTAMENTO" : "NARIÑO",
      "TIPO_AREA" : "Rural",
      "AÑO" : "2008",
      "MUNICIPIO" : "SAMANIEGO"
    },
    "geometry" : {
      "type" : "Point",
      "coordinates" : [ -77.59313, 1.337083 ]
    }
  }, {
    "type" : "Feature",
    "properties" : {
      "TIPO_EVENTO" : "1",
      "DEPARTAMENTO" : "CAQUETA",
      "TIPO_AREA" : "Rural",
      "AÑO" : "2008",
      "MUNICIPIO" : "SAN VICENTE DEL CAGUÁN"
    },
    "geometry" : {
      "type" : "Point",
      "coordinates" : [ -74.87083333, 2.7 ]
    }
  }, {
    "type" : "Feature",
    "properties" : {
      "TIPO_EVENTO" : "1",
      "DEPARTAMENTO" : "META",
      "TIPO_AREA" : "Rural",
      "AÑO" : "2008",
      "MUNICIPIO" : "VISTAHERMOSA"
    },
    "geometry" : {
      "type" : "Point",
      "coordinates" : [ -73.67361111, 2.798611111 ]
    }
  }, {
    "type" : "Feature",
    "properties" : {
      "TIPO_EVENTO" : "1",
      "DEPARTAMENTO" : "VALLE DEL CAUCA",
      "TIPO_AREA" : "Rural",
      "AÑO" : "2008",
      "MUNICIPIO" : "PALMIRA"
    },
    "geometry" : {
      "type" : "Point",
      "coordinates" : [ -76.05777778, 3.634166667 ]
    }
  }, {
    "type" : "Feature",
    "properties" : {
      "TIPO_EVENTO" : "1",
      "DEPARTAMENTO" : "META",
      "TIPO_AREA" : "Rural",
      "AÑO" : "2008",
      "MUNICIPIO" : "URIBE"
    },
    "geometry" : {
      "type" : "Point",
      "coordinates" : [ -74.54805556, 2.647777778 ]
    }
  }, {
    "type" : "Feature",
    "properties" : {
      "TIPO_EVENTO" : "1",
      "DEPARTAMENTO" : "VICHADA",
      "TIPO_AREA" : "Rural",
      "AÑO" : "2008",
      "MUNICIPIO" : "CUMARIBO"
    },
    "geometry" : {
      "type" : "Point",
      "coordinates" : [ -69.799221, 4.447613 ]
    }
  }, {
    "type" : "Feature",
    "properties" : {
      "TIPO_EVENTO" : "1",
      "DEPARTAMENTO" : "ANTIOQUIA",
      "TIPO_AREA" : "Rural",
      "AÑO" : "2008",
      "MUNICIPIO" : "DABEIBA"
    },
    "geometry" : {
      "type" : "Point",
      "coordinates" : [ -76.043611, 7.041667 ]
    }
  }, {
    "type" : "Feature",
    "properties" : {
      "TIPO_EVENTO" : "1",
      "DEPARTAMENTO" : "TOLIMA",
      "TIPO_AREA" : "Rural",
      "AÑO" : "2008",
      "MUNICIPIO" : "VILLARRICA"
    },
    "geometry" : {
      "type" : "Point",
      "coordinates" : [ -74.570278, 3.876667 ]
    }
  }, {
    "type" : "Feature",
    "properties" : {
      "TIPO_EVENTO" : "1",
      "DEPARTAMENTO" : "META",
      "TIPO_AREA" : "Rural",
      "AÑO" : "2008",
      "MUNICIPIO" : "VISTAHERMOSA"
    },
    "geometry" : {
      "type" : "Point",
      "coordinates" : [ -73.764167, 2.662778 ]
    }
  }, {
    "type" : "Feature",
    "properties" : {
      "TIPO_EVENTO" : "1",
      "DEPARTAMENTO" : "CORDOBA",
      "TIPO_AREA" : "Rural",
      "AÑO" : "2008",
      "MUNICIPIO" : "TIERRALTA"
    },
    "geometry" : {
      "type" : "Point",
      "coordinates" : [ -76.220278, 7.598056 ]
    }
  }, {
    "type" : "Feature",
    "properties" : {
      "TIPO_EVENTO" : "1",
      "DEPARTAMENTO" : "ANTIOQUIA",
      "TIPO_AREA" : "Rural",
      "AÑO" : "2008",
      "MUNICIPIO" : "ARGELIA"
    },
    "geometry" : {
      "type" : "Point",
      "coordinates" : [ -75.05, 5.728 ]
    }
  }, {
    "type" : "Feature",
    "properties" : {
      "TIPO_EVENTO" : "1",
      "DEPARTAMENTO" : "CHOCO",
      "TIPO_AREA" : "Rural",
      "AÑO" : "2008",
      "MUNICIPIO" : "NÓVITA"
    },
    "geometry" : {
      "type" : "Point",
      "coordinates" : [ -76.385833, 5.076944 ]
    }
  }, {
    "type" : "Feature",
    "properties" : {
      "TIPO_EVENTO" : "1",
      "DEPARTAMENTO" : "BOLIVAR",
      "TIPO_AREA" : "Rural",
      "AÑO" : "2008",
      "MUNICIPIO" : "SIMITÍ"
    },
    "geometry" : {
      "type" : "Point",
      "coordinates" : [ -73.949071, 7.956662 ]
    }
  }, {
    "type" : "Feature",
    "properties" : {
      "TIPO_EVENTO" : "1",
      "DEPARTAMENTO" : "META",
      "TIPO_AREA" : "Rural",
      "AÑO" : "2008",
      "MUNICIPIO" : "URIBE"
    },
    "geometry" : {
      "type" : "Point",
      "coordinates" : [ -74.54805556, 2.647777778 ]
    }
  }, {
    "type" : "Feature",
    "properties" : {
      "TIPO_EVENTO" : "1",
      "DEPARTAMENTO" : "META",
      "TIPO_AREA" : "Rural",
      "AÑO" : "2008",
      "MUNICIPIO" : "PUERTO RICO"
    },
    "geometry" : {
      "type" : "Point",
      "coordinates" : [ -73.17361111, 2.703333333 ]
    }
  }, {
    "type" : "Feature",
    "properties" : {
      "TIPO_EVENTO" : "1",
      "DEPARTAMENTO" : "NORTE DE SANTANDER",
      "TIPO_AREA" : "Rural",
      "AÑO" : "2008",
      "MUNICIPIO" : "EL TARRA"
    },
    "geometry" : {
      "type" : "Point",
      "coordinates" : [ -73.02861111, 8.710277778 ]
    }
  }, {
    "type" : "Feature",
    "properties" : {
      "TIPO_EVENTO" : "1",
      "DEPARTAMENTO" : "CORDOBA",
      "TIPO_AREA" : "Rural",
      "AÑO" : "2008",
      "MUNICIPIO" : "TIERRALTA"
    },
    "geometry" : {
      "type" : "Point",
      "coordinates" : [ -76.14361111, 7.445833333 ]
    }
  }, {
    "type" : "Feature",
    "properties" : {
      "TIPO_EVENTO" : "1",
      "DEPARTAMENTO" : "META",
      "TIPO_AREA" : "Rural",
      "AÑO" : "2008",
      "MUNICIPIO" : "MESETAS"
    },
    "geometry" : {
      "type" : "Point",
      "coordinates" : [ -74.042419, 3.380371 ]
    }
  }, {
    "type" : "Feature",
    "properties" : {
      "TIPO_EVENTO" : "1",
      "DEPARTAMENTO" : "CORDOBA",
      "TIPO_AREA" : "Rural",
      "AÑO" : "2008",
      "MUNICIPIO" : "TIERRALTA"
    },
    "geometry" : {
      "type" : "Point",
      "coordinates" : [ -76.11194444, 7.366388889 ]
    }
  }, {
    "type" : "Feature",
    "properties" : {
      "TIPO_EVENTO" : "1",
      "DEPARTAMENTO" : "META",
      "TIPO_AREA" : "Rural",
      "AÑO" : "2008",
      "MUNICIPIO" : "URIBE"
    },
    "geometry" : {
      "type" : "Point",
      "coordinates" : [ -74.44, 2.739722222 ]
    }
  }, {
    "type" : "Feature",
    "properties" : {
      "TIPO_EVENTO" : "1",
      "DEPARTAMENTO" : "ANTIOQUIA",
      "TIPO_AREA" : "Rural",
      "AÑO" : "2008",
      "MUNICIPIO" : "ITUANGO"
    },
    "geometry" : {
      "type" : "Point",
      "coordinates" : [ -75.663, 7.227 ]
    }
  }, {
    "type" : "Feature",
    "properties" : {
      "TIPO_EVENTO" : "1",
      "DEPARTAMENTO" : "CAQUETA",
      "TIPO_AREA" : "Rural",
      "AÑO" : "2008",
      "MUNICIPIO" : "PUERTO RICO"
    },
    "geometry" : {
      "type" : "Point",
      "coordinates" : [ -75.13305556, 2.351388889 ]
    }
  }, {
    "type" : "Feature",
    "properties" : {
      "TIPO_EVENTO" : "1",
      "DEPARTAMENTO" : "ANTIOQUIA",
      "TIPO_AREA" : "Rural",
      "AÑO" : "2008",
      "MUNICIPIO" : "DABEIBA"
    },
    "geometry" : {
      "type" : "Point",
      "coordinates" : [ -76.002778, 7.086111 ]
    }
  }, {
    "type" : "Feature",
    "properties" : {
      "TIPO_EVENTO" : "1",
      "DEPARTAMENTO" : "ARAUCA",
      "TIPO_AREA" : "Rural",
      "AÑO" : "2008",
      "MUNICIPIO" : "ARAUQUITA"
    },
    "geometry" : {
      "type" : "Point",
      "coordinates" : [ -71.11833333, 6.690555556 ]
    }
  }, {
    "type" : "Feature",
    "properties" : {
      "TIPO_EVENTO" : "1",
      "DEPARTAMENTO" : "META",
      "TIPO_AREA" : "Rural",
      "AÑO" : "2008",
      "MUNICIPIO" : "URIBE"
    },
    "geometry" : {
      "type" : "Point",
      "coordinates" : [ -74.354381, 3.240915 ]
    }
  }, {
    "type" : "Feature",
    "properties" : {
      "TIPO_EVENTO" : "1",
      "DEPARTAMENTO" : "META",
      "TIPO_AREA" : "Rural",
      "AÑO" : "2008",
      "MUNICIPIO" : "LA MACARENA"
    },
    "geometry" : {
      "type" : "Point",
      "coordinates" : [ -73.784832, 2.182506 ]
    }
  }, {
    "type" : "Feature",
    "properties" : {
      "TIPO_EVENTO" : "1",
      "DEPARTAMENTO" : "HUILA",
      "TIPO_AREA" : "Rural",
      "AÑO" : "2008",
      "MUNICIPIO" : "COLOMBIA"
    },
    "geometry" : {
      "type" : "Point",
      "coordinates" : [ -74.6275, 3.289722 ]
    }
  }, {
    "type" : "Feature",
    "properties" : {
      "TIPO_EVENTO" : "1",
      "DEPARTAMENTO" : "CAQUETA",
      "TIPO_AREA" : "Rural",
      "AÑO" : "2008",
      "MUNICIPIO" : "MONTAÑITA"
    },
    "geometry" : {
      "type" : "Point",
      "coordinates" : [ -75.113056, 1.2075 ]
    }
  }, {
    "type" : "Feature",
    "properties" : {
      "TIPO_EVENTO" : "1",
      "DEPARTAMENTO" : "NORTE DE SANTANDER",
      "TIPO_AREA" : "Rural",
      "AÑO" : "2008",
      "MUNICIPIO" : "SAN CALIXTO"
    },
    "geometry" : {
      "type" : "Point",
      "coordinates" : [ -73.107778, 8.491667 ]
    }
  }, {
    "type" : "Feature",
    "properties" : {
      "TIPO_EVENTO" : "1",
      "DEPARTAMENTO" : "HUILA",
      "TIPO_AREA" : "Rural",
      "AÑO" : "2008",
      "MUNICIPIO" : "COLOMBIA"
    },
    "geometry" : {
      "type" : "Point",
      "coordinates" : [ -74.57, 3.737 ]
    }
  }, {
    "type" : "Feature",
    "properties" : {
      "TIPO_EVENTO" : "1",
      "DEPARTAMENTO" : "META",
      "TIPO_AREA" : "Rural",
      "AÑO" : "2008",
      "MUNICIPIO" : "URIBE"
    },
    "geometry" : {
      "type" : "Point",
      "coordinates" : [ -74.772222, 3.031667 ]
    }
  }, {
    "type" : "Feature",
    "properties" : {
      "TIPO_EVENTO" : "1",
      "DEPARTAMENTO" : "BOLIVAR",
      "TIPO_AREA" : "Rural",
      "AÑO" : "2008",
      "MUNICIPIO" : "SIMITÍ"
    },
    "geometry" : {
      "type" : "Point",
      "coordinates" : [ -74.121667, 7.719167 ]
    }
  }, {
    "type" : "Feature",
    "properties" : {
      "TIPO_EVENTO" : "1",
      "DEPARTAMENTO" : "CAUCA",
      "TIPO_AREA" : "Rural",
      "AÑO" : "2008",
      "MUNICIPIO" : "PÁEZ"
    },
    "geometry" : {
      "type" : "Point",
      "coordinates" : [ -75.9730437, 2.664087619 ]
    }
  }, {
    "type" : "Feature",
    "properties" : {
      "TIPO_EVENTO" : "1",
      "DEPARTAMENTO" : "BOLIVAR",
      "TIPO_AREA" : "Rural",
      "AÑO" : "2008",
      "MUNICIPIO" : "MORALES"
    },
    "geometry" : {
      "type" : "Point",
      "coordinates" : [ -74.035278, 8.300278 ]
    }
  }, {
    "type" : "Feature",
    "properties" : {
      "TIPO_EVENTO" : "1",
      "DEPARTAMENTO" : "HUILA",
      "TIPO_AREA" : "Rural",
      "AÑO" : "2008",
      "MUNICIPIO" : "ALGECIRAS"
    },
    "geometry" : {
      "type" : "Point",
      "coordinates" : [ -75.137222, 2.589722 ]
    }
  }, {
    "type" : "Feature",
    "properties" : {
      "TIPO_EVENTO" : "1",
      "DEPARTAMENTO" : "TOLIMA",
      "TIPO_AREA" : "Rural",
      "AÑO" : "2008",
      "MUNICIPIO" : "PLANADAS"
    },
    "geometry" : {
      "type" : "Point",
      "coordinates" : [ -75.83027778, 3.231666667 ]
    }
  }, {
    "type" : "Feature",
    "properties" : {
      "TIPO_EVENTO" : "1",
      "DEPARTAMENTO" : "CORDOBA",
      "TIPO_AREA" : "Rural",
      "AÑO" : "2008",
      "MUNICIPIO" : "TIERRALTA"
    },
    "geometry" : {
      "type" : "Point",
      "coordinates" : [ -76.32611111, 7.862777778 ]
    }
  }, {
    "type" : "Feature",
    "properties" : {
      "TIPO_EVENTO" : "1",
      "DEPARTAMENTO" : "META",
      "TIPO_AREA" : "Rural",
      "AÑO" : "2008",
      "MUNICIPIO" : "URIBE"
    },
    "geometry" : {
      "type" : "Point",
      "coordinates" : [ -74.51138889, 2.564722222 ]
    }
  }, {
    "type" : "Feature",
    "properties" : {
      "TIPO_EVENTO" : "1",
      "DEPARTAMENTO" : "CHOCO",
      "TIPO_AREA" : "Rural",
      "AÑO" : "2008",
      "MUNICIPIO" : "JURADÓ"
    },
    "geometry" : {
      "type" : "Point",
      "coordinates" : [ -77.764098, 7.105282 ]
    }
  }, {
    "type" : "Feature",
    "properties" : {
      "TIPO_EVENTO" : "1",
      "DEPARTAMENTO" : "NARIÑO",
      "TIPO_AREA" : "Rural",
      "AÑO" : "2008",
      "MUNICIPIO" : "BARBACOAS"
    },
    "geometry" : {
      "type" : "Point",
      "coordinates" : [ -78.138537, 1.672216 ]
    }
  }, {
    "type" : "Feature",
    "properties" : {
      "TIPO_EVENTO" : "1",
      "DEPARTAMENTO" : "ANTIOQUIA",
      "TIPO_AREA" : "Rural",
      "AÑO" : "2008",
      "MUNICIPIO" : "SAN LUIS"
    },
    "geometry" : {
      "type" : "Point",
      "coordinates" : [ -75.06666667, 6.066666667 ]
    }
  }, {
    "type" : "Feature",
    "properties" : {
      "TIPO_EVENTO" : "1",
      "DEPARTAMENTO" : "NARIÑO",
      "TIPO_AREA" : "Rural",
      "AÑO" : "2008",
      "MUNICIPIO" : "LA LLANADA"
    },
    "geometry" : {
      "type" : "Point",
      "coordinates" : [ -77.580358, 1.472995 ]
    }
  }, {
    "type" : "Feature",
    "properties" : {
      "TIPO_EVENTO" : "1",
      "DEPARTAMENTO" : "CORDOBA",
      "TIPO_AREA" : "Rural",
      "AÑO" : "2008",
      "MUNICIPIO" : "PUERTO LIBERTADOR"
    },
    "geometry" : {
      "type" : "Point",
      "coordinates" : [ -75.670508, 7.883545 ]
    }
  }, {
    "type" : "Feature",
    "properties" : {
      "TIPO_EVENTO" : "1",
      "DEPARTAMENTO" : "META",
      "TIPO_AREA" : "Rural",
      "AÑO" : "2008",
      "MUNICIPIO" : "VISTAHERMOSA"
    },
    "geometry" : {
      "type" : "Point",
      "coordinates" : [ -73.768056, 2.629167 ]
    }
  }, {
    "type" : "Feature",
    "properties" : {
      "TIPO_EVENTO" : "1",
      "DEPARTAMENTO" : "HUILA",
      "TIPO_AREA" : "Rural",
      "AÑO" : "2008",
      "MUNICIPIO" : "BARAYA"
    },
    "geometry" : {
      "type" : "Point",
      "coordinates" : [ -75.052789, 3.153331 ]
    }
  }, {
    "type" : "Feature",
    "properties" : {
      "TIPO_EVENTO" : "1",
      "DEPARTAMENTO" : "CAQUETA",
      "TIPO_AREA" : "Rural",
      "AÑO" : "2008",
      "MUNICIPIO" : "MONTAÑITA"
    },
    "geometry" : {
      "type" : "Point",
      "coordinates" : [ -75.46308951, 1.494944213 ]
    }
  }, {
    "type" : "Feature",
    "properties" : {
      "TIPO_EVENTO" : "1",
      "DEPARTAMENTO" : "NORTE DE SANTANDER",
      "TIPO_AREA" : "Rural",
      "AÑO" : "2008",
      "MUNICIPIO" : "EL CARMEN"
    },
    "geometry" : {
      "type" : "Point",
      "coordinates" : [ -73.41055556, 8.761111111 ]
    }
  }, {
    "type" : "Feature",
    "properties" : {
      "TIPO_EVENTO" : "1",
      "DEPARTAMENTO" : "ANTIOQUIA",
      "TIPO_AREA" : "Rural",
      "AÑO" : "2008",
      "MUNICIPIO" : "AMALFI"
    },
    "geometry" : {
      "type" : "Point",
      "coordinates" : [ -74.92777778, 7.160277778 ]
    }
  }, {
    "type" : "Feature",
    "properties" : {
      "TIPO_EVENTO" : "1",
      "DEPARTAMENTO" : "NARIÑO",
      "TIPO_AREA" : "Rural",
      "AÑO" : "2008",
      "MUNICIPIO" : "SANTA CRUZ"
    },
    "geometry" : {
      "type" : "Point",
      "coordinates" : [ -77.59313, 1.337083 ]
    }
  }, {
    "type" : "Feature",
    "properties" : {
      "TIPO_EVENTO" : "1",
      "DEPARTAMENTO" : "NORTE DE SANTANDER",
      "TIPO_AREA" : "Rural",
      "AÑO" : "2008",
      "MUNICIPIO" : "TIBÚ"
    },
    "geometry" : {
      "type" : "Point",
      "coordinates" : [ -72.735541, 8.639326 ]
    }
  }, {
    "type" : "Feature",
    "properties" : {
      "TIPO_EVENTO" : "1",
      "DEPARTAMENTO" : "PUTUMAYO",
      "TIPO_AREA" : "Rural",
      "AÑO" : "2008",
      "MUNICIPIO" : "PUERTO LEGUÍZAMO"
    },
    "geometry" : {
      "type" : "Point",
      "coordinates" : [ -76.00861111, 0.3061111 ]
    }
  }, {
    "type" : "Feature",
    "properties" : {
      "TIPO_EVENTO" : "1",
      "DEPARTAMENTO" : "CAUCA",
      "TIPO_AREA" : "Rural",
      "AÑO" : "2008",
      "MUNICIPIO" : "MIRANDA"
    },
    "geometry" : {
      "type" : "Point",
      "coordinates" : [ -76.20527778, 3.211111111 ]
    }
  }, {
    "type" : "Feature",
    "properties" : {
      "TIPO_EVENTO" : "1",
      "DEPARTAMENTO" : "CORDOBA",
      "TIPO_AREA" : "Rural",
      "AÑO" : "2008",
      "MUNICIPIO" : "TIERRALTA"
    },
    "geometry" : {
      "type" : "Point",
      "coordinates" : [ -76.46944444, 7.618055556 ]
    }
  }, {
    "type" : "Feature",
    "properties" : {
      "TIPO_EVENTO" : "1",
      "DEPARTAMENTO" : "CAQUETA",
      "TIPO_AREA" : "Rural",
      "AÑO" : "2008",
      "MUNICIPIO" : "SAN VICENTE DEL CAGUÁN"
    },
    "geometry" : {
      "type" : "Point",
      "coordinates" : [ -74.63583333, 2.698611111 ]
    }
  }, {
    "type" : "Feature",
    "properties" : {
      "TIPO_EVENTO" : "1",
      "DEPARTAMENTO" : "ANTIOQUIA",
      "TIPO_AREA" : "Rural",
      "AÑO" : "2008",
      "MUNICIPIO" : "ANORÍ"
    },
    "geometry" : {
      "type" : "Point",
      "coordinates" : [ -75.147222, 7.073333 ]
    }
  }, {
    "type" : "Feature",
    "properties" : {
      "TIPO_EVENTO" : "1",
      "DEPARTAMENTO" : "META",
      "TIPO_AREA" : "Rural",
      "AÑO" : "2008",
      "MUNICIPIO" : "PUERTO RICO"
    },
    "geometry" : {
      "type" : "Point",
      "coordinates" : [ -73.288611, 2.720556 ]
    }
  }, {
    "type" : "Feature",
    "properties" : {
      "TIPO_EVENTO" : "1",
      "DEPARTAMENTO" : "ANTIOQUIA",
      "TIPO_AREA" : "Rural",
      "AÑO" : "2008",
      "MUNICIPIO" : "ANORÍ"
    },
    "geometry" : {
      "type" : "Point",
      "coordinates" : [ -75.05833333, 7.222222222 ]
    }
  }, {
    "type" : "Feature",
    "properties" : {
      "TIPO_EVENTO" : "1",
      "DEPARTAMENTO" : "CUNDINAMARCA",
      "TIPO_AREA" : "Rural",
      "AÑO" : "2008",
      "MUNICIPIO" : "CABRERA"
    },
    "geometry" : {
      "type" : "Point",
      "coordinates" : [ -74.48695028, 3.990290556 ]
    }
  }, {
    "type" : "Feature",
    "properties" : {
      "TIPO_EVENTO" : "1",
      "DEPARTAMENTO" : "ANTIOQUIA",
      "TIPO_AREA" : "Rural",
      "AÑO" : "2008",
      "MUNICIPIO" : "DABEIBA"
    },
    "geometry" : {
      "type" : "Point",
      "coordinates" : [ -76.00388889, 7.146666667 ]
    }
  }, {
    "type" : "Feature",
    "properties" : {
      "TIPO_EVENTO" : "1",
      "DEPARTAMENTO" : "ANTIOQUIA",
      "TIPO_AREA" : "Rural",
      "AÑO" : "2008",
      "MUNICIPIO" : "TARAZÁ"
    },
    "geometry" : {
      "type" : "Point",
      "coordinates" : [ -75.22555556, 7.324722222 ]
    }
  }, {
    "type" : "Feature",
    "properties" : {
      "TIPO_EVENTO" : "1",
      "DEPARTAMENTO" : "CAQUETA",
      "TIPO_AREA" : "Rural",
      "AÑO" : "2008",
      "MUNICIPIO" : "SAN VICENTE DEL CAGUÁN"
    },
    "geometry" : {
      "type" : "Point",
      "coordinates" : [ -74.89361111, 2.680277778 ]
    }
  }, {
    "type" : "Feature",
    "properties" : {
      "TIPO_EVENTO" : "1",
      "DEPARTAMENTO" : "ANTIOQUIA",
      "TIPO_AREA" : "Rural",
      "AÑO" : "2008",
      "MUNICIPIO" : "AMALFI"
    },
    "geometry" : {
      "type" : "Point",
      "coordinates" : [ -74.94305556, 7.143611111 ]
    }
  }, {
    "type" : "Feature",
    "properties" : {
      "TIPO_EVENTO" : "1",
      "DEPARTAMENTO" : "META",
      "TIPO_AREA" : "Rural",
      "AÑO" : "2008",
      "MUNICIPIO" : "CUBARRAL"
    },
    "geometry" : {
      "type" : "Point",
      "coordinates" : [ -73.98527778, 3.823888889 ]
    }
  }, {
    "type" : "Feature",
    "properties" : {
      "TIPO_EVENTO" : "1",
      "DEPARTAMENTO" : "CAQUETA",
      "TIPO_AREA" : "Rural",
      "AÑO" : "2008",
      "MUNICIPIO" : "PUERTO RICO"
    },
    "geometry" : {
      "type" : "Point",
      "coordinates" : [ -75.14305556, 2.352777778 ]
    }
  }, {
    "type" : "Feature",
    "properties" : {
      "TIPO_EVENTO" : "1",
      "DEPARTAMENTO" : "META",
      "TIPO_AREA" : "Rural",
      "AÑO" : "2008",
      "MUNICIPIO" : "PUERTO RICO"
    },
    "geometry" : {
      "type" : "Point",
      "coordinates" : [ -73.207891, 2.939542 ]
    }
  }, {
    "type" : "Feature",
    "properties" : {
      "TIPO_EVENTO" : "1",
      "DEPARTAMENTO" : "META",
      "TIPO_AREA" : "Rural",
      "AÑO" : "2008",
      "MUNICIPIO" : "URIBE"
    },
    "geometry" : {
      "type" : "Point",
      "coordinates" : [ -74.354381, 3.240915 ]
    }
  }, {
    "type" : "Feature",
    "properties" : {
      "TIPO_EVENTO" : "1",
      "DEPARTAMENTO" : "ANTIOQUIA",
      "TIPO_AREA" : "Rural",
      "AÑO" : "2008",
      "MUNICIPIO" : "TARAZÁ"
    },
    "geometry" : {
      "type" : "Point",
      "coordinates" : [ -75.27416667, 7.313055556 ]
    }
  }, {
    "type" : "Feature",
    "properties" : {
      "TIPO_EVENTO" : "1",
      "DEPARTAMENTO" : "NORTE DE SANTANDER",
      "TIPO_AREA" : "Rural",
      "AÑO" : "2008",
      "MUNICIPIO" : "TEORAMA"
    },
    "geometry" : {
      "type" : "Point",
      "coordinates" : [ -73.287706, 8.437183 ]
    }
  }, {
    "type" : "Feature",
    "properties" : {
      "TIPO_EVENTO" : "1",
      "DEPARTAMENTO" : "META",
      "TIPO_AREA" : "Rural",
      "AÑO" : "2008",
      "MUNICIPIO" : "URIBE"
    },
    "geometry" : {
      "type" : "Point",
      "coordinates" : [ -74.354381, 3.240915 ]
    }
  }, {
    "type" : "Feature",
    "properties" : {
      "TIPO_EVENTO" : "1",
      "DEPARTAMENTO" : "META",
      "TIPO_AREA" : "Rural",
      "AÑO" : "2008",
      "MUNICIPIO" : "URIBE"
    },
    "geometry" : {
      "type" : "Point",
      "coordinates" : [ -74.354381, 3.240915 ]
    }
  }, {
    "type" : "Feature",
    "properties" : {
      "TIPO_EVENTO" : "1",
      "DEPARTAMENTO" : "META",
      "TIPO_AREA" : "Rural",
      "AÑO" : "2008",
      "MUNICIPIO" : "LA MACARENA"
    },
    "geometry" : {
      "type" : "Point",
      "coordinates" : [ -73.748889, 2.558056 ]
    }
  }, {
    "type" : "Feature",
    "properties" : {
      "TIPO_EVENTO" : "1",
      "DEPARTAMENTO" : "CAQUETA",
      "TIPO_AREA" : "Rural",
      "AÑO" : "2008",
      "MUNICIPIO" : "MONTAÑITA"
    },
    "geometry" : {
      "type" : "Point",
      "coordinates" : [ -75.044167, 1.107222 ]
    }
  }, {
    "type" : "Feature",
    "properties" : {
      "TIPO_EVENTO" : "1",
      "DEPARTAMENTO" : "META",
      "TIPO_AREA" : "Rural",
      "AÑO" : "2008",
      "MUNICIPIO" : "URIBE"
    },
    "geometry" : {
      "type" : "Point",
      "coordinates" : [ -74.743333, 3.064444 ]
    }
  }, {
    "type" : "Feature",
    "properties" : {
      "TIPO_EVENTO" : "1",
      "DEPARTAMENTO" : "META",
      "TIPO_AREA" : "Rural",
      "AÑO" : "2008",
      "MUNICIPIO" : "URIBE"
    },
    "geometry" : {
      "type" : "Point",
      "coordinates" : [ -74.610278, 3.121389 ]
    }
  }, {
    "type" : "Feature",
    "properties" : {
      "TIPO_EVENTO" : "1",
      "DEPARTAMENTO" : "META",
      "TIPO_AREA" : "Rural",
      "AÑO" : "2008",
      "MUNICIPIO" : "MESETAS"
    },
    "geometry" : {
      "type" : "Point",
      "coordinates" : [ -74.151944, 3.057778 ]
    }
  }, {
    "type" : "Feature",
    "properties" : {
      "TIPO_EVENTO" : "1",
      "DEPARTAMENTO" : "HUILA",
      "TIPO_AREA" : "Rural",
      "AÑO" : "2008",
      "MUNICIPIO" : "COLOMBIA"
    },
    "geometry" : {
      "type" : "Point",
      "coordinates" : [ -74.673, 3.32 ]
    }
  }, {
    "type" : "Feature",
    "properties" : {
      "TIPO_EVENTO" : "1",
      "DEPARTAMENTO" : "META",
      "TIPO_AREA" : "Rural",
      "AÑO" : "2008",
      "MUNICIPIO" : "LA MACARENA"
    },
    "geometry" : {
      "type" : "Point",
      "coordinates" : [ -73.744, 2.57 ]
    }
  }, {
    "type" : "Feature",
    "properties" : {
      "TIPO_EVENTO" : "1",
      "DEPARTAMENTO" : "ANTIOQUIA",
      "TIPO_AREA" : "Rural",
      "AÑO" : "2008",
      "MUNICIPIO" : "ITUANGO"
    },
    "geometry" : {
      "type" : "Point",
      "coordinates" : [ -75.674444, 7.407778 ]
    }
  }, {
    "type" : "Feature",
    "properties" : {
      "TIPO_EVENTO" : "1",
      "DEPARTAMENTO" : "NORTE DE SANTANDER",
      "TIPO_AREA" : "Rural",
      "AÑO" : "2008",
      "MUNICIPIO" : "TEORAMA"
    },
    "geometry" : {
      "type" : "Point",
      "coordinates" : [ -73.217222, 8.654167 ]
    }
  }, {
    "type" : "Feature",
    "properties" : {
      "TIPO_EVENTO" : "1",
      "DEPARTAMENTO" : "ANTIOQUIA",
      "TIPO_AREA" : "Rural",
      "AÑO" : "2008",
      "MUNICIPIO" : "ITUANGO"
    },
    "geometry" : {
      "type" : "Point",
      "coordinates" : [ -75.853611, 7.351944 ]
    }
  }, {
    "type" : "Feature",
    "properties" : {
      "TIPO_EVENTO" : "1",
      "DEPARTAMENTO" : "ANTIOQUIA",
      "TIPO_AREA" : "Rural",
      "AÑO" : "2008",
      "MUNICIPIO" : "ANORÍ"
    },
    "geometry" : {
      "type" : "Point",
      "coordinates" : [ -75.223056, 7.041389 ]
    }
  }, {
    "type" : "Feature",
    "properties" : {
      "TIPO_EVENTO" : "1",
      "DEPARTAMENTO" : "ARAUCA",
      "TIPO_AREA" : "Rural",
      "AÑO" : "2008",
      "MUNICIPIO" : "TAME"
    },
    "geometry" : {
      "type" : "Point",
      "coordinates" : [ -71.923056, 6.455556 ]
    }
  }, {
    "type" : "Feature",
    "properties" : {
      "TIPO_EVENTO" : "1",
      "DEPARTAMENTO" : "ANTIOQUIA",
      "TIPO_AREA" : "Rural",
      "AÑO" : "2008",
      "MUNICIPIO" : "ITUANGO"
    },
    "geometry" : {
      "type" : "Point",
      "coordinates" : [ -75.764403, 7.171637 ]
    }
  }, {
    "type" : "Feature",
    "properties" : {
      "TIPO_EVENTO" : "1",
      "DEPARTAMENTO" : "CORDOBA",
      "TIPO_AREA" : "Rural",
      "AÑO" : "2008",
      "MUNICIPIO" : "TIERRALTA"
    },
    "geometry" : {
      "type" : "Point",
      "coordinates" : [ -76.320833, 7.751111 ]
    }
  }, {
    "type" : "Feature",
    "properties" : {
      "TIPO_EVENTO" : "1",
      "DEPARTAMENTO" : "CORDOBA",
      "TIPO_AREA" : "Rural",
      "AÑO" : "2008",
      "MUNICIPIO" : "TIERRALTA"
    },
    "geometry" : {
      "type" : "Point",
      "coordinates" : [ -76.320833, 7.751111 ]
    }
  }, {
    "type" : "Feature",
    "properties" : {
      "TIPO_EVENTO" : "1",
      "DEPARTAMENTO" : "VALLE DEL CAUCA",
      "TIPO_AREA" : "Rural",
      "AÑO" : "2008",
      "MUNICIPIO" : "PALMIRA"
    },
    "geometry" : {
      "type" : "Point",
      "coordinates" : [ -76.352141, 3.493822 ]
    }
  }, {
    "type" : "Feature",
    "properties" : {
      "TIPO_EVENTO" : "1",
      "DEPARTAMENTO" : "ANTIOQUIA",
      "TIPO_AREA" : "Rural",
      "AÑO" : "2008",
      "MUNICIPIO" : "ARGELIA"
    },
    "geometry" : {
      "type" : "Point",
      "coordinates" : [ -75.201944, 5.7025 ]
    }
  }, {
    "type" : "Feature",
    "properties" : {
      "TIPO_EVENTO" : "1",
      "DEPARTAMENTO" : "CALDAS",
      "TIPO_AREA" : "Rural",
      "AÑO" : "2008",
      "MUNICIPIO" : "SAMANÁ"
    },
    "geometry" : {
      "type" : "Point",
      "coordinates" : [ -75.041389, 5.657778 ]
    }
  }, {
    "type" : "Feature",
    "properties" : {
      "TIPO_EVENTO" : "1",
      "DEPARTAMENTO" : "NORTE DE SANTANDER",
      "TIPO_AREA" : "Rural",
      "AÑO" : "2008",
      "MUNICIPIO" : "TIBÚ"
    },
    "geometry" : {
      "type" : "Point",
      "coordinates" : [ -72.853056, 8.686111 ]
    }
  }, {
    "type" : "Feature",
    "properties" : {
      "TIPO_EVENTO" : "1",
      "DEPARTAMENTO" : "ARAUCA",
      "TIPO_AREA" : "Rural",
      "AÑO" : "2008",
      "MUNICIPIO" : "FORTUL"
    },
    "geometry" : {
      "type" : "Point",
      "coordinates" : [ -71.967778, 6.657222 ]
    }
  }, {
    "type" : "Feature",
    "properties" : {
      "TIPO_EVENTO" : "1",
      "DEPARTAMENTO" : "ANTIOQUIA",
      "TIPO_AREA" : "Rural",
      "AÑO" : "2008",
      "MUNICIPIO" : "ITUANGO"
    },
    "geometry" : {
      "type" : "Point",
      "coordinates" : [ -75.717778, 7.400556 ]
    }
  }, {
    "type" : "Feature",
    "properties" : {
      "TIPO_EVENTO" : "1",
      "DEPARTAMENTO" : "ARAUCA",
      "TIPO_AREA" : "Rural",
      "AÑO" : "2008",
      "MUNICIPIO" : "TAME"
    },
    "geometry" : {
      "type" : "Point",
      "coordinates" : [ -71.401944, 6.520556 ]
    }
  }, {
    "type" : "Feature",
    "properties" : {
      "TIPO_EVENTO" : "1",
      "DEPARTAMENTO" : "CAQUETA",
      "TIPO_AREA" : "Rural",
      "AÑO" : "2008",
      "MUNICIPIO" : "SAN VICENTE DEL CAGUÁN"
    },
    "geometry" : {
      "type" : "Point",
      "coordinates" : [ -74.768227, 2.120008 ]
    }
  }, {
    "type" : "Feature",
    "properties" : {
      "TIPO_EVENTO" : "1",
      "DEPARTAMENTO" : "VALLE DEL CAUCA",
      "TIPO_AREA" : "Rural",
      "AÑO" : "2008",
      "MUNICIPIO" : "BUGA"
    },
    "geometry" : {
      "type" : "Point",
      "coordinates" : [ -75.971389, 3.855556 ]
    }
  }, {
    "type" : "Feature",
    "properties" : {
      "TIPO_EVENTO" : "1",
      "DEPARTAMENTO" : "ANTIOQUIA",
      "TIPO_AREA" : "Rural",
      "AÑO" : "2008",
      "MUNICIPIO" : "ARGELIA"
    },
    "geometry" : {
      "type" : "Point",
      "coordinates" : [ -75.056111, 5.674444 ]
    }
  }, {
    "type" : "Feature",
    "properties" : {
      "TIPO_EVENTO" : "1",
      "DEPARTAMENTO" : "CAQUETA",
      "TIPO_AREA" : "Rural",
      "AÑO" : "2008",
      "MUNICIPIO" : "PUERTO RICO"
    },
    "geometry" : {
      "type" : "Point",
      "coordinates" : [ -75.159112, 1.909652 ]
    }
  }, {
    "type" : "Feature",
    "properties" : {
      "TIPO_EVENTO" : "1",
      "DEPARTAMENTO" : "ANTIOQUIA",
      "TIPO_AREA" : "Rural",
      "AÑO" : "2008",
      "MUNICIPIO" : "SAN FRANCISCO"
    },
    "geometry" : {
      "type" : "Point",
      "coordinates" : [ -75.004167, 5.902778 ]
    }
  }, {
    "type" : "Feature",
    "properties" : {
      "TIPO_EVENTO" : "1",
      "DEPARTAMENTO" : "META",
      "TIPO_AREA" : "Rural",
      "AÑO" : "2008",
      "MUNICIPIO" : "LA MACARENA"
    },
    "geometry" : {
      "type" : "Point",
      "coordinates" : [ -74.248611, 2.373611 ]
    }
  }, {
    "type" : "Feature",
    "properties" : {
      "TIPO_EVENTO" : "1",
      "DEPARTAMENTO" : "TOLIMA",
      "TIPO_AREA" : "Rural",
      "AÑO" : "2008",
      "MUNICIPIO" : "RIOBLANCO"
    },
    "geometry" : {
      "type" : "Point",
      "coordinates" : [ -75.8175, 3.441667 ]
    }
  }, {
    "type" : "Feature",
    "properties" : {
      "TIPO_EVENTO" : "1",
      "DEPARTAMENTO" : "ANTIOQUIA",
      "TIPO_AREA" : "Rural",
      "AÑO" : "2008",
      "MUNICIPIO" : "ITUANGO"
    },
    "geometry" : {
      "type" : "Point",
      "coordinates" : [ -75.77025458, 7.174542454 ]
    }
  }, {
    "type" : "Feature",
    "properties" : {
      "TIPO_EVENTO" : "1",
      "DEPARTAMENTO" : "ANTIOQUIA",
      "TIPO_AREA" : "Rural",
      "AÑO" : "2008",
      "MUNICIPIO" : "NARIÑO"
    },
    "geometry" : {
      "type" : "Point",
      "coordinates" : [ -75.272778, 5.633333 ]
    }
  }, {
    "type" : "Feature",
    "properties" : {
      "TIPO_EVENTO" : "1",
      "DEPARTAMENTO" : "ANTIOQUIA",
      "TIPO_AREA" : "Rural",
      "AÑO" : "2008",
      "MUNICIPIO" : "SAN ANDRÉS"
    },
    "geometry" : {
      "type" : "Point",
      "coordinates" : [ -75.620556, 6.987222 ]
    }
  }, {
    "type" : "Feature",
    "properties" : {
      "TIPO_EVENTO" : "1",
      "DEPARTAMENTO" : "META",
      "TIPO_AREA" : "Rural",
      "AÑO" : "2008",
      "MUNICIPIO" : "URIBE"
    },
    "geometry" : {
      "type" : "Point",
      "coordinates" : [ -74.445, 3.234 ]
    }
  }, {
    "type" : "Feature",
    "properties" : {
      "TIPO_EVENTO" : "1",
      "DEPARTAMENTO" : "META",
      "TIPO_AREA" : "Rural",
      "AÑO" : "2008",
      "MUNICIPIO" : "VISTAHERMOSA"
    },
    "geometry" : {
      "type" : "Point",
      "coordinates" : [ -73.618333, 2.820278 ]
    }
  }, {
    "type" : "Feature",
    "properties" : {
      "TIPO_EVENTO" : "1",
      "DEPARTAMENTO" : "CORDOBA",
      "TIPO_AREA" : "Rural",
      "AÑO" : "2008",
      "MUNICIPIO" : "PUERTO LIBERTADOR"
    },
    "geometry" : {
      "type" : "Point",
      "coordinates" : [ -75.670508, 7.883545 ]
    }
  }, {
    "type" : "Feature",
    "properties" : {
      "TIPO_EVENTO" : "1",
      "DEPARTAMENTO" : "NARIÑO",
      "TIPO_AREA" : "Rural",
      "AÑO" : "2008",
      "MUNICIPIO" : "SANTA CRUZ"
    },
    "geometry" : {
      "type" : "Point",
      "coordinates" : [ -77.677265, 1.22182 ]
    }
  }, {
    "type" : "Feature",
    "properties" : {
      "TIPO_EVENTO" : "1",
      "DEPARTAMENTO" : "CORDOBA",
      "TIPO_AREA" : "Rural",
      "AÑO" : "2008",
      "MUNICIPIO" : "TIERRALTA"
    },
    "geometry" : {
      "type" : "Point",
      "coordinates" : [ -76.052223, 8.181547 ]
    }
  }, {
    "type" : "Feature",
    "properties" : {
      "TIPO_EVENTO" : "1",
      "DEPARTAMENTO" : "VALLE DEL CAUCA",
      "TIPO_AREA" : "Rural",
      "AÑO" : "2008",
      "MUNICIPIO" : "PRADERA"
    },
    "geometry" : {
      "type" : "Point",
      "coordinates" : [ -76.255928, 3.372723 ]
    }
  }, {
    "type" : "Feature",
    "properties" : {
      "TIPO_EVENTO" : "1",
      "DEPARTAMENTO" : "META",
      "TIPO_AREA" : "Rural",
      "AÑO" : "2008",
      "MUNICIPIO" : "MESETAS"
    },
    "geometry" : {
      "type" : "Point",
      "coordinates" : [ -74.241111, 3.404167 ]
    }
  }, {
    "type" : "Feature",
    "properties" : {
      "TIPO_EVENTO" : "1",
      "DEPARTAMENTO" : "META",
      "TIPO_AREA" : "Rural",
      "AÑO" : "2008",
      "MUNICIPIO" : "MESETAS"
    },
    "geometry" : {
      "type" : "Point",
      "coordinates" : [ -74.240833, 3.403333 ]
    }
  }, {
    "type" : "Feature",
    "properties" : {
      "TIPO_EVENTO" : "1",
      "DEPARTAMENTO" : "CAUCA",
      "TIPO_AREA" : "Rural",
      "AÑO" : "2008",
      "MUNICIPIO" : "TORIBÍO"
    },
    "geometry" : {
      "type" : "Point",
      "coordinates" : [ -76.268615, 2.955399 ]
    }
  }, {
    "type" : "Feature",
    "properties" : {
      "TIPO_EVENTO" : "1",
      "DEPARTAMENTO" : "CAQUETA",
      "TIPO_AREA" : "Rural",
      "AÑO" : "2008",
      "MUNICIPIO" : "PUERTO RICO"
    },
    "geometry" : {
      "type" : "Point",
      "coordinates" : [ -75.159112, 1.909652 ]
    }
  }, {
    "type" : "Feature",
    "properties" : {
      "TIPO_EVENTO" : "1",
      "DEPARTAMENTO" : "HUILA",
      "TIPO_AREA" : "Rural",
      "AÑO" : "2008",
      "MUNICIPIO" : "PALERMO"
    },
    "geometry" : {
      "type" : "Point",
      "coordinates" : [ -75.44086194, 2.892986944 ]
    }
  }, {
    "type" : "Feature",
    "properties" : {
      "TIPO_EVENTO" : "1",
      "DEPARTAMENTO" : "TOLIMA",
      "TIPO_AREA" : "Rural",
      "AÑO" : "2008",
      "MUNICIPIO" : "RONCESVALLES"
    },
    "geometry" : {
      "type" : "Point",
      "coordinates" : [ -75.674444, 3.958333 ]
    }
  }, {
    "type" : "Feature",
    "properties" : {
      "TIPO_EVENTO" : "1",
      "DEPARTAMENTO" : "NARIÑO",
      "TIPO_AREA" : "Rural",
      "AÑO" : "2008",
      "MUNICIPIO" : "SAMANIEGO"
    },
    "geometry" : {
      "type" : "Point",
      "coordinates" : [ -77.59313, 1.337083 ]
    }
  }, {
    "type" : "Feature",
    "properties" : {
      "TIPO_EVENTO" : "1",
      "DEPARTAMENTO" : "ANTIOQUIA",
      "TIPO_AREA" : "Rural",
      "AÑO" : "2008",
      "MUNICIPIO" : "ANORÍ"
    },
    "geometry" : {
      "type" : "Point",
      "coordinates" : [ -75.14978773, 7.074463559 ]
    }
  }, {
    "type" : "Feature",
    "properties" : {
      "TIPO_EVENTO" : "1",
      "DEPARTAMENTO" : "META",
      "TIPO_AREA" : "Rural",
      "AÑO" : "2008",
      "MUNICIPIO" : "PUERTO RICO"
    },
    "geometry" : {
      "type" : "Point",
      "coordinates" : [ -73.324167, 2.740833 ]
    }
  }, {
    "type" : "Feature",
    "properties" : {
      "TIPO_EVENTO" : "1",
      "DEPARTAMENTO" : "NARIÑO",
      "TIPO_AREA" : "Rural",
      "AÑO" : "2008",
      "MUNICIPIO" : "CUMBITARA"
    },
    "geometry" : {
      "type" : "Point",
      "coordinates" : [ -77.579056, 1.64746 ]
    }
  }, {
    "type" : "Feature",
    "properties" : {
      "TIPO_EVENTO" : "1",
      "DEPARTAMENTO" : "NORTE DE SANTANDER",
      "TIPO_AREA" : "Rural",
      "AÑO" : "2008",
      "MUNICIPIO" : "TIBÚ"
    },
    "geometry" : {
      "type" : "Point",
      "coordinates" : [ -72.819722, 9.018333 ]
    }
  }, {
    "type" : "Feature",
    "properties" : {
      "TIPO_EVENTO" : "1",
      "DEPARTAMENTO" : "ARAUCA",
      "TIPO_AREA" : "Rural",
      "AÑO" : "2008",
      "MUNICIPIO" : "TAME"
    },
    "geometry" : {
      "type" : "Point",
      "coordinates" : [ -71.989, 6.385 ]
    }
  }, {
    "type" : "Feature",
    "properties" : {
      "TIPO_EVENTO" : "1",
      "DEPARTAMENTO" : "ANTIOQUIA",
      "TIPO_AREA" : "Rural",
      "AÑO" : "2008",
      "MUNICIPIO" : "ITUANGO"
    },
    "geometry" : {
      "type" : "Point",
      "coordinates" : [ -75.764403, 7.171637 ]
    }
  }, {
    "type" : "Feature",
    "properties" : {
      "TIPO_EVENTO" : "1",
      "DEPARTAMENTO" : "NORTE DE SANTANDER",
      "TIPO_AREA" : "Rural",
      "AÑO" : "2008",
      "MUNICIPIO" : "EL TARRA"
    },
    "geometry" : {
      "type" : "Point",
      "coordinates" : [ -73.039167, 8.703611 ]
    }
  }, {
    "type" : "Feature",
    "properties" : {
      "TIPO_EVENTO" : "1",
      "DEPARTAMENTO" : "META",
      "TIPO_AREA" : "Rural",
      "AÑO" : "2008",
      "MUNICIPIO" : "MESETAS"
    },
    "geometry" : {
      "type" : "Point",
      "coordinates" : [ -74.240833, 3.412778 ]
    }
  }, {
    "type" : "Feature",
    "properties" : {
      "TIPO_EVENTO" : "1",
      "DEPARTAMENTO" : "CAQUETA",
      "TIPO_AREA" : "Rural",
      "AÑO" : "2008",
      "MUNICIPIO" : "MONTAÑITA"
    },
    "geometry" : {
      "type" : "Point",
      "coordinates" : [ -75.048611, 1.171111 ]
    }
  }, {
    "type" : "Feature",
    "properties" : {
      "TIPO_EVENTO" : "1",
      "DEPARTAMENTO" : "ARAUCA",
      "TIPO_AREA" : "Rural",
      "AÑO" : "2008",
      "MUNICIPIO" : "TAME"
    },
    "geometry" : {
      "type" : "Point",
      "coordinates" : [ -71.983889, 6.407222 ]
    }
  }, {
    "type" : "Feature",
    "properties" : {
      "TIPO_EVENTO" : "1",
      "DEPARTAMENTO" : "META",
      "TIPO_AREA" : "Rural",
      "AÑO" : "2008",
      "MUNICIPIO" : "VISTAHERMOSA"
    },
    "geometry" : {
      "type" : "Point",
      "coordinates" : [ -73.301667, 2.436111 ]
    }
  }, {
    "type" : "Feature",
    "properties" : {
      "TIPO_EVENTO" : "1",
      "DEPARTAMENTO" : "ARAUCA",
      "TIPO_AREA" : "Rural",
      "AÑO" : "2008",
      "MUNICIPIO" : "ARAUQUITA"
    },
    "geometry" : {
      "type" : "Point",
      "coordinates" : [ -71.153333, 6.724167 ]
    }
  }, {
    "type" : "Feature",
    "properties" : {
      "TIPO_EVENTO" : "1",
      "DEPARTAMENTO" : "CORDOBA",
      "TIPO_AREA" : "Rural",
      "AÑO" : "2008",
      "MUNICIPIO" : "TIERRALTA"
    },
    "geometry" : {
      "type" : "Point",
      "coordinates" : [ -76.218, 7.45 ]
    }
  }, {
    "type" : "Feature",
    "properties" : {
      "TIPO_EVENTO" : "1",
      "DEPARTAMENTO" : "NORTE DE SANTANDER",
      "TIPO_AREA" : "Rural",
      "AÑO" : "2008",
      "MUNICIPIO" : "EL TARRA"
    },
    "geometry" : {
      "type" : "Point",
      "coordinates" : [ -73.003056, 8.869444 ]
    }
  }, {
    "type" : "Feature",
    "properties" : {
      "TIPO_EVENTO" : "1",
      "DEPARTAMENTO" : "VALLE DEL CAUCA",
      "TIPO_AREA" : "Rural",
      "AÑO" : "2008",
      "MUNICIPIO" : "FLORIDA"
    },
    "geometry" : {
      "type" : "Point",
      "coordinates" : [ -76.1375, 3.269167 ]
    }
  }, {
    "type" : "Feature",
    "properties" : {
      "TIPO_EVENTO" : "1",
      "DEPARTAMENTO" : "META",
      "TIPO_AREA" : "Rural",
      "AÑO" : "2008",
      "MUNICIPIO" : "MESETAS"
    },
    "geometry" : {
      "type" : "Point",
      "coordinates" : [ -74.124444, 3.181111 ]
    }
  }, {
    "type" : "Feature",
    "properties" : {
      "TIPO_EVENTO" : "1",
      "DEPARTAMENTO" : "BOLIVAR",
      "TIPO_AREA" : "Rural",
      "AÑO" : "2008",
      "MUNICIPIO" : "SAN PABLO"
    },
    "geometry" : {
      "type" : "Point",
      "coordinates" : [ -73.933361, 7.483919 ]
    }
  }, {
    "type" : "Feature",
    "properties" : {
      "TIPO_EVENTO" : "1",
      "DEPARTAMENTO" : "GUAVIARE",
      "TIPO_AREA" : "Rural",
      "AÑO" : "2008",
      "MUNICIPIO" : "CALAMAR"
    },
    "geometry" : {
      "type" : "Point",
      "coordinates" : [ -72.387778, 1.9025 ]
    }
  }, {
    "type" : "Feature",
    "properties" : {
      "TIPO_EVENTO" : "1",
      "DEPARTAMENTO" : "PUTUMAYO",
      "TIPO_AREA" : "Rural",
      "AÑO" : "2008",
      "MUNICIPIO" : "PUERTO ASÍS"
    },
    "geometry" : {
      "type" : "Point",
      "coordinates" : [ -76.569167, 0.255556 ]
    }
  }, {
    "type" : "Feature",
    "properties" : {
      "TIPO_EVENTO" : "1",
      "DEPARTAMENTO" : "META",
      "TIPO_AREA" : "Rural",
      "AÑO" : "2008",
      "MUNICIPIO" : "PUERTO RICO"
    },
    "geometry" : {
      "type" : "Point",
      "coordinates" : [ -73.334722, 2.791667 ]
    }
  }, {
    "type" : "Feature",
    "properties" : {
      "TIPO_EVENTO" : "1",
      "DEPARTAMENTO" : "NARIÑO",
      "TIPO_AREA" : "Rural",
      "AÑO" : "2008",
      "MUNICIPIO" : "BARBACOAS"
    },
    "geometry" : {
      "type" : "Point",
      "coordinates" : [ -78.138537, 1.672216 ]
    }
  }, {
    "type" : "Feature",
    "properties" : {
      "TIPO_EVENTO" : "1",
      "DEPARTAMENTO" : "ANTIOQUIA",
      "TIPO_AREA" : "Rural",
      "AÑO" : "2008",
      "MUNICIPIO" : "ITUANGO"
    },
    "geometry" : {
      "type" : "Point",
      "coordinates" : [ -75.833333, 7.272778 ]
    }
  }, {
    "type" : "Feature",
    "properties" : {
      "TIPO_EVENTO" : "1",
      "DEPARTAMENTO" : "ANTIOQUIA",
      "TIPO_AREA" : "Rural",
      "AÑO" : "2008",
      "MUNICIPIO" : "YARUMAL"
    },
    "geometry" : {
      "type" : "Point",
      "coordinates" : [ -75.41644, 6.963517 ]
    }
  }, {
    "type" : "Feature",
    "properties" : {
      "TIPO_EVENTO" : "1",
      "DEPARTAMENTO" : "ANTIOQUIA",
      "TIPO_AREA" : "Rural",
      "AÑO" : "2008",
      "MUNICIPIO" : "TARAZÁ"
    },
    "geometry" : {
      "type" : "Point",
      "coordinates" : [ -75.392441, 7.590528 ]
    }
  }, {
    "type" : "Feature",
    "properties" : {
      "TIPO_EVENTO" : "1",
      "DEPARTAMENTO" : "BOLIVAR",
      "TIPO_AREA" : "Rural",
      "AÑO" : "2008",
      "MUNICIPIO" : "SAN PABLO"
    },
    "geometry" : {
      "type" : "Point",
      "coordinates" : [ -73.925505, 7.502884 ]
    }
  }, {
    "type" : "Feature",
    "properties" : {
      "TIPO_EVENTO" : "1",
      "DEPARTAMENTO" : "ANTIOQUIA",
      "TIPO_AREA" : "Rural",
      "AÑO" : "2008",
      "MUNICIPIO" : "VALDIVIA"
    },
    "geometry" : {
      "type" : "Point",
      "coordinates" : [ -75.438081, 7.165222 ]
    }
  }, {
    "type" : "Feature",
    "properties" : {
      "TIPO_EVENTO" : "2",
      "DEPARTAMENTO" : "CAQUETA",
      "TIPO_AREA" : "Urbana",
      "AÑO" : "2008",
      "MUNICIPIO" : "SAN VICENTE DEL CAGUÁN"
    },
    "geometry" : {
      "type" : "Point",
      "coordinates" : [ -74.768227, 2.120008 ]
    }
  }, {
    "type" : "Feature",
    "properties" : {
      "TIPO_EVENTO" : "1",
      "DEPARTAMENTO" : "ARAUCA",
      "TIPO_AREA" : "Rural",
      "AÑO" : "2008",
      "MUNICIPIO" : "TAME"
    },
    "geometry" : {
      "type" : "Point",
      "coordinates" : [ -71.730855, 6.461209 ]
    }
  }, {
    "type" : "Feature",
    "properties" : {
      "TIPO_EVENTO" : "1",
      "DEPARTAMENTO" : "NORTE DE SANTANDER",
      "TIPO_AREA" : "Rural",
      "AÑO" : "2008",
      "MUNICIPIO" : "SAN CALIXTO"
    },
    "geometry" : {
      "type" : "Point",
      "coordinates" : [ -73.187222, 8.540556 ]
    }
  }, {
    "type" : "Feature",
    "properties" : {
      "TIPO_EVENTO" : "1",
      "DEPARTAMENTO" : "NORTE DE SANTANDER",
      "TIPO_AREA" : "Rural",
      "AÑO" : "2008",
      "MUNICIPIO" : "EL TARRA"
    },
    "geometry" : {
      "type" : "Point",
      "coordinates" : [ -73.040556, 8.706111 ]
    }
  }, {
    "type" : "Feature",
    "properties" : {
      "TIPO_EVENTO" : "2",
      "DEPARTAMENTO" : "META",
      "TIPO_AREA" : "Rural",
      "AÑO" : "2008",
      "MUNICIPIO" : "VISTAHERMOSA"
    },
    "geometry" : {
      "type" : "Point",
      "coordinates" : [ -73.752373, 3.125088 ]
    }
  }, {
    "type" : "Feature",
    "properties" : {
      "TIPO_EVENTO" : "1",
      "DEPARTAMENTO" : "VALLE DEL CAUCA",
      "TIPO_AREA" : "Rural",
      "AÑO" : "2008",
      "MUNICIPIO" : "FLORIDA"
    },
    "geometry" : {
      "type" : "Point",
      "coordinates" : [ -76.243463, 3.326974 ]
    }
  }, {
    "type" : "Feature",
    "properties" : {
      "TIPO_EVENTO" : "1",
      "DEPARTAMENTO" : "TOLIMA",
      "TIPO_AREA" : "Rural",
      "AÑO" : "2008",
      "MUNICIPIO" : "CHAPARRAL"
    },
    "geometry" : {
      "type" : "Point",
      "coordinates" : [ -75.638333, 3.756389 ]
    }
  }, {
    "type" : "Feature",
    "properties" : {
      "TIPO_EVENTO" : "1",
      "DEPARTAMENTO" : "TOLIMA",
      "TIPO_AREA" : "Rural",
      "AÑO" : "2008",
      "MUNICIPIO" : "CHAPARRAL"
    },
    "geometry" : {
      "type" : "Point",
      "coordinates" : [ -75.55, 3.85028 ]
    }
  }, {
    "type" : "Feature",
    "properties" : {
      "TIPO_EVENTO" : "1",
      "DEPARTAMENTO" : "SANTANDER",
      "TIPO_AREA" : "Rural",
      "AÑO" : "2008",
      "MUNICIPIO" : "SIMACOTA"
    },
    "geometry" : {
      "type" : "Point",
      "coordinates" : [ -73.338071, 6.441321 ]
    }
  }, {
    "type" : "Feature",
    "properties" : {
      "TIPO_EVENTO" : "1",
      "DEPARTAMENTO" : "CORDOBA",
      "TIPO_AREA" : "Rural",
      "AÑO" : "2008",
      "MUNICIPIO" : "PUERTO LIBERTADOR"
    },
    "geometry" : {
      "type" : "Point",
      "coordinates" : [ -75.708056, 7.689167 ]
    }
  }, {
    "type" : "Feature",
    "properties" : {
      "TIPO_EVENTO" : "1",
      "DEPARTAMENTO" : "META",
      "TIPO_AREA" : "Rural",
      "AÑO" : "2008",
      "MUNICIPIO" : "MESETAS"
    },
    "geometry" : {
      "type" : "Point",
      "coordinates" : [ -74.240833, 3.408056 ]
    }
  }, {
    "type" : "Feature",
    "properties" : {
      "TIPO_EVENTO" : "1",
      "DEPARTAMENTO" : "NARIÑO",
      "TIPO_AREA" : "Rural",
      "AÑO" : "2008",
      "MUNICIPIO" : "SAMANIEGO"
    },
    "geometry" : {
      "type" : "Point",
      "coordinates" : [ -77.59313, 1.337083 ]
    }
  }, {
    "type" : "Feature",
    "properties" : {
      "TIPO_EVENTO" : "1",
      "DEPARTAMENTO" : "NARIÑO",
      "TIPO_AREA" : "Rural",
      "AÑO" : "2008",
      "MUNICIPIO" : "SAMANIEGO"
    },
    "geometry" : {
      "type" : "Point",
      "coordinates" : [ -77.59313, 1.337083 ]
    }
  }, {
    "type" : "Feature",
    "properties" : {
      "TIPO_EVENTO" : "1",
      "DEPARTAMENTO" : "ANTIOQUIA",
      "TIPO_AREA" : "Rural",
      "AÑO" : "2008",
      "MUNICIPIO" : "ITUANGO"
    },
    "geometry" : {
      "type" : "Point",
      "coordinates" : [ -75.789167, 7.318611 ]
    }
  }, {
    "type" : "Feature",
    "properties" : {
      "TIPO_EVENTO" : "1",
      "DEPARTAMENTO" : "NARIÑO",
      "TIPO_AREA" : "Rural",
      "AÑO" : "2008",
      "MUNICIPIO" : "SAMANIEGO"
    },
    "geometry" : {
      "type" : "Point",
      "coordinates" : [ -77.59313, 1.337083 ]
    }
  }, {
    "type" : "Feature",
    "properties" : {
      "TIPO_EVENTO" : "1",
      "DEPARTAMENTO" : "META",
      "TIPO_AREA" : "Rural",
      "AÑO" : "2008",
      "MUNICIPIO" : "LA MACARENA"
    },
    "geometry" : {
      "type" : "Point",
      "coordinates" : [ -73.784832, 2.182506 ]
    }
  }, {
    "type" : "Feature",
    "properties" : {
      "TIPO_EVENTO" : "1",
      "DEPARTAMENTO" : "META",
      "TIPO_AREA" : "Rural",
      "AÑO" : "2008",
      "MUNICIPIO" : "URIBE"
    },
    "geometry" : {
      "type" : "Point",
      "coordinates" : [ -74.354381, 3.240915 ]
    }
  }, {
    "type" : "Feature",
    "properties" : {
      "TIPO_EVENTO" : "1",
      "DEPARTAMENTO" : "TOLIMA",
      "TIPO_AREA" : "Rural",
      "AÑO" : "2008",
      "MUNICIPIO" : "PLANADAS"
    },
    "geometry" : {
      "type" : "Point",
      "coordinates" : [ -75.643224, 3.197458 ]
    }
  }, {
    "type" : "Feature",
    "properties" : {
      "TIPO_EVENTO" : "1",
      "DEPARTAMENTO" : "ANTIOQUIA",
      "TIPO_AREA" : "Rural",
      "AÑO" : "2008",
      "MUNICIPIO" : "NARIÑO"
    },
    "geometry" : {
      "type" : "Point",
      "coordinates" : [ -75.176737, 5.609351 ]
    }
  }, {
    "type" : "Feature",
    "properties" : {
      "TIPO_EVENTO" : "1",
      "DEPARTAMENTO" : "META",
      "TIPO_AREA" : "Rural",
      "AÑO" : "2008",
      "MUNICIPIO" : "MESETAS"
    },
    "geometry" : {
      "type" : "Point",
      "coordinates" : [ -74.09, 3.272 ]
    }
  }, {
    "type" : "Feature",
    "properties" : {
      "TIPO_EVENTO" : "1",
      "DEPARTAMENTO" : "META",
      "TIPO_AREA" : "Rural",
      "AÑO" : "2008",
      "MUNICIPIO" : "VISTAHERMOSA"
    },
    "geometry" : {
      "type" : "Point",
      "coordinates" : [ -73.818889, 2.708056 ]
    }
  }, {
    "type" : "Feature",
    "properties" : {
      "TIPO_EVENTO" : "1",
      "DEPARTAMENTO" : "CORDOBA",
      "TIPO_AREA" : "Rural",
      "AÑO" : "2008",
      "MUNICIPIO" : "PUERTO LIBERTADOR"
    },
    "geometry" : {
      "type" : "Point",
      "coordinates" : [ -75.721944, 7.6675 ]
    }
  }, {
    "type" : "Feature",
    "properties" : {
      "TIPO_EVENTO" : "1",
      "DEPARTAMENTO" : "ANTIOQUIA",
      "TIPO_AREA" : "Rural",
      "AÑO" : "2008",
      "MUNICIPIO" : "DABEIBA"
    },
    "geometry" : {
      "type" : "Point",
      "coordinates" : [ -76.204167, 7.052778 ]
    }
  }, {
    "type" : "Feature",
    "properties" : {
      "TIPO_EVENTO" : "1",
      "DEPARTAMENTO" : "HUILA",
      "TIPO_AREA" : "Rural",
      "AÑO" : "2008",
      "MUNICIPIO" : "PALERMO"
    },
    "geometry" : {
      "type" : "Point",
      "coordinates" : [ -75.430077, 2.888883 ]
    }
  }, {
    "type" : "Feature",
    "properties" : {
      "TIPO_EVENTO" : "1",
      "DEPARTAMENTO" : "NARIÑO",
      "TIPO_AREA" : "Rural",
      "AÑO" : "2008",
      "MUNICIPIO" : "SAMANIEGO"
    },
    "geometry" : {
      "type" : "Point",
      "coordinates" : [ -77.717222, 1.504167 ]
    }
  }, {
    "type" : "Feature",
    "properties" : {
      "TIPO_EVENTO" : "1",
      "DEPARTAMENTO" : "META",
      "TIPO_AREA" : "Rural",
      "AÑO" : "2008",
      "MUNICIPIO" : "MESETAS"
    },
    "geometry" : {
      "type" : "Point",
      "coordinates" : [ -74.042419, 3.380371 ]
    }
  }, {
    "type" : "Feature",
    "properties" : {
      "TIPO_EVENTO" : "1",
      "DEPARTAMENTO" : "VALLE DEL CAUCA",
      "TIPO_AREA" : "Rural",
      "AÑO" : "2008",
      "MUNICIPIO" : "DAGUA"
    },
    "geometry" : {
      "type" : "Point",
      "coordinates" : [ -76.717222, 3.835833 ]
    }
  }, {
    "type" : "Feature",
    "properties" : {
      "TIPO_EVENTO" : "1",
      "DEPARTAMENTO" : "VALLE DEL CAUCA",
      "TIPO_AREA" : "Rural",
      "AÑO" : "2008",
      "MUNICIPIO" : "BUGA"
    },
    "geometry" : {
      "type" : "Point",
      "coordinates" : [ -76.281402, 3.896994 ]
    }
  }, {
    "type" : "Feature",
    "properties" : {
      "TIPO_EVENTO" : "1",
      "DEPARTAMENTO" : "CAQUETA",
      "TIPO_AREA" : "Rural",
      "AÑO" : "2008",
      "MUNICIPIO" : "MONTAÑITA"
    },
    "geometry" : {
      "type" : "Point",
      "coordinates" : [ -75.0575, 1.215556 ]
    }
  }, {
    "type" : "Feature",
    "properties" : {
      "TIPO_EVENTO" : "1",
      "DEPARTAMENTO" : "CALDAS",
      "TIPO_AREA" : "Rural",
      "AÑO" : "2008",
      "MUNICIPIO" : "SALAMINA"
    },
    "geometry" : {
      "type" : "Point",
      "coordinates" : [ -75.322222, 5.438889 ]
    }
  }, {
    "type" : "Feature",
    "properties" : {
      "TIPO_EVENTO" : "1",
      "DEPARTAMENTO" : "NORTE DE SANTANDER",
      "TIPO_AREA" : "Rural",
      "AÑO" : "2008",
      "MUNICIPIO" : "SAN CALIXTO"
    },
    "geometry" : {
      "type" : "Point",
      "coordinates" : [ -73.187222, 8.540556 ]
    }
  }, {
    "type" : "Feature",
    "properties" : {
      "TIPO_EVENTO" : "1",
      "DEPARTAMENTO" : "CHOCO",
      "TIPO_AREA" : "Rural",
      "AÑO" : "2008",
      "MUNICIPIO" : "EL CARMEN DEL ATRATO"
    },
    "geometry" : {
      "type" : "Point",
      "coordinates" : [ -76.145891, 5.892603 ]
    }
  }, {
    "type" : "Feature",
    "properties" : {
      "TIPO_EVENTO" : "1",
      "DEPARTAMENTO" : "ARAUCA",
      "TIPO_AREA" : "Rural",
      "AÑO" : "2008",
      "MUNICIPIO" : "ARAUCA"
    },
    "geometry" : {
      "type" : "Point",
      "coordinates" : [ -70.75831, 7.087606 ]
    }
  }, {
    "type" : "Feature",
    "properties" : {
      "TIPO_EVENTO" : "1",
      "DEPARTAMENTO" : "TOLIMA",
      "TIPO_AREA" : "Rural",
      "AÑO" : "2008",
      "MUNICIPIO" : "ROVIRA"
    },
    "geometry" : {
      "type" : "Point",
      "coordinates" : [ -75.309722, 4.238889 ]
    }
  }, {
    "type" : "Feature",
    "properties" : {
      "TIPO_EVENTO" : "1",
      "DEPARTAMENTO" : "CHOCO",
      "TIPO_AREA" : "Rural",
      "AÑO" : "2008",
      "MUNICIPIO" : "NÓVITA"
    },
    "geometry" : {
      "type" : "Point",
      "coordinates" : [ -76.370833, 5.0775 ]
    }
  }, {
    "type" : "Feature",
    "properties" : {
      "TIPO_EVENTO" : "1",
      "DEPARTAMENTO" : "NORTE DE SANTANDER",
      "TIPO_AREA" : "Rural",
      "AÑO" : "2008",
      "MUNICIPIO" : "TEORAMA"
    },
    "geometry" : {
      "type" : "Point",
      "coordinates" : [ -73.287706, 8.437183 ]
    }
  }, {
    "type" : "Feature",
    "properties" : {
      "TIPO_EVENTO" : "1",
      "DEPARTAMENTO" : "META",
      "TIPO_AREA" : "Rural",
      "AÑO" : "2008",
      "MUNICIPIO" : "PUERTO RICO"
    },
    "geometry" : {
      "type" : "Point",
      "coordinates" : [ -73.286389, 2.722778 ]
    }
  }, {
    "type" : "Feature",
    "properties" : {
      "TIPO_EVENTO" : "1",
      "DEPARTAMENTO" : "BOLIVAR",
      "TIPO_AREA" : "Rural",
      "AÑO" : "2008",
      "MUNICIPIO" : "SIMITÍ"
    },
    "geometry" : {
      "type" : "Point",
      "coordinates" : [ -73.949071, 7.956662 ]
    }
  }, {
    "type" : "Feature",
    "properties" : {
      "TIPO_EVENTO" : "1",
      "DEPARTAMENTO" : "NARIÑO",
      "TIPO_AREA" : "Rural",
      "AÑO" : "2008",
      "MUNICIPIO" : "SANTA CRUZ"
    },
    "geometry" : {
      "type" : "Point",
      "coordinates" : [ -77.677265, 1.22182 ]
    }
  }, {
    "type" : "Feature",
    "properties" : {
      "TIPO_EVENTO" : "1",
      "DEPARTAMENTO" : "HUILA",
      "TIPO_AREA" : "Rural",
      "AÑO" : "2008",
      "MUNICIPIO" : "COLOMBIA"
    },
    "geometry" : {
      "type" : "Point",
      "coordinates" : [ -74.802161, 3.375361 ]
    }
  }, {
    "type" : "Feature",
    "properties" : {
      "TIPO_EVENTO" : "1",
      "DEPARTAMENTO" : "HUILA",
      "TIPO_AREA" : "Rural",
      "AÑO" : "2008",
      "MUNICIPIO" : "BARAYA"
    },
    "geometry" : {
      "type" : "Point",
      "coordinates" : [ -75.052789, 3.153331 ]
    }
  }, {
    "type" : "Feature",
    "properties" : {
      "TIPO_EVENTO" : "1",
      "DEPARTAMENTO" : "ARAUCA",
      "TIPO_AREA" : "Rural",
      "AÑO" : "2008",
      "MUNICIPIO" : "TAME"
    },
    "geometry" : {
      "type" : "Point",
      "coordinates" : [ -71.730855, 6.461209 ]
    }
  }, {
    "type" : "Feature",
    "properties" : {
      "TIPO_EVENTO" : "1",
      "DEPARTAMENTO" : "NORTE DE SANTANDER",
      "TIPO_AREA" : "Rural",
      "AÑO" : "2008",
      "MUNICIPIO" : "TEORAMA"
    },
    "geometry" : {
      "type" : "Point",
      "coordinates" : [ -73.180833, 8.656111 ]
    }
  }, {
    "type" : "Feature",
    "properties" : {
      "TIPO_EVENTO" : "1",
      "DEPARTAMENTO" : "META",
      "TIPO_AREA" : "Rural",
      "AÑO" : "2008",
      "MUNICIPIO" : "VISTAHERMOSA"
    },
    "geometry" : {
      "type" : "Point",
      "coordinates" : [ -73.686389, 2.664167 ]
    }
  }, {
    "type" : "Feature",
    "properties" : {
      "TIPO_EVENTO" : "1",
      "DEPARTAMENTO" : "META",
      "TIPO_AREA" : "Rural",
      "AÑO" : "2008",
      "MUNICIPIO" : "URIBE"
    },
    "geometry" : {
      "type" : "Point",
      "coordinates" : [ -74.429444, 3.256111 ]
    }
  }, {
    "type" : "Feature",
    "properties" : {
      "TIPO_EVENTO" : "1",
      "DEPARTAMENTO" : "CAQUETA",
      "TIPO_AREA" : "Rural",
      "AÑO" : "2008",
      "MUNICIPIO" : "FLORENCIA"
    },
    "geometry" : {
      "type" : "Point",
      "coordinates" : [ -75.488056, 1.994444 ]
    }
  }, {
    "type" : "Feature",
    "properties" : {
      "TIPO_EVENTO" : "1",
      "DEPARTAMENTO" : "CAQUETA",
      "TIPO_AREA" : "Rural",
      "AÑO" : "2008",
      "MUNICIPIO" : "MONTAÑITA"
    },
    "geometry" : {
      "type" : "Point",
      "coordinates" : [ -75.029167, 1.095278 ]
    }
  }, {
    "type" : "Feature",
    "properties" : {
      "TIPO_EVENTO" : "1",
      "DEPARTAMENTO" : "HUILA",
      "TIPO_AREA" : "Rural",
      "AÑO" : "2008",
      "MUNICIPIO" : "NEIVA"
    },
    "geometry" : {
      "type" : "Point",
      "coordinates" : [ -75.296437, 2.942415 ]
    }
  }, {
    "type" : "Feature",
    "properties" : {
      "TIPO_EVENTO" : "1",
      "DEPARTAMENTO" : "ANTIOQUIA",
      "TIPO_AREA" : "Rural",
      "AÑO" : "2008",
      "MUNICIPIO" : "MEDELLÍN"
    },
    "geometry" : {
      "type" : "Point",
      "coordinates" : [ -75.564887, 6.229209 ]
    }
  }, {
    "type" : "Feature",
    "properties" : {
      "TIPO_EVENTO" : "1",
      "DEPARTAMENTO" : "META",
      "TIPO_AREA" : "Rural",
      "AÑO" : "2008",
      "MUNICIPIO" : "CUBARRAL"
    },
    "geometry" : {
      "type" : "Point",
      "coordinates" : [ -74.28111111, 3.729166667 ]
    }
  }, {
    "type" : "Feature",
    "properties" : {
      "TIPO_EVENTO" : "1",
      "DEPARTAMENTO" : "ARAUCA",
      "TIPO_AREA" : "Rural",
      "AÑO" : "2008",
      "MUNICIPIO" : "ARAUQUITA"
    },
    "geometry" : {
      "type" : "Point",
      "coordinates" : [ -71.384978, 7.023186 ]
    }
  }, {
    "type" : "Feature",
    "properties" : {
      "TIPO_EVENTO" : "1",
      "DEPARTAMENTO" : "GUAVIARE",
      "TIPO_AREA" : "Rural",
      "AÑO" : "2008",
      "MUNICIPIO" : "SAN JOSÉ DEL GUAVIARE"
    },
    "geometry" : {
      "type" : "Point",
      "coordinates" : [ -72.640033, 2.564079 ]
    }
  }, {
    "type" : "Feature",
    "properties" : {
      "TIPO_EVENTO" : "1",
      "DEPARTAMENTO" : "NARIÑO",
      "TIPO_AREA" : "Rural",
      "AÑO" : "2008",
      "MUNICIPIO" : "SANTA CRUZ"
    },
    "geometry" : {
      "type" : "Point",
      "coordinates" : [ -77.677265, 1.22182 ]
    }
  }, {
    "type" : "Feature",
    "properties" : {
      "TIPO_EVENTO" : "1",
      "DEPARTAMENTO" : "HUILA",
      "TIPO_AREA" : "Rural",
      "AÑO" : "2008",
      "MUNICIPIO" : "COLOMBIA"
    },
    "geometry" : {
      "type" : "Point",
      "coordinates" : [ -74.802161, 3.375361 ]
    }
  }, {
    "type" : "Feature",
    "properties" : {
      "TIPO_EVENTO" : "1",
      "DEPARTAMENTO" : "NORTE DE SANTANDER",
      "TIPO_AREA" : "Rural",
      "AÑO" : "2008",
      "MUNICIPIO" : "TIBÚ"
    },
    "geometry" : {
      "type" : "Point",
      "coordinates" : [ -72.735541, 8.639326 ]
    }
  }, {
    "type" : "Feature",
    "properties" : {
      "TIPO_EVENTO" : "1",
      "DEPARTAMENTO" : "HUILA",
      "TIPO_AREA" : "Rural",
      "AÑO" : "2008",
      "MUNICIPIO" : "COLOMBIA"
    },
    "geometry" : {
      "type" : "Point",
      "coordinates" : [ -74.674167, 3.418333 ]
    }
  }, {
    "type" : "Feature",
    "properties" : {
      "TIPO_EVENTO" : "1",
      "DEPARTAMENTO" : "CHOCO",
      "TIPO_AREA" : "Rural",
      "AÑO" : "2008",
      "MUNICIPIO" : "NÓVITA"
    },
    "geometry" : {
      "type" : "Point",
      "coordinates" : [ -76.379, 5.075 ]
    }
  }, {
    "type" : "Feature",
    "properties" : {
      "TIPO_EVENTO" : "1",
      "DEPARTAMENTO" : "META",
      "TIPO_AREA" : "Rural",
      "AÑO" : "2008",
      "MUNICIPIO" : "MESETAS"
    },
    "geometry" : {
      "type" : "Point",
      "coordinates" : [ -74.008333, 3.248889 ]
    }
  }, {
    "type" : "Feature",
    "properties" : {
      "TIPO_EVENTO" : "1",
      "DEPARTAMENTO" : "HUILA",
      "TIPO_AREA" : "Rural",
      "AÑO" : "2008",
      "MUNICIPIO" : "BARAYA"
    },
    "geometry" : {
      "type" : "Point",
      "coordinates" : [ -74.8525, 3.038611 ]
    }
  }, {
    "type" : "Feature",
    "properties" : {
      "TIPO_EVENTO" : "1",
      "DEPARTAMENTO" : "TOLIMA",
      "TIPO_AREA" : "Rural",
      "AÑO" : "2008",
      "MUNICIPIO" : "ROVIRA"
    },
    "geometry" : {
      "type" : "Point",
      "coordinates" : [ -75.240629, 4.239385 ]
    }
  }, {
    "type" : "Feature",
    "properties" : {
      "TIPO_EVENTO" : "1",
      "DEPARTAMENTO" : "NORTE DE SANTANDER",
      "TIPO_AREA" : "Rural",
      "AÑO" : "2008",
      "MUNICIPIO" : "SARDINATA"
    },
    "geometry" : {
      "type" : "Point",
      "coordinates" : [ -72.801023, 8.083016 ]
    }
  }, {
    "type" : "Feature",
    "properties" : {
      "TIPO_EVENTO" : "1",
      "DEPARTAMENTO" : "CAUCA",
      "TIPO_AREA" : "Rural",
      "AÑO" : "2008",
      "MUNICIPIO" : "PÁEZ"
    },
    "geometry" : {
      "type" : "Point",
      "coordinates" : [ -75.9730437, 2.664087619 ]
    }
  }, {
    "type" : "Feature",
    "properties" : {
      "TIPO_EVENTO" : "1",
      "DEPARTAMENTO" : "META",
      "TIPO_AREA" : "Rural",
      "AÑO" : "2008",
      "MUNICIPIO" : "LA MACARENA"
    },
    "geometry" : {
      "type" : "Point",
      "coordinates" : [ -74.360278, 2.470278 ]
    }
  }, {
    "type" : "Feature",
    "properties" : {
      "TIPO_EVENTO" : "1",
      "DEPARTAMENTO" : "ARAUCA",
      "TIPO_AREA" : "Rural",
      "AÑO" : "2008",
      "MUNICIPIO" : "ARAUQUITA"
    },
    "geometry" : {
      "type" : "Point",
      "coordinates" : [ -71.384978, 7.023186 ]
    }
  }, {
    "type" : "Feature",
    "properties" : {
      "TIPO_EVENTO" : "1",
      "DEPARTAMENTO" : "NARIÑO",
      "TIPO_AREA" : "Rural",
      "AÑO" : "2008",
      "MUNICIPIO" : "RICAURTE"
    },
    "geometry" : {
      "type" : "Point",
      "coordinates" : [ -77.995412, 1.212529 ]
    }
  }, {
    "type" : "Feature",
    "properties" : {
      "TIPO_EVENTO" : "1",
      "DEPARTAMENTO" : "PUTUMAYO",
      "TIPO_AREA" : "Rural",
      "AÑO" : "2008",
      "MUNICIPIO" : "PUERTO ASÍS"
    },
    "geometry" : {
      "type" : "Point",
      "coordinates" : [ -76.49818, 0.502569 ]
    }
  }, {
    "type" : "Feature",
    "properties" : {
      "TIPO_EVENTO" : "1",
      "DEPARTAMENTO" : "CAUCA",
      "TIPO_AREA" : "Rural",
      "AÑO" : "2008",
      "MUNICIPIO" : "MIRANDA"
    },
    "geometry" : {
      "type" : "Point",
      "coordinates" : [ -76.228589, 3.251737 ]
    }
  }, {
    "type" : "Feature",
    "properties" : {
      "TIPO_EVENTO" : "1",
      "DEPARTAMENTO" : "ARAUCA",
      "TIPO_AREA" : "Rural",
      "AÑO" : "2008",
      "MUNICIPIO" : "ARAUQUITA"
    },
    "geometry" : {
      "type" : "Point",
      "coordinates" : [ -71.384978, 7.023186 ]
    }
  }, {
    "type" : "Feature",
    "properties" : {
      "TIPO_EVENTO" : "1",
      "DEPARTAMENTO" : "VALLE DEL CAUCA",
      "TIPO_AREA" : "Rural",
      "AÑO" : "2008",
      "MUNICIPIO" : "DAGUA"
    },
    "geometry" : {
      "type" : "Point",
      "coordinates" : [ -76.698818, 3.660843 ]
    }
  }, {
    "type" : "Feature",
    "properties" : {
      "TIPO_EVENTO" : "1",
      "DEPARTAMENTO" : "PUTUMAYO",
      "TIPO_AREA" : "Rural",
      "AÑO" : "2008",
      "MUNICIPIO" : "PUERTO GUZMÁN"
    },
    "geometry" : {
      "type" : "Point",
      "coordinates" : [ -76.407827, 0.964878 ]
    }
  }, {
    "type" : "Feature",
    "properties" : {
      "TIPO_EVENTO" : "1",
      "DEPARTAMENTO" : "CAUCA",
      "TIPO_AREA" : "Rural",
      "AÑO" : "2008",
      "MUNICIPIO" : "TORIBÍO"
    },
    "geometry" : {
      "type" : "Point",
      "coordinates" : [ -76.268615, 2.955399 ]
    }
  }, {
    "type" : "Feature",
    "properties" : {
      "TIPO_EVENTO" : "1",
      "DEPARTAMENTO" : "CHOCO",
      "TIPO_AREA" : "Rural",
      "AÑO" : "2008",
      "MUNICIPIO" : "BOJAYÁ"
    },
    "geometry" : {
      "type" : "Point",
      "coordinates" : [ -76.882845, 6.555942 ]
    }
  }, {
    "type" : "Feature",
    "properties" : {
      "TIPO_EVENTO" : "1",
      "DEPARTAMENTO" : "ARAUCA",
      "TIPO_AREA" : "Rural",
      "AÑO" : "2008",
      "MUNICIPIO" : "FORTUL"
    },
    "geometry" : {
      "type" : "Point",
      "coordinates" : [ -71.770658, 6.792924 ]
    }
  }, {
    "type" : "Feature",
    "properties" : {
      "TIPO_EVENTO" : "1",
      "DEPARTAMENTO" : "META",
      "TIPO_AREA" : "Rural",
      "AÑO" : "2008",
      "MUNICIPIO" : "VISTAHERMOSA"
    },
    "geometry" : {
      "type" : "Point",
      "coordinates" : [ -73.752373, 3.125088 ]
    }
  }, {
    "type" : "Feature",
    "properties" : {
      "TIPO_EVENTO" : "1",
      "DEPARTAMENTO" : "ANTIOQUIA",
      "TIPO_AREA" : "Rural",
      "AÑO" : "2008",
      "MUNICIPIO" : "ANORÍ"
    },
    "geometry" : {
      "type" : "Point",
      "coordinates" : [ -75.147222, 7.073333 ]
    }
  }, {
    "type" : "Feature",
    "properties" : {
      "TIPO_EVENTO" : "1",
      "DEPARTAMENTO" : "META",
      "TIPO_AREA" : "Rural",
      "AÑO" : "2008",
      "MUNICIPIO" : "MESETAS"
    },
    "geometry" : {
      "type" : "Point",
      "coordinates" : [ -74.042419, 3.380371 ]
    }
  }, {
    "type" : "Feature",
    "properties" : {
      "TIPO_EVENTO" : "1",
      "DEPARTAMENTO" : "META",
      "TIPO_AREA" : "Rural",
      "AÑO" : "2008",
      "MUNICIPIO" : "PUERTO RICO"
    },
    "geometry" : {
      "type" : "Point",
      "coordinates" : [ -73.207891, 2.939542 ]
    }
  }, {
    "type" : "Feature",
    "properties" : {
      "TIPO_EVENTO" : "1",
      "DEPARTAMENTO" : "META",
      "TIPO_AREA" : "Rural",
      "AÑO" : "2008",
      "MUNICIPIO" : "PUERTO RICO"
    },
    "geometry" : {
      "type" : "Point",
      "coordinates" : [ -73.207891, 2.939542 ]
    }
  }, {
    "type" : "Feature",
    "properties" : {
      "TIPO_EVENTO" : "1",
      "DEPARTAMENTO" : "ANTIOQUIA",
      "TIPO_AREA" : "Rural",
      "AÑO" : "2008",
      "MUNICIPIO" : "ITUANGO"
    },
    "geometry" : {
      "type" : "Point",
      "coordinates" : [ -75.764403, 7.171637 ]
    }
  }, {
    "type" : "Feature",
    "properties" : {
      "TIPO_EVENTO" : "1",
      "DEPARTAMENTO" : "META",
      "TIPO_AREA" : "Rural",
      "AÑO" : "2008",
      "MUNICIPIO" : "VISTAHERMOSA"
    },
    "geometry" : {
      "type" : "Point",
      "coordinates" : [ -73.752373, 3.125088 ]
    }
  }, {
    "type" : "Feature",
    "properties" : {
      "TIPO_EVENTO" : "1",
      "DEPARTAMENTO" : "ARAUCA",
      "TIPO_AREA" : "Rural",
      "AÑO" : "2008",
      "MUNICIPIO" : "TAME"
    },
    "geometry" : {
      "type" : "Point",
      "coordinates" : [ -71.730855, 6.461209 ]
    }
  }, {
    "type" : "Feature",
    "properties" : {
      "TIPO_EVENTO" : "1",
      "DEPARTAMENTO" : "TOLIMA",
      "TIPO_AREA" : "Rural",
      "AÑO" : "2008",
      "MUNICIPIO" : "DOLORES"
    },
    "geometry" : {
      "type" : "Point",
      "coordinates" : [ -74.9013493, 3.541243426 ]
    }
  }, {
    "type" : "Feature",
    "properties" : {
      "TIPO_EVENTO" : "1",
      "DEPARTAMENTO" : "ARAUCA",
      "TIPO_AREA" : "Rural",
      "AÑO" : "2008",
      "MUNICIPIO" : "PUERTO RONDÓN"
    },
    "geometry" : {
      "type" : "Point",
      "coordinates" : [ -71.09961, 6.280311 ]
    }
  }, {
    "type" : "Feature",
    "properties" : {
      "TIPO_EVENTO" : "1",
      "DEPARTAMENTO" : "ANTIOQUIA",
      "TIPO_AREA" : "Rural",
      "AÑO" : "2008",
      "MUNICIPIO" : "SAN FRANCISCO"
    },
    "geometry" : {
      "type" : "Point",
      "coordinates" : [ -75.10198, 5.965414 ]
    }
  }, {
    "type" : "Feature",
    "properties" : {
      "TIPO_EVENTO" : "1",
      "DEPARTAMENTO" : "PUTUMAYO",
      "TIPO_AREA" : "Rural",
      "AÑO" : "2008",
      "MUNICIPIO" : "PUERTO CAICEDO"
    },
    "geometry" : {
      "type" : "Point",
      "coordinates" : [ -76.603594, 0.68938 ]
    }
  }, {
    "type" : "Feature",
    "properties" : {
      "TIPO_EVENTO" : "1",
      "DEPARTAMENTO" : "NARIÑO",
      "TIPO_AREA" : "Rural",
      "AÑO" : "2008",
      "MUNICIPIO" : "LA LLANADA"
    },
    "geometry" : {
      "type" : "Point",
      "coordinates" : [ -77.580358, 1.472995 ]
    }
  }, {
    "type" : "Feature",
    "properties" : {
      "TIPO_EVENTO" : "1",
      "DEPARTAMENTO" : "CAQUETA",
      "TIPO_AREA" : "Rural",
      "AÑO" : "2008",
      "MUNICIPIO" : "FLORENCIA"
    },
    "geometry" : {
      "type" : "Point",
      "coordinates" : [ -75.619118, 1.621012 ]
    }
  }, {
    "type" : "Feature",
    "properties" : {
      "TIPO_EVENTO" : "1",
      "DEPARTAMENTO" : "NORTE DE SANTANDER",
      "TIPO_AREA" : "Rural",
      "AÑO" : "2008",
      "MUNICIPIO" : "SARDINATA"
    },
    "geometry" : {
      "type" : "Point",
      "coordinates" : [ -72.801023, 8.083016 ]
    }
  }, {
    "type" : "Feature",
    "properties" : {
      "TIPO_EVENTO" : "1",
      "DEPARTAMENTO" : "NORTE DE SANTANDER",
      "TIPO_AREA" : "Rural",
      "AÑO" : "2008",
      "MUNICIPIO" : "EL TARRA"
    },
    "geometry" : {
      "type" : "Point",
      "coordinates" : [ -73.097044, 8.574766 ]
    }
  }, {
    "type" : "Feature",
    "properties" : {
      "TIPO_EVENTO" : "1",
      "DEPARTAMENTO" : "NORTE DE SANTANDER",
      "TIPO_AREA" : "Rural",
      "AÑO" : "2008",
      "MUNICIPIO" : "EL TARRA"
    },
    "geometry" : {
      "type" : "Point",
      "coordinates" : [ -73.097044, 8.574766 ]
    }
  }, {
    "type" : "Feature",
    "properties" : {
      "TIPO_EVENTO" : "1",
      "DEPARTAMENTO" : "NORTE DE SANTANDER",
      "TIPO_AREA" : "Rural",
      "AÑO" : "2008",
      "MUNICIPIO" : "EL TARRA"
    },
    "geometry" : {
      "type" : "Point",
      "coordinates" : [ -73.097044, 8.574766 ]
    }
  }, {
    "type" : "Feature",
    "properties" : {
      "TIPO_EVENTO" : "1",
      "DEPARTAMENTO" : "NORTE DE SANTANDER",
      "TIPO_AREA" : "Rural",
      "AÑO" : "2008",
      "MUNICIPIO" : "EL TARRA"
    },
    "geometry" : {
      "type" : "Point",
      "coordinates" : [ -73.097044, 8.574766 ]
    }
  }, {
    "type" : "Feature",
    "properties" : {
      "TIPO_EVENTO" : "1",
      "DEPARTAMENTO" : "NARIÑO",
      "TIPO_AREA" : "Rural",
      "AÑO" : "2008",
      "MUNICIPIO" : "CUMBAL"
    },
    "geometry" : {
      "type" : "Point",
      "coordinates" : [ -77.792061, 0.906258 ]
    }
  }, {
    "type" : "Feature",
    "properties" : {
      "TIPO_EVENTO" : "1",
      "DEPARTAMENTO" : "META",
      "TIPO_AREA" : "Rural",
      "AÑO" : "2008",
      "MUNICIPIO" : "MAPIRIPÁN"
    },
    "geometry" : {
      "type" : "Point",
      "coordinates" : [ -72.133961, 2.892158 ]
    }
  }, {
    "type" : "Feature",
    "properties" : {
      "TIPO_EVENTO" : "1",
      "DEPARTAMENTO" : "META",
      "TIPO_AREA" : "Rural",
      "AÑO" : "2008",
      "MUNICIPIO" : "MAPIRIPÁN"
    },
    "geometry" : {
      "type" : "Point",
      "coordinates" : [ -72.133961, 2.892158 ]
    }
  }, {
    "type" : "Feature",
    "properties" : {
      "TIPO_EVENTO" : "1",
      "DEPARTAMENTO" : "GUAVIARE",
      "TIPO_AREA" : "Rural",
      "AÑO" : "2008",
      "MUNICIPIO" : "CALAMAR"
    },
    "geometry" : {
      "type" : "Point",
      "coordinates" : [ -72.654146, 1.958453 ]
    }
  }, {
    "type" : "Feature",
    "properties" : {
      "TIPO_EVENTO" : "1",
      "DEPARTAMENTO" : "NARIÑO",
      "TIPO_AREA" : "Rural",
      "AÑO" : "2008",
      "MUNICIPIO" : "POLICARPA"
    },
    "geometry" : {
      "type" : "Point",
      "coordinates" : [ -77.459098, 1.628192 ]
    }
  }, {
    "type" : "Feature",
    "properties" : {
      "TIPO_EVENTO" : "1",
      "DEPARTAMENTO" : "PUTUMAYO",
      "TIPO_AREA" : "Rural",
      "AÑO" : "2008",
      "MUNICIPIO" : "SAN MIGUEL"
    },
    "geometry" : {
      "type" : "Point",
      "coordinates" : [ -76.911852, 0.343179 ]
    }
  }, {
    "type" : "Feature",
    "properties" : {
      "TIPO_EVENTO" : "1",
      "DEPARTAMENTO" : "ANTIOQUIA",
      "TIPO_AREA" : "Rural",
      "AÑO" : "2008",
      "MUNICIPIO" : "TURBO"
    },
    "geometry" : {
      "type" : "Point",
      "coordinates" : [ -76.73923237, 8.099159651 ]
    }
  }, {
    "type" : "Feature",
    "properties" : {
      "TIPO_EVENTO" : "1",
      "DEPARTAMENTO" : "NARIÑO",
      "TIPO_AREA" : "Rural",
      "AÑO" : "2008",
      "MUNICIPIO" : "SAMANIEGO"
    },
    "geometry" : {
      "type" : "Point",
      "coordinates" : [ -77.59313, 1.337083 ]
    }
  }, {
    "type" : "Feature",
    "properties" : {
      "TIPO_EVENTO" : "1",
      "DEPARTAMENTO" : "CORDOBA",
      "TIPO_AREA" : "Rural",
      "AÑO" : "2008",
      "MUNICIPIO" : "TIERRALTA"
    },
    "geometry" : {
      "type" : "Point",
      "coordinates" : [ -76.052223, 8.181547 ]
    }
  }, {
    "type" : "Feature",
    "properties" : {
      "TIPO_EVENTO" : "1",
      "DEPARTAMENTO" : "CORDOBA",
      "TIPO_AREA" : "Rural",
      "AÑO" : "2008",
      "MUNICIPIO" : "TIERRALTA"
    },
    "geometry" : {
      "type" : "Point",
      "coordinates" : [ -76.052223, 8.181547 ]
    }
  }, {
    "type" : "Feature",
    "properties" : {
      "TIPO_EVENTO" : "1",
      "DEPARTAMENTO" : "NARIÑO",
      "TIPO_AREA" : "Rural",
      "AÑO" : "2008",
      "MUNICIPIO" : "SANTA CRUZ"
    },
    "geometry" : {
      "type" : "Point",
      "coordinates" : [ -77.677265, 1.22182 ]
    }
  }, {
    "type" : "Feature",
    "properties" : {
      "TIPO_EVENTO" : "1",
      "DEPARTAMENTO" : "ANTIOQUIA",
      "TIPO_AREA" : "Rural",
      "AÑO" : "2008",
      "MUNICIPIO" : "TARAZÁ"
    },
    "geometry" : {
      "type" : "Point",
      "coordinates" : [ -75.400212, 7.582546 ]
    }
  }, {
    "type" : "Feature",
    "properties" : {
      "TIPO_EVENTO" : "1",
      "DEPARTAMENTO" : "ANTIOQUIA",
      "TIPO_AREA" : "Rural",
      "AÑO" : "2008",
      "MUNICIPIO" : "TARAZÁ"
    },
    "geometry" : {
      "type" : "Point",
      "coordinates" : [ -75.400212, 7.582546 ]
    }
  }, {
    "type" : "Feature",
    "properties" : {
      "TIPO_EVENTO" : "1",
      "DEPARTAMENTO" : "ANTIOQUIA",
      "TIPO_AREA" : "Rural",
      "AÑO" : "2008",
      "MUNICIPIO" : "ITUANGO"
    },
    "geometry" : {
      "type" : "Point",
      "coordinates" : [ -75.764403, 7.171637 ]
    }
  }, {
    "type" : "Feature",
    "properties" : {
      "TIPO_EVENTO" : "1",
      "DEPARTAMENTO" : "PUTUMAYO",
      "TIPO_AREA" : "Rural",
      "AÑO" : "2008",
      "MUNICIPIO" : "PUERTO ASÍS"
    },
    "geometry" : {
      "type" : "Point",
      "coordinates" : [ -76.49818, 0.502569 ]
    }
  }, {
    "type" : "Feature",
    "properties" : {
      "TIPO_EVENTO" : "1",
      "DEPARTAMENTO" : "ARAUCA",
      "TIPO_AREA" : "Rural",
      "AÑO" : "2008",
      "MUNICIPIO" : "ARAUQUITA"
    },
    "geometry" : {
      "type" : "Point",
      "coordinates" : [ -71.384978, 7.023186 ]
    }
  }, {
    "type" : "Feature",
    "properties" : {
      "TIPO_EVENTO" : "1",
      "DEPARTAMENTO" : "ANTIOQUIA",
      "TIPO_AREA" : "Rural",
      "AÑO" : "2008",
      "MUNICIPIO" : "ANORÍ"
    },
    "geometry" : {
      "type" : "Point",
      "coordinates" : [ -75.147222, 7.073333 ]
    }
  }, {
    "type" : "Feature",
    "properties" : {
      "TIPO_EVENTO" : "1",
      "DEPARTAMENTO" : "ANTIOQUIA",
      "TIPO_AREA" : "Rural",
      "AÑO" : "2008",
      "MUNICIPIO" : "VALDIVIA"
    },
    "geometry" : {
      "type" : "Point",
      "coordinates" : [ -75.438081, 7.165222 ]
    }
  }, {
    "type" : "Feature",
    "properties" : {
      "TIPO_EVENTO" : "1",
      "DEPARTAMENTO" : "ANTIOQUIA",
      "TIPO_AREA" : "Rural",
      "AÑO" : "2008",
      "MUNICIPIO" : "VALDIVIA"
    },
    "geometry" : {
      "type" : "Point",
      "coordinates" : [ -75.438081, 7.165222 ]
    }
  }, {
    "type" : "Feature",
    "properties" : {
      "TIPO_EVENTO" : "1",
      "DEPARTAMENTO" : "BOLIVAR",
      "TIPO_AREA" : "Rural",
      "AÑO" : "2008",
      "MUNICIPIO" : "SAN PABLO"
    },
    "geometry" : {
      "type" : "Point",
      "coordinates" : [ -73.933361, 7.483919 ]
    }
  }, {
    "type" : "Feature",
    "properties" : {
      "TIPO_EVENTO" : "1",
      "DEPARTAMENTO" : "NORTE DE SANTANDER",
      "TIPO_AREA" : "Rural",
      "AÑO" : "2008",
      "MUNICIPIO" : "SAN CALIXTO"
    },
    "geometry" : {
      "type" : "Point",
      "coordinates" : [ -73.207765, 8.40286 ]
    }
  }, {
    "type" : "Feature",
    "properties" : {
      "TIPO_EVENTO" : "1",
      "DEPARTAMENTO" : "PUTUMAYO",
      "TIPO_AREA" : "Rural",
      "AÑO" : "2008",
      "MUNICIPIO" : "VALLE DEL GUAMUEZ"
    },
    "geometry" : {
      "type" : "Point",
      "coordinates" : [ -76.905657, 0.424591 ]
    }
  }, {
    "type" : "Feature",
    "properties" : {
      "TIPO_EVENTO" : "1",
      "DEPARTAMENTO" : "NARIÑO",
      "TIPO_AREA" : "Rural",
      "AÑO" : "2008",
      "MUNICIPIO" : "RICAURTE"
    },
    "geometry" : {
      "type" : "Point",
      "coordinates" : [ -77.995412, 1.212529 ]
    }
  }, {
    "type" : "Feature",
    "properties" : {
      "TIPO_EVENTO" : "1",
      "DEPARTAMENTO" : "NARIÑO",
      "TIPO_AREA" : "Rural",
      "AÑO" : "2008",
      "MUNICIPIO" : "CUMBITARA"
    },
    "geometry" : {
      "type" : "Point",
      "coordinates" : [ -77.579056, 1.64746 ]
    }
  }, {
    "type" : "Feature",
    "properties" : {
      "TIPO_EVENTO" : "1",
      "DEPARTAMENTO" : "SUCRE",
      "TIPO_AREA" : "Rural",
      "AÑO" : "2008",
      "MUNICIPIO" : "COROZAL"
    },
    "geometry" : {
      "type" : "Point",
      "coordinates" : [ -75.283462, 9.328135 ]
    }
  }, {
    "type" : "Feature",
    "properties" : {
      "TIPO_EVENTO" : "1",
      "DEPARTAMENTO" : "CORDOBA",
      "TIPO_AREA" : "Rural",
      "AÑO" : "2008",
      "MUNICIPIO" : "PUERTO LIBERTADOR"
    },
    "geometry" : {
      "type" : "Point",
      "coordinates" : [ -75.670508, 7.883545 ]
    }
  }, {
    "type" : "Feature",
    "properties" : {
      "TIPO_EVENTO" : "1",
      "DEPARTAMENTO" : "ARAUCA",
      "TIPO_AREA" : "Rural",
      "AÑO" : "2008",
      "MUNICIPIO" : "TAME"
    },
    "geometry" : {
      "type" : "Point",
      "coordinates" : [ -71.730855, 6.461209 ]
    }
  }, {
    "type" : "Feature",
    "properties" : {
      "TIPO_EVENTO" : "1",
      "DEPARTAMENTO" : "CORDOBA",
      "TIPO_AREA" : "Rural",
      "AÑO" : "2008",
      "MUNICIPIO" : "PUERTO LIBERTADOR"
    },
    "geometry" : {
      "type" : "Point",
      "coordinates" : [ -75.670508, 7.883545 ]
    }
  }, {
    "type" : "Feature",
    "properties" : {
      "TIPO_EVENTO" : "1",
      "DEPARTAMENTO" : "ARAUCA",
      "TIPO_AREA" : "Rural",
      "AÑO" : "2008",
      "MUNICIPIO" : "TAME"
    },
    "geometry" : {
      "type" : "Point",
      "coordinates" : [ -71.730855, 6.461209 ]
    }
  }, {
    "type" : "Feature",
    "properties" : {
      "TIPO_EVENTO" : "1",
      "DEPARTAMENTO" : "ARAUCA",
      "TIPO_AREA" : "Rural",
      "AÑO" : "2008",
      "MUNICIPIO" : "TAME"
    },
    "geometry" : {
      "type" : "Point",
      "coordinates" : [ -71.730855, 6.461209 ]
    }
  }, {
    "type" : "Feature",
    "properties" : {
      "TIPO_EVENTO" : "1",
      "DEPARTAMENTO" : "ARAUCA",
      "TIPO_AREA" : "Rural",
      "AÑO" : "2008",
      "MUNICIPIO" : "TAME"
    },
    "geometry" : {
      "type" : "Point",
      "coordinates" : [ -71.730855, 6.461209 ]
    }
  }, {
    "type" : "Feature",
    "properties" : {
      "TIPO_EVENTO" : "1",
      "DEPARTAMENTO" : "PUTUMAYO",
      "TIPO_AREA" : "Rural",
      "AÑO" : "2008",
      "MUNICIPIO" : "VALLE DEL GUAMUEZ"
    },
    "geometry" : {
      "type" : "Point",
      "coordinates" : [ -76.905657, 0.424591 ]
    }
  }, {
    "type" : "Feature",
    "properties" : {
      "TIPO_EVENTO" : "1",
      "DEPARTAMENTO" : "ARAUCA",
      "TIPO_AREA" : "Rural",
      "AÑO" : "2008",
      "MUNICIPIO" : "TAME"
    },
    "geometry" : {
      "type" : "Point",
      "coordinates" : [ -71.730855, 6.461209 ]
    }
  }, {
    "type" : "Feature",
    "properties" : {
      "TIPO_EVENTO" : "1",
      "DEPARTAMENTO" : "CAUCA",
      "TIPO_AREA" : "Rural",
      "AÑO" : "2008",
      "MUNICIPIO" : "CORINTO"
    },
    "geometry" : {
      "type" : "Point",
      "coordinates" : [ -76.13222222, 3.170555556 ]
    }
  }, {
    "type" : "Feature",
    "properties" : {
      "TIPO_EVENTO" : "1",
      "DEPARTAMENTO" : "LA GUAJIRA",
      "TIPO_AREA" : "Rural",
      "AÑO" : "2008",
      "MUNICIPIO" : "URUMITA"
    },
    "geometry" : {
      "type" : "Point",
      "coordinates" : [ -72.91888889, 10.48305556 ]
    }
  }, {
    "type" : "Feature",
    "properties" : {
      "TIPO_EVENTO" : "1",
      "DEPARTAMENTO" : "VALLE DEL CAUCA",
      "TIPO_AREA" : "Rural",
      "AÑO" : "2008",
      "MUNICIPIO" : "FLORIDA"
    },
    "geometry" : {
      "type" : "Point",
      "coordinates" : [ -76.13444444, 3.233888889 ]
    }
  }, {
    "type" : "Feature",
    "properties" : {
      "TIPO_EVENTO" : "1",
      "DEPARTAMENTO" : "NARIÑO",
      "TIPO_AREA" : "Rural",
      "AÑO" : "2008",
      "MUNICIPIO" : "SANTA CRUZ"
    },
    "geometry" : {
      "type" : "Point",
      "coordinates" : [ -77.81916667, 1.425 ]
    }
  }, {
    "type" : "Feature",
    "properties" : {
      "TIPO_EVENTO" : "1",
      "DEPARTAMENTO" : "BOGOTA DC",
      "TIPO_AREA" : "Rural",
      "AÑO" : "2008",
      "MUNICIPIO" : "Bogotá DC"
    },
    "geometry" : {
      "type" : "Point",
      "coordinates" : [ -74.16888889, 4.155555556 ]
    }
  }, {
    "type" : "Feature",
    "properties" : {
      "TIPO_EVENTO" : "1",
      "DEPARTAMENTO" : "CAQUETA",
      "TIPO_AREA" : "Rural",
      "AÑO" : "2008",
      "MUNICIPIO" : "SAN VICENTE DEL CAGUÁN"
    },
    "geometry" : {
      "type" : "Point",
      "coordinates" : [ -74.74861111, 2.549722222 ]
    }
  }, {
    "type" : "Feature",
    "properties" : {
      "TIPO_EVENTO" : "1",
      "DEPARTAMENTO" : "META",
      "TIPO_AREA" : "Rural",
      "AÑO" : "2008",
      "MUNICIPIO" : "URIBE"
    },
    "geometry" : {
      "type" : "Point",
      "coordinates" : [ -74.50583333, 2.738888889 ]
    }
  }, {
    "type" : "Feature",
    "properties" : {
      "TIPO_EVENTO" : "1",
      "DEPARTAMENTO" : "META",
      "TIPO_AREA" : "Rural",
      "AÑO" : "2008",
      "MUNICIPIO" : "URIBE"
    },
    "geometry" : {
      "type" : "Point",
      "coordinates" : [ -74.4925, 2.680833333 ]
    }
  }, {
    "type" : "Feature",
    "properties" : {
      "TIPO_EVENTO" : "1",
      "DEPARTAMENTO" : "CORDOBA",
      "TIPO_AREA" : "Rural",
      "AÑO" : "2008",
      "MUNICIPIO" : "TIERRALTA"
    },
    "geometry" : {
      "type" : "Point",
      "coordinates" : [ -76.11111111, 7.410555556 ]
    }
  }, {
    "type" : "Feature",
    "properties" : {
      "TIPO_EVENTO" : "1",
      "DEPARTAMENTO" : "NARIÑO",
      "TIPO_AREA" : "Rural",
      "AÑO" : "2008",
      "MUNICIPIO" : "SANTA CRUZ"
    },
    "geometry" : {
      "type" : "Point",
      "coordinates" : [ -77.74194444, 1.3825 ]
    }
  }, {
    "type" : "Feature",
    "properties" : {
      "TIPO_EVENTO" : "1",
      "DEPARTAMENTO" : "META",
      "TIPO_AREA" : "Rural",
      "AÑO" : "2008",
      "MUNICIPIO" : "PUERTO RICO"
    },
    "geometry" : {
      "type" : "Point",
      "coordinates" : [ -73.47083333, 2.841666667 ]
    }
  }, {
    "type" : "Feature",
    "properties" : {
      "TIPO_EVENTO" : "1",
      "DEPARTAMENTO" : "CAQUETA",
      "TIPO_AREA" : "Rural",
      "AÑO" : "2008",
      "MUNICIPIO" : "SAN VICENTE DEL CAGUÁN"
    },
    "geometry" : {
      "type" : "Point",
      "coordinates" : [ -74.73689306, 2.385162222 ]
    }
  }, {
    "type" : "Feature",
    "properties" : {
      "TIPO_EVENTO" : "1",
      "DEPARTAMENTO" : "NORTE DE SANTANDER",
      "TIPO_AREA" : "Rural",
      "AÑO" : "2008",
      "MUNICIPIO" : "SARDINATA"
    },
    "geometry" : {
      "type" : "Point",
      "coordinates" : [ -72.99083333, 8.374166667 ]
    }
  }, {
    "type" : "Feature",
    "properties" : {
      "TIPO_EVENTO" : "1",
      "DEPARTAMENTO" : "BOLIVAR",
      "TIPO_AREA" : "Rural",
      "AÑO" : "2008",
      "MUNICIPIO" : "SIMITÍ"
    },
    "geometry" : {
      "type" : "Point",
      "coordinates" : [ -74.18888889, 7.6375 ]
    }
  }, {
    "type" : "Feature",
    "properties" : {
      "TIPO_EVENTO" : "1",
      "DEPARTAMENTO" : "VALLE DEL CAUCA",
      "TIPO_AREA" : "Rural",
      "AÑO" : "2008",
      "MUNICIPIO" : "FLORIDA"
    },
    "geometry" : {
      "type" : "Point",
      "coordinates" : [ -76.13666667, 3.393888889 ]
    }
  }, {
    "type" : "Feature",
    "properties" : {
      "TIPO_EVENTO" : "1",
      "DEPARTAMENTO" : "CORDOBA",
      "TIPO_AREA" : "Rural",
      "AÑO" : "2008",
      "MUNICIPIO" : "TIERRALTA"
    },
    "geometry" : {
      "type" : "Point",
      "coordinates" : [ -76.14361111, 7.445833333 ]
    }
  }, {
    "type" : "Feature",
    "properties" : {
      "TIPO_EVENTO" : "1",
      "DEPARTAMENTO" : "CORDOBA",
      "TIPO_AREA" : "Rural",
      "AÑO" : "2008",
      "MUNICIPIO" : "TIERRALTA"
    },
    "geometry" : {
      "type" : "Point",
      "coordinates" : [ -76.10027778, 7.496111111 ]
    }
  }, {
    "type" : "Feature",
    "properties" : {
      "TIPO_EVENTO" : "1",
      "DEPARTAMENTO" : "META",
      "TIPO_AREA" : "Rural",
      "AÑO" : "2008",
      "MUNICIPIO" : "URIBE"
    },
    "geometry" : {
      "type" : "Point",
      "coordinates" : [ -74.57194444, 2.735833333 ]
    }
  }, {
    "type" : "Feature",
    "properties" : {
      "TIPO_EVENTO" : "1",
      "DEPARTAMENTO" : "NORTE DE SANTANDER",
      "TIPO_AREA" : "Rural",
      "AÑO" : "2008",
      "MUNICIPIO" : "CONVENCIÓN"
    },
    "geometry" : {
      "type" : "Point",
      "coordinates" : [ -73.25861111, 8.727222222 ]
    }
  }, {
    "type" : "Feature",
    "properties" : {
      "TIPO_EVENTO" : "1",
      "DEPARTAMENTO" : "CASANARE",
      "TIPO_AREA" : "Rural",
      "AÑO" : "2008",
      "MUNICIPIO" : "AGUAZUL"
    },
    "geometry" : {
      "type" : "Point",
      "coordinates" : [ -72.59944444, 5.337222222 ]
    }
  }, {
    "type" : "Feature",
    "properties" : {
      "TIPO_EVENTO" : "1",
      "DEPARTAMENTO" : "META",
      "TIPO_AREA" : "Rural",
      "AÑO" : "2008",
      "MUNICIPIO" : "EL CASTILLO"
    },
    "geometry" : {
      "type" : "Point",
      "coordinates" : [ -73.94777778, 3.666666667 ]
    }
  }, {
    "type" : "Feature",
    "properties" : {
      "TIPO_EVENTO" : "1",
      "DEPARTAMENTO" : "GUAVIARE",
      "TIPO_AREA" : "Rural",
      "AÑO" : "2008",
      "MUNICIPIO" : "SAN JOSÉ DEL GUAVIARE"
    },
    "geometry" : {
      "type" : "Point",
      "coordinates" : [ -71.30277778, 2.918055556 ]
    }
  }, {
    "type" : "Feature",
    "properties" : {
      "TIPO_EVENTO" : "1",
      "DEPARTAMENTO" : "ANTIOQUIA",
      "TIPO_AREA" : "Rural",
      "AÑO" : "2008",
      "MUNICIPIO" : "SAN FRANCISCO"
    },
    "geometry" : {
      "type" : "Point",
      "coordinates" : [ -75.046, 5.945 ]
    }
  }, {
    "type" : "Feature",
    "properties" : {
      "TIPO_EVENTO" : "1",
      "DEPARTAMENTO" : "TOLIMA",
      "TIPO_AREA" : "Rural",
      "AÑO" : "2008",
      "MUNICIPIO" : "PLANADAS"
    },
    "geometry" : {
      "type" : "Point",
      "coordinates" : [ -75.78944444, 2.970555556 ]
    }
  }, {
    "type" : "Feature",
    "properties" : {
      "TIPO_EVENTO" : "1",
      "DEPARTAMENTO" : "NORTE DE SANTANDER",
      "TIPO_AREA" : "Rural",
      "AÑO" : "2008",
      "MUNICIPIO" : "SAN CALIXTO"
    },
    "geometry" : {
      "type" : "Point",
      "coordinates" : [ -73.09027778, 8.480833333 ]
    }
  }, {
    "type" : "Feature",
    "properties" : {
      "TIPO_EVENTO" : "1",
      "DEPARTAMENTO" : "CAQUETA",
      "TIPO_AREA" : "Rural",
      "AÑO" : "2008",
      "MUNICIPIO" : "SAN VICENTE DEL CAGUÁN"
    },
    "geometry" : {
      "type" : "Point",
      "coordinates" : [ -74.88277778, 2.696388889 ]
    }
  }, {
    "type" : "Feature",
    "properties" : {
      "TIPO_EVENTO" : "1",
      "DEPARTAMENTO" : "TOLIMA",
      "TIPO_AREA" : "Rural",
      "AÑO" : "2008",
      "MUNICIPIO" : "PLANADAS"
    },
    "geometry" : {
      "type" : "Point",
      "coordinates" : [ -75.85833333, 3.010277778 ]
    }
  }, {
    "type" : "Feature",
    "properties" : {
      "TIPO_EVENTO" : "1",
      "DEPARTAMENTO" : "CAUCA",
      "TIPO_AREA" : "Rural",
      "AÑO" : "2008",
      "MUNICIPIO" : "CALOTO"
    },