{
  "type" : "FeatureCollection",
  "features" : [ {
    "type" : "Feature",
    "properties" : {
      "TIPO_EVENTO" : "8",
      "DEPARTAMENTO" : "ANTIOQUIA",
      "TIPO_AREA" : "Rural",
      "AÑO" : "2015",
      "MUNICIPIO" : "BRICEÑO"
    },
    "geometry" : {
      "type" : "Point",
      "coordinates" : [ -75.6328, 7.103219 ]
    }
  }, {
    "type" : "Feature",
    "properties" : {
      "TIPO_EVENTO" : "1",
      "DEPARTAMENTO" : "ANTIOQUIA",
      "TIPO_AREA" : "Rural",
      "AÑO" : "2015",
      "MUNICIPIO" : "BRICEÑO"
    },
    "geometry" : {
      "type" : "Point",
      "coordinates" : [ -75.63296, 7.10683 ]
    }
  }, {
    "type" : "Feature",
    "properties" : {
      "TIPO_EVENTO" : "1",
      "DEPARTAMENTO" : "CAUCA",
      "TIPO_AREA" : "Rural",
      "AÑO" : "2015",
      "MUNICIPIO" : "EL TAMBO"
    },
    "geometry" : {
      "type" : "Point",
      "coordinates" : [ -76.94527778, 2.68 ]
    }
  }, {
    "type" : "Feature",
    "properties" : {
      "TIPO_EVENTO" : "1",
      "DEPARTAMENTO" : "META",
      "TIPO_AREA" : "Rural",
      "AÑO" : "2015",
      "MUNICIPIO" : "MESETAS"
    },
    "geometry" : {
      "type" : "Point",
      "coordinates" : [ -74.21083333, 3.438333333 ]
    }
  }, {
    "type" : "Feature",
    "properties" : {
      "TIPO_EVENTO" : "1",
      "DEPARTAMENTO" : "VALLE DEL CAUCA",
      "TIPO_AREA" : "Rural",
      "AÑO" : "2015",
      "MUNICIPIO" : "FLORIDA"
    },
    "geometry" : {
      "type" : "Point",
      "coordinates" : [ -76.16555556, 3.243333333 ]
    }
  }, {
    "type" : "Feature",
    "properties" : {
      "TIPO_EVENTO" : "1",
      "DEPARTAMENTO" : "CAUCA",
      "TIPO_AREA" : "Rural",
      "AÑO" : "2015",
      "MUNICIPIO" : "ARGELIA"
    },
    "geometry" : {
      "type" : "Point",
      "coordinates" : [ -77.24555556, 2.278888889 ]
    }
  }, {
    "type" : "Feature",
    "properties" : {
      "TIPO_EVENTO" : "1",
      "DEPARTAMENTO" : "ANTIOQUIA",
      "TIPO_AREA" : "Rural",
      "AÑO" : "2015",
      "MUNICIPIO" : "TARAZÁ"
    },
    "geometry" : {
      "type" : "Point",
      "coordinates" : [ -75.48277778, 7.433055556 ]
    }
  }, {
    "type" : "Feature",
    "properties" : {
      "TIPO_EVENTO" : "1",
      "DEPARTAMENTO" : "CAQUETA",
      "TIPO_AREA" : "Rural",
      "AÑO" : "2015",
      "MUNICIPIO" : "BELÉN DE LOS ANDAQUÍES"
    },
    "geometry" : {
      "type" : "Point",
      "coordinates" : [ -75.79722222, 1.56 ]
    }
  }, {
    "type" : "Feature",
    "properties" : {
      "TIPO_EVENTO" : "1",
      "DEPARTAMENTO" : "ANTIOQUIA",
      "TIPO_AREA" : "Rural",
      "AÑO" : "2015",
      "MUNICIPIO" : "TARAZÁ"
    },
    "geometry" : {
      "type" : "Point",
      "coordinates" : [ -75.27138889, 7.368333333 ]
    }
  }, {
    "type" : "Feature",
    "properties" : {
      "TIPO_EVENTO" : "1",
      "DEPARTAMENTO" : "CAQUETA",
      "TIPO_AREA" : "Rural",
      "AÑO" : "2015",
      "MUNICIPIO" : "SAN VICENTE DEL CAGUÁN"
    },
    "geometry" : {
      "type" : "Point",
      "coordinates" : [ -74.83861111, 2.585277778 ]
    }
  }, {
    "type" : "Feature",
    "properties" : {
      "TIPO_EVENTO" : "1",
      "DEPARTAMENTO" : "GUAVIARE",
      "TIPO_AREA" : "Rural",
      "AÑO" : "2015",
      "MUNICIPIO" : "CALAMAR"
    },
    "geometry" : {
      "type" : "Point",
      "coordinates" : [ -73.58861111, 1.668333333 ]
    }
  }, {
    "type" : "Feature",
    "properties" : {
      "TIPO_EVENTO" : "1",
      "DEPARTAMENTO" : "ANTIOQUIA",
      "TIPO_AREA" : "Rural",
      "AÑO" : "2015",
      "MUNICIPIO" : "TARAZÁ"
    },
    "geometry" : {
      "type" : "Point",
      "coordinates" : [ -75.50833333, 7.48 ]
    }
  }, {
    "type" : "Feature",
    "properties" : {
      "TIPO_EVENTO" : "1",
      "DEPARTAMENTO" : "CHOCO",
      "TIPO_AREA" : "Rural",
      "AÑO" : "2015",
      "MUNICIPIO" : "TADÓ"
    },
    "geometry" : {
      "type" : "Point",
      "coordinates" : [ -76.39333333, 5.304722222 ]
    }
  }, {
    "type" : "Feature",
    "properties" : {
      "TIPO_EVENTO" : "1",
      "DEPARTAMENTO" : "META",
      "TIPO_AREA" : "Rural",
      "AÑO" : "2015",
      "MUNICIPIO" : "URIBE"
    },
    "geometry" : {
      "type" : "Point",
      "coordinates" : [ -74.48555556, 2.980277778 ]
    }
  }, {
    "type" : "Feature",
    "properties" : {
      "TIPO_EVENTO" : "1",
      "DEPARTAMENTO" : "META",
      "TIPO_AREA" : "Rural",
      "AÑO" : "2015",
      "MUNICIPIO" : "MESETAS"
    },
    "geometry" : {
      "type" : "Point",
      "coordinates" : [ -74.25444444, 3.326388889 ]
    }
  }, {
    "type" : "Feature",
    "properties" : {
      "TIPO_EVENTO" : "1",
      "DEPARTAMENTO" : "PUTUMAYO",
      "TIPO_AREA" : "Rural",
      "AÑO" : "2015",
      "MUNICIPIO" : "PUERTO ASÍS"
    },
    "geometry" : {
      "type" : "Point",
      "coordinates" : [ -76.66833333, 0.3927777778 ]
    }
  }, {
    "type" : "Feature",
    "properties" : {
      "TIPO_EVENTO" : "1",
      "DEPARTAMENTO" : "NARIÑO",
      "TIPO_AREA" : "Rural",
      "AÑO" : "2015",
      "MUNICIPIO" : "TUMACO"
    },
    "geometry" : {
      "type" : "Point",
      "coordinates" : [ -78.70138889, 1.378333333 ]
    }
  }, {
    "type" : "Feature",
    "properties" : {
      "TIPO_EVENTO" : "1",
      "DEPARTAMENTO" : "CAUCA",
      "TIPO_AREA" : "Rural",
      "AÑO" : "2015",
      "MUNICIPIO" : "SUÁREZ"
    },
    "geometry" : {
      "type" : "Point",
      "coordinates" : [ -76.80861111, 3.099722222 ]
    }
  }, {
    "type" : "Feature",
    "properties" : {
      "TIPO_EVENTO" : "1",
      "DEPARTAMENTO" : "CAUCA",
      "TIPO_AREA" : "Rural",
      "AÑO" : "2015",
      "MUNICIPIO" : "SUÁREZ"
    },
    "geometry" : {
      "type" : "Point",
      "coordinates" : [ -76.80055556, 3.098333333 ]
    }
  }, {
    "type" : "Feature",
    "properties" : {
      "TIPO_EVENTO" : "1",
      "DEPARTAMENTO" : "ARAUCA",
      "TIPO_AREA" : "Rural",
      "AÑO" : "2015",
      "MUNICIPIO" : "TAME"
    },
    "geometry" : {
      "type" : "Point",
      "coordinates" : [ -71.57805556, 6.634444444 ]
    }
  }, {
    "type" : "Feature",
    "properties" : {
      "TIPO_EVENTO" : "1",
      "DEPARTAMENTO" : "CORDOBA",
      "TIPO_AREA" : "Rural",
      "AÑO" : "2015",
      "MUNICIPIO" : "TIERRALTA"
    },
    "geometry" : {
      "type" : "Point",
      "coordinates" : [ -76.14611111, 7.915555556 ]
    }
  }, {
    "type" : "Feature",
    "properties" : {
      "TIPO_EVENTO" : "1",
      "DEPARTAMENTO" : "ANTIOQUIA",
      "TIPO_AREA" : "Rural",
      "AÑO" : "2015",
      "MUNICIPIO" : "BRICEÑO"
    },
    "geometry" : {
      "type" : "Point",
      "coordinates" : [ -75.66638889, 7.091944444 ]
    }
  }, {
    "type" : "Feature",
    "properties" : {
      "TIPO_EVENTO" : "1",
      "DEPARTAMENTO" : "CAQUETA",
      "TIPO_AREA" : "Rural",
      "AÑO" : "2015",
      "MUNICIPIO" : "MONTAÑITA"
    },
    "geometry" : {
      "type" : "Point",
      "coordinates" : [ -75.12083333, 1.175555556 ]
    }
  }, {
    "type" : "Feature",
    "properties" : {
      "TIPO_EVENTO" : "1",
      "DEPARTAMENTO" : "CAQUETA",
      "TIPO_AREA" : "Rural",
      "AÑO" : "2015",
      "MUNICIPIO" : "CARTAGENA DEL CHAIRÁ"
    },
    "geometry" : {
      "type" : "Point",
      "coordinates" : [ -74.05361111, 0.2725 ]
    }
  }, {
    "type" : "Feature",
    "properties" : {
      "TIPO_EVENTO" : "1",
      "DEPARTAMENTO" : "GUAVIARE",
      "TIPO_AREA" : "Rural",
      "AÑO" : "2015",
      "MUNICIPIO" : "SAN JOSÉ DEL GUAVIARE"
    },
    "geometry" : {
      "type" : "Point",
      "coordinates" : [ -72.71333333, 2.548611111 ]
    }
  }, {
    "type" : "Feature",
    "properties" : {
      "TIPO_EVENTO" : "1",
      "DEPARTAMENTO" : "HUILA",
      "TIPO_AREA" : "Rural",
      "AÑO" : "2015",
      "MUNICIPIO" : "COLOMBIA"
    },
    "geometry" : {
      "type" : "Point",
      "coordinates" : [ -74.60138889, 3.664166667 ]
    }
  }, {
    "type" : "Feature",
    "properties" : {
      "TIPO_EVENTO" : "1",
      "DEPARTAMENTO" : "ANTIOQUIA",
      "TIPO_AREA" : "Rural",
      "AÑO" : "2015",
      "MUNICIPIO" : "EL BAGRE"
    },
    "geometry" : {
      "type" : "Point",
      "coordinates" : [ -74.66111111, 7.474444444 ]
    }
  }, {
    "type" : "Feature",
    "properties" : {
      "TIPO_EVENTO" : "1",
      "DEPARTAMENTO" : "ANTIOQUIA",
      "TIPO_AREA" : "Rural",
      "AÑO" : "2015",
      "MUNICIPIO" : "CÁCERES"
    },
    "geometry" : {
      "type" : "Point",
      "coordinates" : [ -75.10666667, 7.447777778 ]
    }
  }, {
    "type" : "Feature",
    "properties" : {
      "TIPO_EVENTO" : "1",
      "DEPARTAMENTO" : "META",
      "TIPO_AREA" : "Rural",
      "AÑO" : "2015",
      "MUNICIPIO" : "URIBE"
    },
    "geometry" : {
      "type" : "Point",
      "coordinates" : [ -74.38166667, 3.044722222 ]
    }
  }, {
    "type" : "Feature",
    "properties" : {
      "TIPO_EVENTO" : "1",
      "DEPARTAMENTO" : "CAUCA",
      "TIPO_AREA" : "Rural",
      "AÑO" : "2015",
      "MUNICIPIO" : "LÓPEZ"
    },
    "geometry" : {
      "type" : "Point",
      "coordinates" : [ -76.81472222, 3.103888889 ]
    }
  }, {
    "type" : "Feature",
    "properties" : {
      "TIPO_EVENTO" : "1",
      "DEPARTAMENTO" : "CAQUETA",
      "TIPO_AREA" : "Rural",
      "AÑO" : "2015",
      "MUNICIPIO" : "PUERTO RICO"
    },
    "geometry" : {
      "type" : "Point",
      "coordinates" : [ -75.11833333, 2.016111111 ]
    }
  }, {
    "type" : "Feature",
    "properties" : {
      "TIPO_EVENTO" : "1",
      "DEPARTAMENTO" : "CHOCO",
      "TIPO_AREA" : "Rural",
      "AÑO" : "2015",
      "MUNICIPIO" : "MEDIO ATRATO"
    },
    "geometry" : {
      "type" : "Point",
      "coordinates" : [ -76.58472222, 6.104444444 ]
    }
  }, {
    "type" : "Feature",
    "properties" : {
      "TIPO_EVENTO" : "1",
      "DEPARTAMENTO" : "CAQUETA",
      "TIPO_AREA" : "Rural",
      "AÑO" : "2015",
      "MUNICIPIO" : "MONTAÑITA"
    },
    "geometry" : {
      "type" : "Point",
      "coordinates" : [ -75.03444444, 1.028333333 ]
    }
  }, {
    "type" : "Feature",
    "properties" : {
      "TIPO_EVENTO" : "1",
      "DEPARTAMENTO" : "META",
      "TIPO_AREA" : "Rural",
      "AÑO" : "2015",
      "MUNICIPIO" : "URIBE"
    },
    "geometry" : {
      "type" : "Point",
      "coordinates" : [ -74.46333333, 3.368055556 ]
    }
  }, {
    "type" : "Feature",
    "properties" : {
      "TIPO_EVENTO" : "1",
      "DEPARTAMENTO" : "HUILA",
      "TIPO_AREA" : "Rural",
      "AÑO" : "2015",
      "MUNICIPIO" : "BARAYA"
    },
    "geometry" : {
      "type" : "Point",
      "coordinates" : [ -74.83694444, 3.073055556 ]
    }
  }, {
    "type" : "Feature",
    "properties" : {
      "TIPO_EVENTO" : "1",
      "DEPARTAMENTO" : "META",
      "TIPO_AREA" : "Rural",
      "AÑO" : "2015",
      "MUNICIPIO" : "URIBE"
    },
    "geometry" : {
      "type" : "Point",
      "coordinates" : [ -74.22916667, 2.571388889 ]
    }
  }, {
    "type" : "Feature",
    "properties" : {
      "TIPO_EVENTO" : "1",
      "DEPARTAMENTO" : "NARIÑO",
      "TIPO_AREA" : "Rural",
      "AÑO" : "2015",
      "MUNICIPIO" : "TUMACO"
    },
    "geometry" : {
      "type" : "Point",
      "coordinates" : [ -78.6475, 1.401666667 ]
    }
  }, {
    "type" : "Feature",
    "properties" : {
      "TIPO_EVENTO" : "1",
      "DEPARTAMENTO" : "TOLIMA",
      "TIPO_AREA" : "Rural",
      "AÑO" : "2015",
      "MUNICIPIO" : "CHAPARRAL"
    },
    "geometry" : {
      "type" : "Point",
      "coordinates" : [ -75.67138889, 3.655 ]
    }
  }, {
    "type" : "Feature",
    "properties" : {
      "TIPO_EVENTO" : "1",
      "DEPARTAMENTO" : "TOLIMA",
      "TIPO_AREA" : "Rural",
      "AÑO" : "2015",
      "MUNICIPIO" : "ROVIRA"
    },
    "geometry" : {
      "type" : "Point",
      "coordinates" : [ -75.44083333, 4.271666667 ]
    }
  }, {
    "type" : "Feature",
    "properties" : {
      "TIPO_EVENTO" : "1",
      "DEPARTAMENTO" : "ANTIOQUIA",
      "TIPO_AREA" : "Rural",
      "AÑO" : "2015",
      "MUNICIPIO" : "BRICEÑO"
    },
    "geometry" : {
      "type" : "Point",
      "coordinates" : [ -75.66111111, 7.102777778 ]
    }
  }, {
    "type" : "Feature",
    "properties" : {
      "TIPO_EVENTO" : "1",
      "DEPARTAMENTO" : "NORTE DE SANTANDER",
      "TIPO_AREA" : "Urbana",
      "AÑO" : "2015",
      "MUNICIPIO" : "CONVENCIÓN"
    },
    "geometry" : {
      "type" : "Point",
      "coordinates" : [ -73.3375, 8.473333333 ]
    }
  }, {
    "type" : "Feature",
    "properties" : {
      "TIPO_EVENTO" : "1",
      "DEPARTAMENTO" : "META",
      "TIPO_AREA" : "Rural",
      "AÑO" : "2015",
      "MUNICIPIO" : "URIBE"
    },
    "geometry" : {
      "type" : "Point",
      "coordinates" : [ -74.39166667, 2.9725 ]
    }
  }, {
    "type" : "Feature",
    "properties" : {
      "TIPO_EVENTO" : "1",
      "DEPARTAMENTO" : "NORTE DE SANTANDER",
      "TIPO_AREA" : "Rural",
      "AÑO" : "2015",
      "MUNICIPIO" : "TIBÚ"
    },
    "geometry" : {
      "type" : "Point",
      "coordinates" : [ -72.79972222, 8.846388889 ]
    }
  }, {
    "type" : "Feature",
    "properties" : {
      "TIPO_EVENTO" : "1",
      "DEPARTAMENTO" : "TOLIMA",
      "TIPO_AREA" : "Rural",
      "AÑO" : "2015",
      "MUNICIPIO" : "RIOBLANCO"
    },
    "geometry" : {
      "type" : "Point",
      "coordinates" : [ -75.80277778, 3.564444444 ]
    }
  }, {
    "type" : "Feature",
    "properties" : {
      "TIPO_EVENTO" : "1",
      "DEPARTAMENTO" : "META",
      "TIPO_AREA" : "Rural",
      "AÑO" : "2015",
      "MUNICIPIO" : "URIBE"
    },
    "geometry" : {
      "type" : "Point",
      "coordinates" : [ -74.18138889, 2.582777778 ]
    }
  }, {
    "type" : "Feature",
    "properties" : {
      "TIPO_EVENTO" : "1",
      "DEPARTAMENTO" : "CAUCA",
      "TIPO_AREA" : "Rural",
      "AÑO" : "2015",
      "MUNICIPIO" : "MIRANDA"
    },
    "geometry" : {
      "type" : "Point",
      "coordinates" : [ -76.17083333, 3.214166667 ]
    }
  }, {
    "type" : "Feature",
    "properties" : {
      "TIPO_EVENTO" : "1",
      "DEPARTAMENTO" : "NARIÑO",
      "TIPO_AREA" : "Rural",
      "AÑO" : "2015",
      "MUNICIPIO" : "TUMACO"
    },
    "geometry" : {
      "type" : "Point",
      "coordinates" : [ -78.62111111, 1.337222222 ]
    }
  }, {
    "type" : "Feature",
    "properties" : {
      "TIPO_EVENTO" : "1",
      "DEPARTAMENTO" : "CAQUETA",
      "TIPO_AREA" : "Rural",
      "AÑO" : "2015",
      "MUNICIPIO" : "SOLANO"
    },
    "geometry" : {
      "type" : "Point",
      "coordinates" : [ -74.99805556, 0.9858333333 ]
    }
  }, {
    "type" : "Feature",
    "properties" : {
      "TIPO_EVENTO" : "1",
      "DEPARTAMENTO" : "CAQUETA",
      "TIPO_AREA" : "Rural",
      "AÑO" : "2015",
      "MUNICIPIO" : "SOLANO"
    },
    "geometry" : {
      "type" : "Point",
      "coordinates" : [ -75.03916667, 0.9775 ]
    }
  }, {
    "type" : "Feature",
    "properties" : {
      "TIPO_EVENTO" : "1",
      "DEPARTAMENTO" : "CAQUETA",
      "TIPO_AREA" : "Rural",
      "AÑO" : "2015",
      "MUNICIPIO" : "SAN VICENTE DEL CAGUÁN"
    },
    "geometry" : {
      "type" : "Point",
      "coordinates" : [ -74.77166667, 2.597222222 ]
    }
  }, {
    "type" : "Feature",
    "properties" : {
      "TIPO_EVENTO" : "1",
      "DEPARTAMENTO" : "NARIÑO",
      "TIPO_AREA" : "Rural",
      "AÑO" : "2015",
      "MUNICIPIO" : "TUMACO"
    },
    "geometry" : {
      "type" : "Point",
      "coordinates" : [ -78.30361111, 1.429722222 ]
    }
  }, {
    "type" : "Feature",
    "properties" : {
      "TIPO_EVENTO" : "1",
      "DEPARTAMENTO" : "ANTIOQUIA",
      "TIPO_AREA" : "Rural",
      "AÑO" : "2015",
      "MUNICIPIO" : "ANGOSTURA"
    },
    "geometry" : {
      "type" : "Point",
      "coordinates" : [ -75.24972222, 6.9375 ]
    }
  }, {
    "type" : "Feature",
    "properties" : {
      "TIPO_EVENTO" : "1",
      "DEPARTAMENTO" : "ARAUCA",
      "TIPO_AREA" : "Rural",
      "AÑO" : "2015",
      "MUNICIPIO" : "ARAUQUITA"
    },
    "geometry" : {
      "type" : "Point",
      "coordinates" : [ -71.54138889, 6.974166667 ]
    }
  }, {
    "type" : "Feature",
    "properties" : {
      "TIPO_EVENTO" : "1",
      "DEPARTAMENTO" : "CAQUETA",
      "TIPO_AREA" : "Rural",
      "AÑO" : "2015",
      "MUNICIPIO" : "MONTAÑITA"
    },
    "geometry" : {
      "type" : "Point",
      "coordinates" : [ -75.04055556, 1.017222222 ]
    }
  }, {
    "type" : "Feature",
    "properties" : {
      "TIPO_EVENTO" : "1",
      "DEPARTAMENTO" : "CAUCA",
      "TIPO_AREA" : "Rural",
      "AÑO" : "2015",
      "MUNICIPIO" : "CORINTO"
    },
    "geometry" : {
      "type" : "Point",
      "coordinates" : [ -76.18861111, 3.170277778 ]
    }
  }, {
    "type" : "Feature",
    "properties" : {
      "TIPO_EVENTO" : "1",
      "DEPARTAMENTO" : "ARAUCA",
      "TIPO_AREA" : "Rural",
      "AÑO" : "2015",
      "MUNICIPIO" : "TAME"
    },
    "geometry" : {
      "type" : "Point",
      "coordinates" : [ -71.59527778, 6.626944444 ]
    }
  }, {
    "type" : "Feature",
    "properties" : {
      "TIPO_EVENTO" : "1",
      "DEPARTAMENTO" : "TOLIMA",
      "TIPO_AREA" : "Rural",
      "AÑO" : "2015",
      "MUNICIPIO" : "CHAPARRAL"
    },
    "geometry" : {
      "type" : "Point",
      "coordinates" : [ -75.68, 3.721944444 ]
    }
  }, {
    "type" : "Feature",
    "properties" : {
      "TIPO_EVENTO" : "1",
      "DEPARTAMENTO" : "META",
      "TIPO_AREA" : "Rural",
      "AÑO" : "2015",
      "MUNICIPIO" : "MESETAS"
    },
    "geometry" : {
      "type" : "Point",
      "coordinates" : [ -74.11722222, 3.458055556 ]
    }
  }, {
    "type" : "Feature",
    "properties" : {
      "TIPO_EVENTO" : "1",
      "DEPARTAMENTO" : "PUTUMAYO",
      "TIPO_AREA" : "Rural",
      "AÑO" : "2015",
      "MUNICIPIO" : "PUERTO ASÍS"
    },
    "geometry" : {
      "type" : "Point",
      "coordinates" : [ -76.29972222, 0.4611111111 ]
    }
  }, {
    "type" : "Feature",
    "properties" : {
      "TIPO_EVENTO" : "1",
      "DEPARTAMENTO" : "META",
      "TIPO_AREA" : "Rural",
      "AÑO" : "2015",
      "MUNICIPIO" : "URIBE"
    },
    "geometry" : {
      "type" : "Point",
      "coordinates" : [ -74.37277778, 2.822777778 ]
    }
  }, {
    "type" : "Feature",
    "properties" : {
      "TIPO_EVENTO" : "1",
      "DEPARTAMENTO" : "CHOCO",
      "TIPO_AREA" : "Rural",
      "AÑO" : "2015",
      "MUNICIPIO" : "QUIBDÓ"
    },
    "geometry" : {
      "type" : "Point",
      "coordinates" : [ -76.42583333, 5.751388889 ]
    }
  }, {
    "type" : "Feature",
    "properties" : {
      "TIPO_EVENTO" : "1",
      "DEPARTAMENTO" : "ANTIOQUIA",
      "TIPO_AREA" : "Rural",
      "AÑO" : "2015",
      "MUNICIPIO" : "ITUANGO"
    },
    "geometry" : {
      "type" : "Point",
      "coordinates" : [ -75.825, 7.236944 ]
    }
  }, {
    "type" : "Feature",
    "properties" : {
      "TIPO_EVENTO" : "1",
      "DEPARTAMENTO" : "ANTIOQUIA",
      "TIPO_AREA" : "Rural",
      "AÑO" : "2015",
      "MUNICIPIO" : "TARAZÁ"
    },
    "geometry" : {
      "type" : "Point",
      "coordinates" : [ -75.47805556, 7.486111111 ]
    }
  }, {
    "type" : "Feature",
    "properties" : {
      "TIPO_EVENTO" : "1",
      "DEPARTAMENTO" : "ANTIOQUIA",
      "TIPO_AREA" : "Rural",
      "AÑO" : "2015",
      "MUNICIPIO" : "TARAZÁ"
    },
    "geometry" : {
      "type" : "Point",
      "coordinates" : [ -75.71777778, 7.508888889 ]
    }
  }, {
    "type" : "Feature",
    "properties" : {
      "TIPO_EVENTO" : "1",
      "DEPARTAMENTO" : "CAQUETA",
      "TIPO_AREA" : "Rural",
      "AÑO" : "2015",
      "MUNICIPIO" : "MONTAÑITA"
    },
    "geometry" : {
      "type" : "Point",
      "coordinates" : [ -75.04527778, 1.102777778 ]
    }
  }, {
    "type" : "Feature",
    "properties" : {
      "TIPO_EVENTO" : "1",
      "DEPARTAMENTO" : "NORTE DE SANTANDER",
      "TIPO_AREA" : "Rural",
      "AÑO" : "2015",
      "MUNICIPIO" : "TEORAMA"
    },
    "geometry" : {
      "type" : "Point",
      "coordinates" : [ -73.19166667, 8.607222222 ]
    }
  }, {
    "type" : "Feature",
    "properties" : {
      "TIPO_EVENTO" : "1",
      "DEPARTAMENTO" : "META",
      "TIPO_AREA" : "Rural",
      "AÑO" : "2015",
      "MUNICIPIO" : "URIBE"
    },
    "geometry" : {
      "type" : "Point",
      "coordinates" : [ -74.46222222, 2.8125 ]
    }
  }, {
    "type" : "Feature",
    "properties" : {
      "TIPO_EVENTO" : "1",
      "DEPARTAMENTO" : "HUILA",
      "TIPO_AREA" : "Rural",
      "AÑO" : "2015",
      "MUNICIPIO" : "BARAYA"
    },
    "geometry" : {
      "type" : "Point",
      "coordinates" : [ -74.85111111, 3.092777778 ]
    }
  }, {
    "type" : "Feature",
    "properties" : {
      "TIPO_EVENTO" : "1",
      "DEPARTAMENTO" : "NORTE DE SANTANDER",
      "TIPO_AREA" : "Rural",
      "AÑO" : "2015",
      "MUNICIPIO" : "ÁBREGO"
    },
    "geometry" : {
      "type" : "Point",
      "coordinates" : [ -73.04, 8.246666667 ]
    }
  }, {
    "type" : "Feature",
    "properties" : {
      "TIPO_EVENTO" : "1",
      "DEPARTAMENTO" : "NORTE DE SANTANDER",
      "TIPO_AREA" : "Rural",
      "AÑO" : "2015",
      "MUNICIPIO" : "LA PLAYA"
    },
    "geometry" : {
      "type" : "Point",
      "coordinates" : [ -73.05388889, 8.246111111 ]
    }
  }, {
    "type" : "Feature",
    "properties" : {
      "TIPO_EVENTO" : "1",
      "DEPARTAMENTO" : "META",
      "TIPO_AREA" : "Rural",
      "AÑO" : "2015",
      "MUNICIPIO" : "URIBE"
    },
    "geometry" : {
      "type" : "Point",
      "coordinates" : [ -74.53083333, 2.717777778 ]
    }
  }, {
    "type" : "Feature",
    "properties" : {
      "TIPO_EVENTO" : "1",
      "DEPARTAMENTO" : "VALLE DEL CAUCA",
      "TIPO_AREA" : "Rural",
      "AÑO" : "2015",
      "MUNICIPIO" : "JAMUNDÍ"
    },
    "geometry" : {
      "type" : "Point",
      "coordinates" : [ -76.74444444, 3.15 ]
    }
  }, {
    "type" : "Feature",
    "properties" : {
      "TIPO_EVENTO" : "1",
      "DEPARTAMENTO" : "TOLIMA",
      "TIPO_AREA" : "Rural",
      "AÑO" : "2015",
      "MUNICIPIO" : "CHAPARRAL"
    },
    "geometry" : {
      "type" : "Point",
      "coordinates" : [ -75.67638889, 3.641111111 ]
    }
  }, {
    "type" : "Feature",
    "properties" : {
      "TIPO_EVENTO" : "1",
      "DEPARTAMENTO" : "ARAUCA",
      "TIPO_AREA" : "Rural",
      "AÑO" : "2015",
      "MUNICIPIO" : "FORTUL"
    },
    "geometry" : {
      "type" : "Point",
      "coordinates" : [ -71.73194444, 6.7775 ]
    }
  }, {
    "type" : "Feature",
    "properties" : {
      "TIPO_EVENTO" : "1",
      "DEPARTAMENTO" : "CHOCO",
      "TIPO_AREA" : "Rural",
      "AÑO" : "2015",
      "MUNICIPIO" : "TADÓ"
    },
    "geometry" : {
      "type" : "Point",
      "coordinates" : [ -76.36527778, 5.296944444 ]
    }
  }, {
    "type" : "Feature",
    "properties" : {
      "TIPO_EVENTO" : "1",
      "DEPARTAMENTO" : "ANTIOQUIA",
      "TIPO_AREA" : "Rural",
      "AÑO" : "2015",
      "MUNICIPIO" : "APARTADÓ"
    },
    "geometry" : {
      "type" : "Point",
      "coordinates" : [ -76.51305556, 7.931388889 ]
    }
  }, {
    "type" : "Feature",
    "properties" : {
      "TIPO_EVENTO" : "1",
      "DEPARTAMENTO" : "META",
      "TIPO_AREA" : "Rural",
      "AÑO" : "2015",
      "MUNICIPIO" : "URIBE"
    },
    "geometry" : {
      "type" : "Point",
      "coordinates" : [ -74.22472222, 2.764444444 ]
    }
  }, {
    "type" : "Feature",
    "properties" : {
      "TIPO_EVENTO" : "1",
      "DEPARTAMENTO" : "GUAVIARE",
      "TIPO_AREA" : "Rural",
      "AÑO" : "2015",
      "MUNICIPIO" : "SAN JOSÉ DEL GUAVIARE"
    },
    "geometry" : {
      "type" : "Point",
      "coordinates" : [ -73.2425, 2.323888889 ]
    }
  }, {
    "type" : "Feature",
    "properties" : {
      "TIPO_EVENTO" : "1",
      "DEPARTAMENTO" : "ARAUCA",
      "TIPO_AREA" : "Rural",
      "AÑO" : "2015",
      "MUNICIPIO" : "SARAVENA"
    },
    "geometry" : {
      "type" : "Point",
      "coordinates" : [ -71.825, 6.920277778 ]
    }
  }, {
    "type" : "Feature",
    "properties" : {
      "TIPO_EVENTO" : "1",
      "DEPARTAMENTO" : "ARAUCA",
      "TIPO_AREA" : "Rural",
      "AÑO" : "2015",
      "MUNICIPIO" : "SARAVENA"
    },
    "geometry" : {
      "type" : "Point",
      "coordinates" : [ -71.75333333, 6.815833333 ]
    }
  }, {
    "type" : "Feature",
    "properties" : {
      "TIPO_EVENTO" : "1",
      "DEPARTAMENTO" : "PUTUMAYO",
      "TIPO_AREA" : "Rural",
      "AÑO" : "2015",
      "MUNICIPIO" : "PUERTO GUZMÁN"
    },
    "geometry" : {
      "type" : "Point",
      "coordinates" : [ -76.1925, 0.9677777778 ]
    }
  }, {
    "type" : "Feature",
    "properties" : {
      "TIPO_EVENTO" : "1",
      "DEPARTAMENTO" : "CHOCO",
      "TIPO_AREA" : "Rural",
      "AÑO" : "2015",
      "MUNICIPIO" : "TADÓ"
    },
    "geometry" : {
      "type" : "Point",
      "coordinates" : [ -76.31111111, 5.312777778 ]
    }
  }, {
    "type" : "Feature",
    "properties" : {
      "TIPO_EVENTO" : "1",
      "DEPARTAMENTO" : "CHOCO",
      "TIPO_AREA" : "Rural",
      "AÑO" : "2015",
      "MUNICIPIO" : "TADÓ"
    },
    "geometry" : {
      "type" : "Point",
      "coordinates" : [ -76.35111111, 5.268611111 ]
    }
  }, {
    "type" : "Feature",
    "properties" : {
      "TIPO_EVENTO" : "1",
      "DEPARTAMENTO" : "CAQUETA",
      "TIPO_AREA" : "Rural",
      "AÑO" : "2015",
      "MUNICIPIO" : "MILÁN"
    },
    "geometry" : {
      "type" : "Point",
      "coordinates" : [ -75.27555556, 1.003333333 ]
    }
  }, {
    "type" : "Feature",
    "properties" : {
      "TIPO_EVENTO" : "1",
      "DEPARTAMENTO" : "NORTE DE SANTANDER",
      "TIPO_AREA" : "Rural",
      "AÑO" : "2015",
      "MUNICIPIO" : "TEORAMA"
    },
    "geometry" : {
      "type" : "Point",
      "coordinates" : [ -73.21916667, 8.619166667 ]
    }
  }, {
    "type" : "Feature",
    "properties" : {
      "TIPO_EVENTO" : "1",
      "DEPARTAMENTO" : "CAUCA",
      "TIPO_AREA" : "Rural",
      "AÑO" : "2015",
      "MUNICIPIO" : "PATÍA"
    },
    "geometry" : {
      "type" : "Point",
      "coordinates" : [ -77.05305556, 2.259166667 ]
    }
  }, {
    "type" : "Feature",
    "properties" : {
      "TIPO_EVENTO" : "1",
      "DEPARTAMENTO" : "NARIÑO",
      "TIPO_AREA" : "Rural",
      "AÑO" : "2015",
      "MUNICIPIO" : "TUMACO"
    },
    "geometry" : {
      "type" : "Point",
      "coordinates" : [ -78.31583333, 1.430277778 ]
    }
  }, {
    "type" : "Feature",
    "properties" : {
      "TIPO_EVENTO" : "1",
      "DEPARTAMENTO" : "NARIÑO",
      "TIPO_AREA" : "Rural",
      "AÑO" : "2015",
      "MUNICIPIO" : "TUMACO"
    },
    "geometry" : {
      "type" : "Point",
      "coordinates" : [ -78.58666667, 1.411666667 ]
    }
  }, {
    "type" : "Feature",
    "properties" : {
      "TIPO_EVENTO" : "1",
      "DEPARTAMENTO" : "CAUCA",
      "TIPO_AREA" : "Rural",
      "AÑO" : "2015",
      "MUNICIPIO" : "ARGELIA"
    },
    "geometry" : {
      "type" : "Point",
      "coordinates" : [ -77.2175, 2.373055556 ]
    }
  }, {
    "type" : "Feature",
    "properties" : {
      "TIPO_EVENTO" : "1",
      "DEPARTAMENTO" : "PUTUMAYO",
      "TIPO_AREA" : "Rural",
      "AÑO" : "2015",
      "MUNICIPIO" : "VALLE DEL GUAMUEZ"
    },
    "geometry" : {
      "type" : "Point",
      "coordinates" : [ -77.0775, 0.3911111111 ]
    }
  }, {
    "type" : "Feature",
    "properties" : {
      "TIPO_EVENTO" : "1",
      "DEPARTAMENTO" : "NORTE DE SANTANDER",
      "TIPO_AREA" : "Rural",
      "AÑO" : "2015",
      "MUNICIPIO" : "TEORAMA"
    },
    "geometry" : {
      "type" : "Point",
      "coordinates" : [ -73.28888889, 8.578333333 ]
    }
  }, {
    "type" : "Feature",
    "properties" : {
      "TIPO_EVENTO" : "1",
      "DEPARTAMENTO" : "CHOCO",
      "TIPO_AREA" : "Rural",
      "AÑO" : "2015",
      "MUNICIPIO" : "QUIBDÓ"
    },
    "geometry" : {
      "type" : "Point",
      "coordinates" : [ -76.425, 5.751111111 ]
    }
  }, {
    "type" : "Feature",
    "properties" : {
      "TIPO_EVENTO" : "1",
      "DEPARTAMENTO" : "PUTUMAYO",
      "TIPO_AREA" : "Rural",
      "AÑO" : "2015",
      "MUNICIPIO" : "PUERTO LEGUÍZAMO"
    },
    "geometry" : {
      "type" : "Point",
      "coordinates" : [ -75.86055556, 0.1466666667 ]
    }
  }, {
    "type" : "Feature",
    "properties" : {
      "TIPO_EVENTO" : "1",
      "DEPARTAMENTO" : "ARAUCA",
      "TIPO_AREA" : "Rural",
      "AÑO" : "2015",
      "MUNICIPIO" : "ARAUQUITA"
    },
    "geometry" : {
      "type" : "Point",
      "coordinates" : [ -71.33888889, 6.635555556 ]
    }
  }, {
    "type" : "Feature",
    "properties" : {
      "TIPO_EVENTO" : "1",
      "DEPARTAMENTO" : "HUILA",
      "TIPO_AREA" : "Rural",
      "AÑO" : "2015",
      "MUNICIPIO" : "COLOMBIA"
    },
    "geometry" : {
      "type" : "Point",
      "coordinates" : [ -74.58888889, 3.681944444 ]
    }
  }, {
    "type" : "Feature",
    "properties" : {
      "TIPO_EVENTO" : "1",
      "DEPARTAMENTO" : "ANTIOQUIA",
      "TIPO_AREA" : "Rural",
      "AÑO" : "2015",
      "MUNICIPIO" : "TURBO"
    },
    "geometry" : {
      "type" : "Point",
      "coordinates" : [ -76.739232, 8.0991596 ]
    }
  }, {
    "type" : "Feature",
    "properties" : {
      "TIPO_EVENTO" : "1",
      "DEPARTAMENTO" : "ANTIOQUIA",
      "TIPO_AREA" : "Rural",
      "AÑO" : "2015",
      "MUNICIPIO" : "TARAZÁ"
    },
    "geometry" : {
      "type" : "Point",
      "coordinates" : [ -75.4806351, 7.489208187 ]
    }
  }, {
    "type" : "Feature",
    "properties" : {
      "TIPO_EVENTO" : "1",
      "DEPARTAMENTO" : "CAUCA",
      "TIPO_AREA" : "Rural",
      "AÑO" : "2015",
      "MUNICIPIO" : "CAJIBÍO"
    },
    "geometry" : {
      "type" : "Point",
      "coordinates" : [ -76.570745, 2.622711 ]
    }
  }, {
    "type" : "Feature",
    "properties" : {
      "TIPO_EVENTO" : "1",
      "DEPARTAMENTO" : "CAQUETA",
      "TIPO_AREA" : "Rural",
      "AÑO" : "2015",
      "MUNICIPIO" : "MONTAÑITA"
    },
    "geometry" : {
      "type" : "Point",
      "coordinates" : [ -75.46308951, 1.494944213 ]
    }
  }, {
    "type" : "Feature",
    "properties" : {
      "TIPO_EVENTO" : "1",
      "DEPARTAMENTO" : "PUTUMAYO",
      "TIPO_AREA" : "Rural",
      "AÑO" : "2015",
      "MUNICIPIO" : "PUERTO ASÍS"
    },
    "geometry" : {
      "type" : "Point",
      "coordinates" : [ -76.28993864, 0.6606906111 ]
    }
  }, {
    "type" : "Feature",
    "properties" : {
      "TIPO_EVENTO" : "1",
      "DEPARTAMENTO" : "BOLIVAR",
      "TIPO_AREA" : "Rural",
      "AÑO" : "2015",
      "MUNICIPIO" : "MONTECRISTO"
    },
    "geometry" : {
      "type" : "Point",
      "coordinates" : [ -74.473165, 8.296544 ]
    }
  }, {
    "type" : "Feature",
    "properties" : {
      "TIPO_EVENTO" : "1",
      "DEPARTAMENTO" : "NARIÑO",
      "TIPO_AREA" : "Rural",
      "AÑO" : "2015",
      "MUNICIPIO" : "TUMACO"
    },
    "geometry" : {
      "type" : "Point",
      "coordinates" : [ -78.76393643, 1.793385843 ]
    }
  }, {
    "type" : "Feature",
    "properties" : {
      "TIPO_EVENTO" : "1",
      "DEPARTAMENTO" : "ANTIOQUIA",
      "TIPO_AREA" : "Rural",
      "AÑO" : "2015",
      "MUNICIPIO" : "ITUANGO"
    },
    "geometry" : {
      "type" : "Point",
      "coordinates" : [ -75.564503, 7.354932 ]
    }
  }, {
    "type" : "Feature",
    "properties" : {
      "TIPO_EVENTO" : "2",
      "DEPARTAMENTO" : "PUTUMAYO",
      "TIPO_AREA" : "Rural",
      "AÑO" : "2015",
      "MUNICIPIO" : "PUERTO ASÍS"
    },
    "geometry" : {
      "type" : "Point",
      "coordinates" : [ -76.50137002, 0.5167089034 ]
    }
  }, {
    "type" : "Feature",
    "properties" : {
      "TIPO_EVENTO" : "1",
      "DEPARTAMENTO" : "CAQUETA",
      "TIPO_AREA" : "Rural",
      "AÑO" : "2015",
      "MUNICIPIO" : "SAN VICENTE DEL CAGUÁN"
    },
    "geometry" : {
      "type" : "Point",
      "coordinates" : [ -74.7847134, 2.12794539 ]
    }
  }, {
    "type" : "Feature",
    "properties" : {
      "TIPO_EVENTO" : "1",
      "DEPARTAMENTO" : "CORDOBA",
      "TIPO_AREA" : "Rural",
      "AÑO" : "2015",
      "MUNICIPIO" : "PUERTO LIBERTADOR"
    },
    "geometry" : {
      "type" : "Point",
      "coordinates" : [ -75.67342365, 7.906547503 ]
    }
  }, {
    "type" : "Feature",
    "properties" : {
      "TIPO_EVENTO" : "1",
      "DEPARTAMENTO" : "ANTIOQUIA",
      "TIPO_AREA" : "Rural",
      "AÑO" : "2015",
      "MUNICIPIO" : "ANORÍ"
    },
    "geometry" : {
      "type" : "Point",
      "coordinates" : [ -75.02603616, 7.195800913 ]
    }
  }, {
    "type" : "Feature",
    "properties" : {
      "TIPO_EVENTO" : "2",
      "DEPARTAMENTO" : "NARIÑO",
      "TIPO_AREA" : "Rural",
      "AÑO" : "2015",
      "MUNICIPIO" : "TUMACO"
    },
    "geometry" : {
      "type" : "Point",
      "coordinates" : [ -78.76393643, 1.793385843 ]
    }
  }, {
    "type" : "Feature",
    "properties" : {
      "TIPO_EVENTO" : "1",
      "DEPARTAMENTO" : "BOLIVAR",
      "TIPO_AREA" : "Rural",
      "AÑO" : "2015",
      "MUNICIPIO" : "NOROSÍ"
    },
    "geometry" : {
      "type" : "Point",
      "coordinates" : [ -74.038285, 8.526933 ]
    }
  }, {
    "type" : "Feature",
    "properties" : {
      "TIPO_EVENTO" : "1",
      "DEPARTAMENTO" : "NARIÑO",
      "TIPO_AREA" : "Rural",
      "AÑO" : "2015",
      "MUNICIPIO" : "TUMACO"
    },
    "geometry" : {
      "type" : "Point",
      "coordinates" : [ -78.76393643, 1.793385843 ]
    }
  }, {
    "type" : "Feature",
    "properties" : {
      "TIPO_EVENTO" : "1",
      "DEPARTAMENTO" : "NARIÑO",
      "TIPO_AREA" : "Rural",
      "AÑO" : "2015",
      "MUNICIPIO" : "TUMACO"
    },
    "geometry" : {
      "type" : "Point",
      "coordinates" : [ -78.76393643, 1.793385843 ]
    }
  }, {
    "type" : "Feature",
    "properties" : {
      "TIPO_EVENTO" : "1",
      "DEPARTAMENTO" : "NARIÑO",
      "TIPO_AREA" : "Rural",
      "AÑO" : "2015",
      "MUNICIPIO" : "TUMACO"
    },
    "geometry" : {
      "type" : "Point",
      "coordinates" : [ -78.76393643, 1.793385843 ]
    }
  }, {
    "type" : "Feature",
    "properties" : {
      "TIPO_EVENTO" : "1",
      "DEPARTAMENTO" : "CHOCO",
      "TIPO_AREA" : "Rural",
      "AÑO" : "2015",
      "MUNICIPIO" : "LLORÓ"
    },
    "geometry" : {
      "type" : "Point",
      "coordinates" : [ -76.52329881, 5.503772765 ]
    }
  }, {
    "type" : "Feature",
    "properties" : {
      "TIPO_EVENTO" : "1",
      "DEPARTAMENTO" : "NARIÑO",
      "TIPO_AREA" : "Rural",
      "AÑO" : "2015",
      "MUNICIPIO" : "TUMACO"
    },
    "geometry" : {
      "type" : "Point",
      "coordinates" : [ -78.76393643, 1.793385843 ]
    }
  }, {
    "type" : "Feature",
    "properties" : {
      "TIPO_EVENTO" : "1",
      "DEPARTAMENTO" : "CAUCA",
      "TIPO_AREA" : "Rural",
      "AÑO" : "2015",
      "MUNICIPIO" : "MIRANDA"
    },
    "geometry" : {
      "type" : "Point",
      "coordinates" : [ -76.228589, 3.251737 ]
    }
  }, {
    "type" : "Feature",
    "properties" : {
      "TIPO_EVENTO" : "1",
      "DEPARTAMENTO" : "CAQUETA",
      "TIPO_AREA" : "Rural",
      "AÑO" : "2015",
      "MUNICIPIO" : "SAN VICENTE DEL CAGUÁN"
    },
    "geometry" : {
      "type" : "Point",
      "coordinates" : [ -74.768227, 2.120008 ]
    }
  }, {
    "type" : "Feature",
    "properties" : {
      "TIPO_EVENTO" : "1",
      "DEPARTAMENTO" : "NORTE DE SANTANDER",
      "TIPO_AREA" : "Rural",
      "AÑO" : "2015",
      "MUNICIPIO" : "EL ZULIA"
    },
    "geometry" : {
      "type" : "Point",
      "coordinates" : [ -72.57833333, 8.260277778 ]
    }
  }, {
    "type" : "Feature",
    "properties" : {
      "TIPO_EVENTO" : "1",
      "DEPARTAMENTO" : "CAQUETA",
      "TIPO_AREA" : "Rural",
      "AÑO" : "2015",
      "MUNICIPIO" : "SAN VICENTE DEL CAGUÁN"
    },
    "geometry" : {
      "type" : "Point",
      "coordinates" : [ -74.7847134, 2.12794539 ]
    }
  }, {
    "type" : "Feature",
    "properties" : {
      "TIPO_EVENTO" : "1",
      "DEPARTAMENTO" : "CAQUETA",
      "TIPO_AREA" : "Rural",
      "AÑO" : "2015",
      "MUNICIPIO" : "MONTAÑITA"
    },
    "geometry" : {
      "type" : "Point",
      "coordinates" : [ -75.46308951, 1.494944213 ]
    }
  }, {
    "type" : "Feature",
    "properties" : {
      "TIPO_EVENTO" : "2",
      "DEPARTAMENTO" : "CAUCA",
      "TIPO_AREA" : "Rural",
      "AÑO" : "2015",
      "MUNICIPIO" : "CORINTO"
    },
    "geometry" : {
      "type" : "Point",
      "coordinates" : [ -76.25403529, 3.172458038 ]
    }
  }, {
    "type" : "Feature",
    "properties" : {
      "TIPO_EVENTO" : "1",
      "DEPARTAMENTO" : "CAUCA",
      "TIPO_AREA" : "Rural",
      "AÑO" : "2015",
      "MUNICIPIO" : "BUENOS AIRES"
    },
    "geometry" : {
      "type" : "Point",
      "coordinates" : [ -76.63477775, 3.020210741 ]
    }
  }, {
    "type" : "Feature",
    "properties" : {
      "TIPO_EVENTO" : "1",
      "DEPARTAMENTO" : "CAQUETA",
      "TIPO_AREA" : "Rural",
      "AÑO" : "2015",
      "MUNICIPIO" : "MONTAÑITA"
    },
    "geometry" : {
      "type" : "Point",
      "coordinates" : [ -75.46308951, 1.494944213 ]
    }
  }, {
    "type" : "Feature",
    "properties" : {
      "TIPO_EVENTO" : "2",
      "DEPARTAMENTO" : "META",
      "TIPO_AREA" : "Rural",
      "AÑO" : "2015",
      "MUNICIPIO" : "MAPIRIPÁN"
    },
    "geometry" : {
      "type" : "Point",
      "coordinates" : [ -72.1513726, 2.882463303 ]
    }
  }, {
    "type" : "Feature",
    "properties" : {
      "TIPO_EVENTO" : "2",
      "DEPARTAMENTO" : "PUTUMAYO",
      "TIPO_AREA" : "Rural",
      "AÑO" : "2015",
      "MUNICIPIO" : "VALLE DEL GUAMUEZ"
    },
    "geometry" : {
      "type" : "Point",
      "coordinates" : [ -76.92336359, 0.4512224622 ]
    }
  }, {
    "type" : "Feature",
    "properties" : {
      "TIPO_EVENTO" : "2",
      "DEPARTAMENTO" : "PUTUMAYO",
      "TIPO_AREA" : "Rural",
      "AÑO" : "2015",
      "MUNICIPIO" : "PUERTO ASÍS"
    },
    "geometry" : {
      "type" : "Point",
      "coordinates" : [ -76.50137002, 0.5167089034 ]
    }
  }, {
    "type" : "Feature",
    "properties" : {
      "TIPO_EVENTO" : "1",
      "DEPARTAMENTO" : "ANTIOQUIA",
      "TIPO_AREA" : "Rural",
      "AÑO" : "2015",
      "MUNICIPIO" : "URRAO"
    },
    "geometry" : {
      "type" : "Point",
      "coordinates" : [ -76.12989443, 6.324534683 ]
    }
  }, {
    "type" : "Feature",
    "properties" : {
      "TIPO_EVENTO" : "1",
      "DEPARTAMENTO" : "NORTE DE SANTANDER",
      "TIPO_AREA" : "Rural",
      "AÑO" : "2015",
      "MUNICIPIO" : "HACARÍ"
    },
    "geometry" : {
      "type" : "Point",
      "coordinates" : [ -73.145699, 8.321825 ]
    }
  }, {
    "type" : "Feature",
    "properties" : {
      "TIPO_EVENTO" : "2",
      "DEPARTAMENTO" : "PUTUMAYO",
      "TIPO_AREA" : "Rural",
      "AÑO" : "2015",
      "MUNICIPIO" : "PUERTO GUZMÁN"
    },
    "geometry" : {
      "type" : "Point",
      "coordinates" : [ -76.37606157, 0.970935519 ]
    }
  }, {
    "type" : "Feature",
    "properties" : {
      "TIPO_EVENTO" : "1",
      "DEPARTAMENTO" : "ANTIOQUIA",
      "TIPO_AREA" : "Rural",
      "AÑO" : "2015",
      "MUNICIPIO" : "YARUMAL"
    },
    "geometry" : {
      "type" : "Point",
      "coordinates" : [ -75.42039078, 6.966081406 ]
    }
  }, {
    "type" : "Feature",
    "properties" : {
      "TIPO_EVENTO" : "1",
      "DEPARTAMENTO" : "NARIÑO",
      "TIPO_AREA" : "Rural",
      "AÑO" : "2015",
      "MUNICIPIO" : "TUMACO"
    },
    "geometry" : {
      "type" : "Point",
      "coordinates" : [ -78.76393643, 1.793385843 ]
    }
  }, {
    "type" : "Feature",
    "properties" : {
      "TIPO_EVENTO" : "1",
      "DEPARTAMENTO" : "CAQUETA",
      "TIPO_AREA" : "Rural",
      "AÑO" : "2015",
      "MUNICIPIO" : "MONTAÑITA"
    },
    "geometry" : {
      "type" : "Point",
      "coordinates" : [ -75.46308951, 1.494944213 ]
    }
  }, {
    "type" : "Feature",
    "properties" : {
      "TIPO_EVENTO" : "1",
      "DEPARTAMENTO" : "ANTIOQUIA",
      "TIPO_AREA" : "Rural",
      "AÑO" : "2015",
      "MUNICIPIO" : "PUERTO BERRÍO"
    },
    "geometry" : {
      "type" : "Point",
      "coordinates" : [ -74.407956, 6.485476 ]
    }
  }, {
    "type" : "Feature",
    "properties" : {
      "TIPO_EVENTO" : "1",
      "DEPARTAMENTO" : "CAUCA",
      "TIPO_AREA" : "Rural",
      "AÑO" : "2015",
      "MUNICIPIO" : "CORINTO"
    },
    "geometry" : {
      "type" : "Point",
      "coordinates" : [ -76.27111111, 3.120277778 ]
    }
  }, {
    "type" : "Feature",
    "properties" : {
      "TIPO_EVENTO" : "1",
      "DEPARTAMENTO" : "ANTIOQUIA",
      "TIPO_AREA" : "Rural",
      "AÑO" : "2015",
      "MUNICIPIO" : "TURBO"
    },
    "geometry" : {
      "type" : "Point",
      "coordinates" : [ -76.73923237, 8.099159651 ]
    }
  }, {
    "type" : "Feature",
    "properties" : {
      "TIPO_EVENTO" : "1",
      "DEPARTAMENTO" : "PUTUMAYO",
      "TIPO_AREA" : "Rural",
      "AÑO" : "2015",
      "MUNICIPIO" : "PUERTO GUZMÁN"
    },
    "geometry" : {
      "type" : "Point",
      "coordinates" : [ -76.37606157, 0.970935519 ]
    }
  }, {
    "type" : "Feature",
    "properties" : {
      "TIPO_EVENTO" : "2",
      "DEPARTAMENTO" : "CAUCA",
      "TIPO_AREA" : "Rural",
      "AÑO" : "2015",
      "MUNICIPIO" : "CALOTO"
    },
    "geometry" : {
      "type" : "Point",
      "coordinates" : [ -76.40078546, 3.038862636 ]
    }
  }, {
    "type" : "Feature",
    "properties" : {
      "TIPO_EVENTO" : "1",
      "DEPARTAMENTO" : "CHOCO",
      "TIPO_AREA" : "Rural",
      "AÑO" : "2015",
      "MUNICIPIO" : "RIOSUCIO"
    },
    "geometry" : {
      "type" : "Point",
      "coordinates" : [ -77.1211599, 7.433909044 ]
    }
  }, {
    "type" : "Feature",
    "properties" : {
      "TIPO_EVENTO" : "1",
      "DEPARTAMENTO" : "NARIÑO",
      "TIPO_AREA" : "Rural",
      "AÑO" : "2015",
      "MUNICIPIO" : "TUMACO"
    },
    "geometry" : {
      "type" : "Point",
      "coordinates" : [ -78.76393643, 1.793385843 ]
    }
  }, {
    "type" : "Feature",
    "properties" : {
      "TIPO_EVENTO" : "1",
      "DEPARTAMENTO" : "PUTUMAYO",
      "TIPO_AREA" : "Rural",
      "AÑO" : "2015",
      "MUNICIPIO" : "PUERTO LEGUÍZAMO"
    },
    "geometry" : {
      "type" : "Point",
      "coordinates" : [ -74.78148051, -0.1777574892 ]
    }
  }, {
    "type" : "Feature",
    "properties" : {
      "TIPO_EVENTO" : "1",
      "DEPARTAMENTO" : "CHOCO",
      "TIPO_AREA" : "Rural",
      "AÑO" : "2015",
      "MUNICIPIO" : "RIO IRÓ"
    },
    "geometry" : {
      "type" : "Point",
      "coordinates" : [ -76.45998907, 5.180705817 ]
    }
  }, {
    "type" : "Feature",
    "properties" : {
      "TIPO_EVENTO" : "4",
      "DEPARTAMENTO" : "NARIÑO",
      "TIPO_AREA" : "Rural",
      "AÑO" : "2015",
      "MUNICIPIO" : "TUMACO"
    },
    "geometry" : {
      "type" : "Point",
      "coordinates" : [ -78.65063889, 1.652083333 ]
    }
  }, {
    "type" : "Feature",
    "properties" : {
      "TIPO_EVENTO" : "4",
      "DEPARTAMENTO" : "PUTUMAYO",
      "TIPO_AREA" : "Rural",
      "AÑO" : "2015",
      "MUNICIPIO" : "PUERTO LEGUÍZAMO"
    },
    "geometry" : {
      "type" : "Point",
      "coordinates" : [ -75.99558333, 0.275638889 ]
    }
  }, {
    "type" : "Feature",
    "properties" : {
      "TIPO_EVENTO" : "4",
      "DEPARTAMENTO" : "PUTUMAYO",
      "TIPO_AREA" : "Rural",
      "AÑO" : "2015",
      "MUNICIPIO" : "PUERTO LEGUÍZAMO"
    },
    "geometry" : {
      "type" : "Point",
      "coordinates" : [ -75.98363889, 0.354277778 ]
    }
  }, {
    "type" : "Feature",
    "properties" : {
      "TIPO_EVENTO" : "4",
      "DEPARTAMENTO" : "NARIÑO",
      "TIPO_AREA" : "Rural",
      "AÑO" : "2015",
      "MUNICIPIO" : "OLAYA HERRERA"
    },
    "geometry" : {
      "type" : "Point",
      "coordinates" : [ -78.35136111, 2.348 ]
    }
  }, {
    "type" : "Feature",
    "properties" : {
      "TIPO_EVENTO" : "4",
      "DEPARTAMENTO" : "PUTUMAYO",
      "TIPO_AREA" : "Rural",
      "AÑO" : "2015",
      "MUNICIPIO" : "PUERTO LEGUÍZAMO"
    },
    "geometry" : {
      "type" : "Point",
      "coordinates" : [ -75.99627778, 0.3074166667 ]
    }
  }, {
    "type" : "Feature",
    "properties" : {
      "TIPO_EVENTO" : "4",
      "DEPARTAMENTO" : "VALLE DEL CAUCA",
      "TIPO_AREA" : "Rural",
      "AÑO" : "2015",
      "MUNICIPIO" : "BUENAVENTURA"
    },
    "geometry" : {
      "type" : "Point",
      "coordinates" : [ -76.98146667, 3.92855 ]
    }
  }, {
    "type" : "Feature",
    "properties" : {
      "TIPO_EVENTO" : "4",
      "DEPARTAMENTO" : "PUTUMAYO",
      "TIPO_AREA" : "Rural",
      "AÑO" : "2015",
      "MUNICIPIO" : "PUERTO LEGUÍZAMO"
    },
    "geometry" : {
      "type" : "Point",
      "coordinates" : [ -75.92944444, 0.2265555556 ]
    }
  }, {
    "type" : "Feature",
    "properties" : {
      "TIPO_EVENTO" : "4",
      "DEPARTAMENTO" : "PUTUMAYO",
      "TIPO_AREA" : "Rural",
      "AÑO" : "2015",
      "MUNICIPIO" : "PUERTO LEGUÍZAMO"
    },
    "geometry" : {
      "type" : "Point",
      "coordinates" : [ -75.99486111, 0.2805833333 ]
    }
  }, {
    "type" : "Feature",
    "properties" : {
      "TIPO_EVENTO" : "4",
      "DEPARTAMENTO" : "CHOCO",
      "TIPO_AREA" : "Rural",
      "AÑO" : "2015",
      "MUNICIPIO" : "NUQUÍ"
    },
    "geometry" : {
      "type" : "Point",
      "coordinates" : [ -77.37222222, 5.526111111 ]
    }
  }, {
    "type" : "Feature",
    "properties" : {
      "TIPO_EVENTO" : "4",
      "DEPARTAMENTO" : "PUTUMAYO",
      "TIPO_AREA" : "Rural",
      "AÑO" : "2015",
      "MUNICIPIO" : "PUERTO LEGUÍZAMO"
    },
    "geometry" : {
      "type" : "Point",
      "coordinates" : [ -75.99536111, 0.2840833333 ]
    }
  }, {
    "type" : "Feature",
    "properties" : {
      "TIPO_EVENTO" : "4",
      "DEPARTAMENTO" : "META",
      "TIPO_AREA" : "Rural",
      "AÑO" : "2015",
      "MUNICIPIO" : "MESETAS"
    },
    "geometry" : {
      "type" : "Point",
      "coordinates" : [ -74.23222222, 3.152222222 ]
    }
  }, {
    "type" : "Feature",
    "properties" : {
      "TIPO_EVENTO" : "4",
      "DEPARTAMENTO" : "CHOCO",
      "TIPO_AREA" : "Rural",
      "AÑO" : "2015",
      "MUNICIPIO" : "JURADÓ"
    },
    "geometry" : {
      "type" : "Point",
      "coordinates" : [ -77.52586111, 6.664222222 ]
    }
  }, {
    "type" : "Feature",
    "properties" : {
      "TIPO_EVENTO" : "4",
      "DEPARTAMENTO" : "PUTUMAYO",
      "TIPO_AREA" : "Rural",
      "AÑO" : "2015",
      "MUNICIPIO" : "PUERTO LEGUÍZAMO"
    },
    "geometry" : {
      "type" : "Point",
      "coordinates" : [ -76.04258333, 0.308416667 ]
    }
  }, {
    "type" : "Feature",
    "properties" : {
      "TIPO_EVENTO" : "4",
      "DEPARTAMENTO" : "VALLE DEL CAUCA",
      "TIPO_AREA" : "Rural",
      "AÑO" : "2015",
      "MUNICIPIO" : "BUENAVENTURA"
    },
    "geometry" : {
      "type" : "Point",
      "coordinates" : [ -77.01723056, 4.055022222 ]
    }
  }, {
    "type" : "Feature",
    "properties" : {
      "TIPO_EVENTO" : "4",
      "DEPARTAMENTO" : "CAQUETA",
      "TIPO_AREA" : "Rural",
      "AÑO" : "2015",
      "MUNICIPIO" : "CARTAGENA DEL CHAIRÁ"
    },
    "geometry" : {
      "type" : "Point",
      "coordinates" : [ -74.61666667, 0.8145 ]
    }
  }, {
    "type" : "Feature",
    "properties" : {
      "TIPO_EVENTO" : "4",
      "DEPARTAMENTO" : "CAQUETA",
      "TIPO_AREA" : "Rural",
      "AÑO" : "2015",
      "MUNICIPIO" : "CARTAGENA DEL CHAIRÁ"
    },
    "geometry" : {
      "type" : "Point",
      "coordinates" : [ -74.71, 1.003611111 ]
    }
  }, {
    "type" : "Feature",
    "properties" : {
      "TIPO_EVENTO" : "4",
      "DEPARTAMENTO" : "CAQUETA",
      "TIPO_AREA" : "Rural",
      "AÑO" : "2015",
      "MUNICIPIO" : "CARTAGENA DEL CHAIRÁ"
    },
    "geometry" : {
      "type" : "Point",
      "coordinates" : [ -74.10472222, 0.320555556 ]
    }
  }, {
    "type" : "Feature",
    "properties" : {
      "TIPO_EVENTO" : "4",
      "DEPARTAMENTO" : "BOLIVAR",
      "TIPO_AREA" : "Rural",
      "AÑO" : "2015",
      "MUNICIPIO" : "SAN JACINTO"
    },
    "geometry" : {
      "type" : "Point",
      "coordinates" : [ -74.95802778, 9.820805556 ]
    }
  }, {
    "type" : "Feature",
    "properties" : {
      "TIPO_EVENTO" : "4",
      "DEPARTAMENTO" : "META",
      "TIPO_AREA" : "Rural",
      "AÑO" : "2015",
      "MUNICIPIO" : "PUERTO CONCORDIA"
    },
    "geometry" : {
      "type" : "Point",
      "coordinates" : [ -72.85161111, 2.599111111 ]
    }
  }, {
    "type" : "Feature",
    "properties" : {
      "TIPO_EVENTO" : "4",
      "DEPARTAMENTO" : "CAQUETA",
      "TIPO_AREA" : "Rural",
      "AÑO" : "2015",
      "MUNICIPIO" : "CARTAGENA DEL CHAIRÁ"
    },
    "geometry" : {
      "type" : "Point",
      "coordinates" : [ -74.15416667, 0.434166667 ]
    }
  }, {
    "type" : "Feature",
    "properties" : {
      "TIPO_EVENTO" : "4",
      "DEPARTAMENTO" : "GUAVIARE",
      "TIPO_AREA" : "Rural",
      "AÑO" : "2015",
      "MUNICIPIO" : "SAN JOSÉ DEL GUAVIARE"
    },
    "geometry" : {
      "type" : "Point",
      "coordinates" : [ -71.56605556, 2.867361111 ]
    }
  }, {
    "type" : "Feature",
    "properties" : {
      "TIPO_EVENTO" : "4",
      "DEPARTAMENTO" : "ARAUCA",
      "TIPO_AREA" : "Rural",
      "AÑO" : "2015",
      "MUNICIPIO" : "ARAUQUITA"
    },
    "geometry" : {
      "type" : "Point",
      "coordinates" : [ -71.44830556, 7.010011111 ]
    }
  }, {
    "type" : "Feature",
    "properties" : {
      "TIPO_EVENTO" : "4",
      "DEPARTAMENTO" : "CAQUETA",
      "TIPO_AREA" : "Rural",
      "AÑO" : "2015",
      "MUNICIPIO" : "CARTAGENA DEL CHAIRÁ"
    },
    "geometry" : {
      "type" : "Point",
      "coordinates" : [ -74.15277778, 0.383611111 ]
    }
  }, {
    "type" : "Feature",
    "properties" : {
      "TIPO_EVENTO" : "4",
      "DEPARTAMENTO" : "VALLE DEL CAUCA",
      "TIPO_AREA" : "Rural",
      "AÑO" : "2015",
      "MUNICIPIO" : "BUENAVENTURA"
    },
    "geometry" : {
      "type" : "Point",
      "coordinates" : [ -76.96611111, 3.675277778 ]
    }
  }, {
    "type" : "Feature",
    "properties" : {
      "TIPO_EVENTO" : "4",
      "DEPARTAMENTO" : "CHOCO",
      "TIPO_AREA" : "Rural",
      "AÑO" : "2015",
      "MUNICIPIO" : "BAJO BAUDÓ"
    },
    "geometry" : {
      "type" : "Point",
      "coordinates" : [ -77.24138889, 4.7725 ]
    }
  }, {
    "type" : "Feature",
    "properties" : {
      "TIPO_EVENTO" : "4",
      "DEPARTAMENTO" : "CAQUETA",
      "TIPO_AREA" : "Rural",
      "AÑO" : "2015",
      "MUNICIPIO" : "CARTAGENA DEL CHAIRÁ"
    },
    "geometry" : {
      "type" : "Point",
      "coordinates" : [ -74.40222222, 0.591944444 ]
    }
  }, {
    "type" : "Feature",
    "properties" : {
      "TIPO_EVENTO" : "4",
      "DEPARTAMENTO" : "SUCRE",
      "TIPO_AREA" : "Rural",
      "AÑO" : "2015",
      "MUNICIPIO" : "CHALÁN"
    },
    "geometry" : {
      "type" : "Point",
      "coordinates" : [ -75.34694444, 9.582777778 ]
    }
  }, {
    "type" : "Feature",
    "properties" : {
      "TIPO_EVENTO" : "4",
      "DEPARTAMENTO" : "PUTUMAYO",
      "TIPO_AREA" : "Rural",
      "AÑO" : "2015",
      "MUNICIPIO" : "PUERTO ASÍS"
    },
    "geometry" : {
      "type" : "Point",
      "coordinates" : [ -76.31083333, 0.436083333 ]
    }
  }, {
    "type" : "Feature",
    "properties" : {
      "TIPO_EVENTO" : "4",
      "DEPARTAMENTO" : "PUTUMAYO",
      "TIPO_AREA" : "Rural",
      "AÑO" : "2015",
      "MUNICIPIO" : "PUERTO ASÍS"
    },
    "geometry" : {
      "type" : "Point",
      "coordinates" : [ -76.31147222, 0.433194444 ]
    }
  }, {
    "type" : "Feature",
    "properties" : {
      "TIPO_EVENTO" : "4",
      "DEPARTAMENTO" : "NARIÑO",
      "TIPO_AREA" : "Rural",
      "AÑO" : "2015",
      "MUNICIPIO" : "TUMACO"
    },
    "geometry" : {
      "type" : "Point",
      "coordinates" : [ -78.52641667, 1.811972222 ]
    }
  }, {
    "type" : "Feature",
    "properties" : {
      "TIPO_EVENTO" : "4",
      "DEPARTAMENTO" : "PUTUMAYO",
      "TIPO_AREA" : "Rural",
      "AÑO" : "2015",
      "MUNICIPIO" : "PUERTO ASÍS"
    },
    "geometry" : {
      "type" : "Point",
      "coordinates" : [ -76.30444444, 0.429722222 ]
    }
  }, {
    "type" : "Feature",
    "properties" : {
      "TIPO_EVENTO" : "4",
      "DEPARTAMENTO" : "PUTUMAYO",
      "TIPO_AREA" : "Rural",
      "AÑO" : "2015",
      "MUNICIPIO" : "PUERTO ASÍS"
    },
    "geometry" : {
      "type" : "Point",
      "coordinates" : [ -76.47251944, 0.434186111 ]
    }
  }, {
    "type" : "Feature",
    "properties" : {
      "TIPO_EVENTO" : "4",
      "DEPARTAMENTO" : "PUTUMAYO",
      "TIPO_AREA" : "Rural",
      "AÑO" : "2015",
      "MUNICIPIO" : "PUERTO LEGUÍZAMO"
    },
    "geometry" : {
      "type" : "Point",
      "coordinates" : [ -75.98213889, 0.254666666 ]
    }
  }, {
    "type" : "Feature",
    "properties" : {
      "TIPO_EVENTO" : "4",
      "DEPARTAMENTO" : "PUTUMAYO",
      "TIPO_AREA" : "Rural",
      "AÑO" : "2015",
      "MUNICIPIO" : "PUERTO LEGUÍZAMO"
    },
    "geometry" : {
      "type" : "Point",
      "coordinates" : [ -76.01172222, 0.308194444 ]
    }
  }, {
    "type" : "Feature",
    "properties" : {
      "TIPO_EVENTO" : "4",
      "DEPARTAMENTO" : "BOLIVAR",
      "TIPO_AREA" : "Urbana",
      "AÑO" : "2015",
      "MUNICIPIO" : "SAN PABLO"
    },
    "geometry" : {
      "type" : "Point",
      "coordinates" : [ -73.935175, 7.480222222 ]
    }
  }, {
    "type" : "Feature",
    "properties" : {
      "TIPO_EVENTO" : "4",
      "DEPARTAMENTO" : "BOLIVAR",
      "TIPO_AREA" : "Urbana",
      "AÑO" : "2015",
      "MUNICIPIO" : "SAN PABLO"
    },
    "geometry" : {
      "type" : "Point",
      "coordinates" : [ -73.93027778, 7.479444444 ]
    }
  }, {
    "type" : "Feature",
    "properties" : {
      "TIPO_EVENTO" : "4",
      "DEPARTAMENTO" : "ANTIOQUIA",
      "TIPO_AREA" : "Rural",
      "AÑO" : "2015",
      "MUNICIPIO" : "VIGÍA DEL FUERTE"
    },
    "geometry" : {
      "type" : "Point",
      "coordinates" : [ -76.89555556, 6.5875 ]
    }
  }, {
    "type" : "Feature",
    "properties" : {
      "TIPO_EVENTO" : "4",
      "DEPARTAMENTO" : "GUAVIARE",
      "TIPO_AREA" : "Rural",
      "AÑO" : "2015",
      "MUNICIPIO" : "SAN JOSÉ DEL GUAVIARE"
    },
    "geometry" : {
      "type" : "Point",
      "coordinates" : [ -72.59661111, 2.51325 ]
    }
  }, {
    "type" : "Feature",
    "properties" : {
      "TIPO_EVENTO" : "4",
      "DEPARTAMENTO" : "PUTUMAYO",
      "TIPO_AREA" : "Rural",
      "AÑO" : "2015",
      "MUNICIPIO" : "PUERTO ASÍS"
    },
    "geometry" : {
      "type" : "Point",
      "coordinates" : [ -76.29538889, 0.423027778 ]
    }
  }, {
    "type" : "Feature",
    "properties" : {
      "TIPO_EVENTO" : "4",
      "DEPARTAMENTO" : "PUTUMAYO",
      "TIPO_AREA" : "Rural",
      "AÑO" : "2015",
      "MUNICIPIO" : "PUERTO LEGUÍZAMO"
    },
    "geometry" : {
      "type" : "Point",
      "coordinates" : [ -75.93069444, 0.1975 ]
    }
  }, {
    "type" : "Feature",
    "properties" : {
      "TIPO_EVENTO" : "4",
      "DEPARTAMENTO" : "ANTIOQUIA",
      "TIPO_AREA" : "Rural",
      "AÑO" : "2015",
      "MUNICIPIO" : "YONDÓ"
    },
    "geometry" : {
      "type" : "Point",
      "coordinates" : [ -73.98555556, 6.958055556 ]
    }
  }, {
    "type" : "Feature",
    "properties" : {
      "TIPO_EVENTO" : "4",
      "DEPARTAMENTO" : "PUTUMAYO",
      "TIPO_AREA" : "Rural",
      "AÑO" : "2015",
      "MUNICIPIO" : "PUERTO ASÍS"
    },
    "geometry" : {
      "type" : "Point",
      "coordinates" : [ -76.36549167, 0.393019444 ]
    }
  }, {
    "type" : "Feature",
    "properties" : {
      "TIPO_EVENTO" : "4",
      "DEPARTAMENTO" : "SANTANDER",
      "TIPO_AREA" : "Rural",
      "AÑO" : "2015",
      "MUNICIPIO" : "BARRANCABERMEJA"
    },
    "geometry" : {
      "type" : "Point",
      "coordinates" : [ -73.91388889, 7.16 ]
    }
  }, {
    "type" : "Feature",
    "properties" : {
      "TIPO_EVENTO" : "4",
      "DEPARTAMENTO" : "TOLIMA",
      "TIPO_AREA" : "Rural",
      "AÑO" : "2015",
      "MUNICIPIO" : "IBAGUÉ"
    },
    "geometry" : {
      "type" : "Point",
      "coordinates" : [ -75.10640556, 4.431405556 ]
    }
  }, {
    "type" : "Feature",
    "properties" : {
      "TIPO_EVENTO" : "4",
      "DEPARTAMENTO" : "TOLIMA",
      "TIPO_AREA" : "Rural",
      "AÑO" : "2015",
      "MUNICIPIO" : "IBAGUÉ"
    },
    "geometry" : {
      "type" : "Point",
      "coordinates" : [ -75.10638889, 4.481388889 ]
    }
  }, {
    "type" : "Feature",
    "properties" : {
      "TIPO_EVENTO" : "4",
      "DEPARTAMENTO" : "VALLE DEL CAUCA",
      "TIPO_AREA" : "Rural",
      "AÑO" : "2015",
      "MUNICIPIO" : "BUENAVENTURA"
    },
    "geometry" : {
      "type" : "Point",
      "coordinates" : [ -77.41722222, 3.259583333 ]
    }
  }, {
    "type" : "Feature",
    "properties" : {
      "TIPO_EVENTO" : "4",
      "DEPARTAMENTO" : "ARAUCA",
      "TIPO_AREA" : "Rural",
      "AÑO" : "2015",
      "MUNICIPIO" : "ARAUQUITA"
    },
    "geometry" : {
      "type" : "Point",
      "coordinates" : [ -71.43166667, 7.025 ]
    }
  }, {
    "type" : "Feature",
    "properties" : {
      "TIPO_EVENTO" : "4",
      "DEPARTAMENTO" : "PUTUMAYO",
      "TIPO_AREA" : "Rural",
      "AÑO" : "2015",
      "MUNICIPIO" : "SAN MIGUEL"
    },
    "geometry" : {
      "type" : "Point",
      "coordinates" : [ -76.65388889, 0.253055556 ]
    }
  }, {
    "type" : "Feature",
    "properties" : {
      "TIPO_EVENTO" : "4",
      "DEPARTAMENTO" : "CHOCO",
      "TIPO_AREA" : "Rural",
      "AÑO" : "2015",
      "MUNICIPIO" : "JURADÓ"
    },
    "geometry" : {
      "type" : "Point",
      "coordinates" : [ -77.57569444, 6.803897222 ]
    }
  }, {
    "type" : "Feature",
    "properties" : {
      "TIPO_EVENTO" : "4",
      "DEPARTAMENTO" : "SANTANDER",
      "TIPO_AREA" : "Rural",
      "AÑO" : "2015",
      "MUNICIPIO" : "BARRANCABERMEJA"
    },
    "geometry" : {
      "type" : "Point",
      "coordinates" : [ -73.8725, 7.031111111 ]
    }
  }, {
    "type" : "Feature",
    "properties" : {
      "TIPO_EVENTO" : "4",
      "DEPARTAMENTO" : "CHOCO",
      "TIPO_AREA" : "Rural",
      "AÑO" : "2015",
      "MUNICIPIO" : "BAJO BAUDÓ"
    },
    "geometry" : {
      "type" : "Point",
      "coordinates" : [ -77.36638889, 5.427777778 ]
    }
  }, {
    "type" : "Feature",
    "properties" : {
      "TIPO_EVENTO" : "4",
      "DEPARTAMENTO" : "CHOCO",
      "TIPO_AREA" : "Rural",
      "AÑO" : "2015",
      "MUNICIPIO" : "BAJO BAUDÓ"
    },
    "geometry" : {
      "type" : "Point",
      "coordinates" : [ -77.36416667, 4.938888889 ]
    }
  }, {
    "type" : "Feature",
    "properties" : {
      "TIPO_EVENTO" : "4",
      "DEPARTAMENTO" : "PUTUMAYO",
      "TIPO_AREA" : "Rural",
      "AÑO" : "2015",
      "MUNICIPIO" : "PUERTO LEGUÍZAMO"
    },
    "geometry" : {
      "type" : "Point",
      "coordinates" : [ -75.93611111, 0.149722222 ]
    }
  }, {
    "type" : "Feature",
    "properties" : {
      "TIPO_EVENTO" : "4",
      "DEPARTAMENTO" : "NORTE DE SANTANDER",
      "TIPO_AREA" : "Rural",
      "AÑO" : "2015",
      "MUNICIPIO" : "CONVENCIÓN"
    },
    "geometry" : {
      "type" : "Point",
      "coordinates" : [ -73.30777778, 8.600555556 ]
    }
  }, {
    "type" : "Feature",
    "properties" : {
      "TIPO_EVENTO" : "4",
      "DEPARTAMENTO" : "PUTUMAYO",
      "TIPO_AREA" : "Rural",
      "AÑO" : "2015",
      "MUNICIPIO" : "PUERTO ASÍS"
    },
    "geometry" : {
      "type" : "Point",
      "coordinates" : [ -76.52888889, 0.5363888889 ]
    }
  }, {
    "type" : "Feature",
    "properties" : {
      "TIPO_EVENTO" : "4",
      "DEPARTAMENTO" : "ANTIOQUIA",
      "TIPO_AREA" : "Rural",
      "AÑO" : "2015",
      "MUNICIPIO" : "ANORÍ"
    },
    "geometry" : {
      "type" : "Point",
      "coordinates" : [ -75.05916667, 7.323611111 ]
    }
  }, {
    "type" : "Feature",
    "properties" : {
      "TIPO_EVENTO" : "4",
      "DEPARTAMENTO" : "CAUCA",
      "TIPO_AREA" : "Rural",
      "AÑO" : "2015",
      "MUNICIPIO" : "CALOTO"
    },
    "geometry" : {
      "type" : "Point",
      "coordinates" : [ -76.30472222, 3.09 ]
    }
  }, {
    "type" : "Feature",
    "properties" : {
      "TIPO_EVENTO" : "4",
      "DEPARTAMENTO" : "CAUCA",
      "TIPO_AREA" : "Rural",
      "AÑO" : "2015",
      "MUNICIPIO" : "CALOTO"
    },
    "geometry" : {
      "type" : "Point",
      "coordinates" : [ -76.27833333, 3.064166667 ]
    }
  }, {
    "type" : "Feature",
    "properties" : {
      "TIPO_EVENTO" : "4",
      "DEPARTAMENTO" : "META",
      "TIPO_AREA" : "Rural",
      "AÑO" : "2015",
      "MUNICIPIO" : "CUBARRAL"
    },
    "geometry" : {
      "type" : "Point",
      "coordinates" : [ -74.36138889, 3.738055556 ]
    }
  }, {
    "type" : "Feature",
    "properties" : {
      "TIPO_EVENTO" : "4",
      "DEPARTAMENTO" : "META",
      "TIPO_AREA" : "Rural",
      "AÑO" : "2015",
      "MUNICIPIO" : "MESETAS"
    },
    "geometry" : {
      "type" : "Point",
      "coordinates" : [ -74.20166667, 3.103055556 ]
    }
  }, {
    "type" : "Feature",
    "properties" : {
      "TIPO_EVENTO" : "4",
      "DEPARTAMENTO" : "CAUCA",
      "TIPO_AREA" : "Rural",
      "AÑO" : "2015",
      "MUNICIPIO" : "ARGELIA"
    },
    "geometry" : {
      "type" : "Point",
      "coordinates" : [ -77.23444444, 2.338888889 ]
    }
  }, {
    "type" : "Feature",
    "properties" : {
      "TIPO_EVENTO" : "4",
      "DEPARTAMENTO" : "VALLE DEL CAUCA",
      "TIPO_AREA" : "Rural",
      "AÑO" : "2015",
      "MUNICIPIO" : "TULUÁ"
    },
    "geometry" : {
      "type" : "Point",
      "coordinates" : [ -76.03666667, 4.000833333 ]
    }
  }, {
    "type" : "Feature",
    "properties" : {
      "TIPO_EVENTO" : "4",
      "DEPARTAMENTO" : "ANTIOQUIA",
      "TIPO_AREA" : "Rural",
      "AÑO" : "2015",
      "MUNICIPIO" : "ANORÍ"
    },
    "geometry" : {
      "type" : "Point",
      "coordinates" : [ -74.96972222, 7.288888889 ]
    }
  }, {
    "type" : "Feature",
    "properties" : {
      "TIPO_EVENTO" : "4",
      "DEPARTAMENTO" : "CAQUETA",
      "TIPO_AREA" : "Rural",
      "AÑO" : "2015",
      "MUNICIPIO" : "MONTAÑITA"
    },
    "geometry" : {
      "type" : "Point",
      "coordinates" : [ -75.00472222, 1.001944444 ]
    }
  }, {
    "type" : "Feature",
    "properties" : {
      "TIPO_EVENTO" : "4",
      "DEPARTAMENTO" : "ARAUCA",
      "TIPO_AREA" : "Rural",
      "AÑO" : "2015",
      "MUNICIPIO" : "ARAUQUITA"
    },
    "geometry" : {
      "type" : "Point",
      "coordinates" : [ -71.40666667, 6.741944444 ]
    }
  }, {
    "type" : "Feature",
    "properties" : {
      "TIPO_EVENTO" : "4",
      "DEPARTAMENTO" : "META",
      "TIPO_AREA" : "Rural",
      "AÑO" : "2015",
      "MUNICIPIO" : "URIBE"
    },
    "geometry" : {
      "type" : "Point",
      "coordinates" : [ -74.40527778, 3.321666667 ]
    }
  }, {
    "type" : "Feature",
    "properties" : {
      "TIPO_EVENTO" : "4",
      "DEPARTAMENTO" : "META",
      "TIPO_AREA" : "Rural",
      "AÑO" : "2015",
      "MUNICIPIO" : "MESETAS"
    },
    "geometry" : {
      "type" : "Point",
      "coordinates" : [ -74.21472222, 3.093611111 ]
    }
  }, {
    "type" : "Feature",
    "properties" : {
      "TIPO_EVENTO" : "4",
      "DEPARTAMENTO" : "META",
      "TIPO_AREA" : "Rural",
      "AÑO" : "2015",
      "MUNICIPIO" : "PUERTO RICO"
    },
    "geometry" : {
      "type" : "Point",
      "coordinates" : [ -73.20583333, 2.5 ]
    }
  }, {
    "type" : "Feature",
    "properties" : {
      "TIPO_EVENTO" : "4",
      "DEPARTAMENTO" : "CHOCO",
      "TIPO_AREA" : "Rural",
      "AÑO" : "2015",
      "MUNICIPIO" : "ITSMINA"
    },
    "geometry" : {
      "type" : "Point",
      "coordinates" : [ -76.93972222, 4.592222222 ]
    }
  }, {
    "type" : "Feature",
    "properties" : {
      "TIPO_EVENTO" : "4",
      "DEPARTAMENTO" : "META",
      "TIPO_AREA" : "Rural",
      "AÑO" : "2015",
      "MUNICIPIO" : "URIBE"
    },
    "geometry" : {
      "type" : "Point",
      "coordinates" : [ -74.2225, 3.010555556 ]
    }
  }, {
    "type" : "Feature",
    "properties" : {
      "TIPO_EVENTO" : "4",
      "DEPARTAMENTO" : "META",
      "TIPO_AREA" : "Rural",
      "AÑO" : "2015",
      "MUNICIPIO" : "URIBE"
    },
    "geometry" : {
      "type" : "Point",
      "coordinates" : [ -74.40611111, 3.321111111 ]
    }
  }, {
    "type" : "Feature",
    "properties" : {
      "TIPO_EVENTO" : "4",
      "DEPARTAMENTO" : "CAQUETA",
      "TIPO_AREA" : "Rural",
      "AÑO" : "2015",
      "MUNICIPIO" : "SAN VICENTE DEL CAGUÁN"
    },
    "geometry" : {
      "type" : "Point",
      "coordinates" : [ -74.87555556, 2.4775 ]
    }
  }, {
    "type" : "Feature",
    "properties" : {
      "TIPO_EVENTO" : "4",
      "DEPARTAMENTO" : "CORDOBA",
      "TIPO_AREA" : "Rural",
      "AÑO" : "2015",
      "MUNICIPIO" : "TIERRALTA"
    },
    "geometry" : {
      "type" : "Point",
      "coordinates" : [ -76.26361111, 7.803888889 ]
    }
  }, {
    "type" : "Feature",
    "properties" : {
      "TIPO_EVENTO" : "4",
      "DEPARTAMENTO" : "CAQUETA",
      "TIPO_AREA" : "Rural",
      "AÑO" : "2015",
      "MUNICIPIO" : "CARTAGENA DEL CHAIRÁ"
    },
    "geometry" : {
      "type" : "Point",
      "coordinates" : [ -75.04083333, 1.2975 ]
    }
  }, {
    "type" : "Feature",
    "properties" : {
      "TIPO_EVENTO" : "4",
      "DEPARTAMENTO" : "TOLIMA",
      "TIPO_AREA" : "Rural",
      "AÑO" : "2015",
      "MUNICIPIO" : "VILLARRICA"
    },
    "geometry" : {
      "type" : "Point",
      "coordinates" : [ -74.65666667, 3.926388889 ]
    }
  }, {
    "type" : "Feature",
    "properties" : {
      "TIPO_EVENTO" : "4",
      "DEPARTAMENTO" : "META",
      "TIPO_AREA" : "Rural",
      "AÑO" : "2015",
      "MUNICIPIO" : "SAN JUAN DE ARAMA"
    },
    "geometry" : {
      "type" : "Point",
      "coordinates" : [ -73.92305556, 3.378888889 ]
    }
  }, {
    "type" : "Feature",
    "properties" : {
      "TIPO_EVENTO" : "4",
      "DEPARTAMENTO" : "NARIÑO",
      "TIPO_AREA" : "Rural",
      "AÑO" : "2015",
      "MUNICIPIO" : "TUMACO"
    },
    "geometry" : {
      "type" : "Point",
      "coordinates" : [ -78.68138889, 1.423888889 ]
    }
  }, {
    "type" : "Feature",
    "properties" : {
      "TIPO_EVENTO" : "4",
      "DEPARTAMENTO" : "ANTIOQUIA",
      "TIPO_AREA" : "Rural",
      "AÑO" : "2015",
      "MUNICIPIO" : "MUTATÁ"
    },
    "geometry" : {
      "type" : "Point",
      "coordinates" : [ -76.51027778, 7.537222222 ]
    }
  }, {
    "type" : "Feature",
    "properties" : {
      "TIPO_EVENTO" : "4",
      "DEPARTAMENTO" : "META",
      "TIPO_AREA" : "Rural",
      "AÑO" : "2015",
      "MUNICIPIO" : "URIBE"
    },
    "geometry" : {
      "type" : "Point",
      "coordinates" : [ -74.40222222, 2.951388889 ]
    }
  }, {
    "type" : "Feature",
    "properties" : {
      "TIPO_EVENTO" : "4",
      "DEPARTAMENTO" : "CAUCA",
      "TIPO_AREA" : "Rural",
      "AÑO" : "2015",
      "MUNICIPIO" : "SUCRE"
    },
    "geometry" : {
      "type" : "Point",
      "coordinates" : [ -76.96, 2.04 ]
    }
  }, {
    "type" : "Feature",
    "properties" : {
      "TIPO_EVENTO" : "4",
      "DEPARTAMENTO" : "NORTE DE SANTANDER",
      "TIPO_AREA" : "Rural",
      "AÑO" : "2015",
      "MUNICIPIO" : "TIBÚ"
    },
    "geometry" : {
      "type" : "Point",
      "coordinates" : [ -72.75611111, 8.800277778 ]
    }
  }, {
    "type" : "Feature",
    "properties" : {
      "TIPO_EVENTO" : "4",
      "DEPARTAMENTO" : "NORTE DE SANTANDER",
      "TIPO_AREA" : "Rural",
      "AÑO" : "2015",
      "MUNICIPIO" : "SAN CALIXTO"
    },
    "geometry" : {
      "type" : "Point",
      "coordinates" : [ -73.245, 8.438611111 ]
    }
  }, {
    "type" : "Feature",
    "properties" : {
      "TIPO_EVENTO" : "4",
      "DEPARTAMENTO" : "NORTE DE SANTANDER",
      "TIPO_AREA" : "Rural",
      "AÑO" : "2015",
      "MUNICIPIO" : "SAN CALIXTO"
    },
    "geometry" : {
      "type" : "Point",
      "coordinates" : [ -73.25777778, 8.443611111 ]
    }
  }, {
    "type" : "Feature",
    "properties" : {
      "TIPO_EVENTO" : "4",
      "DEPARTAMENTO" : "CAUCA",
      "TIPO_AREA" : "Rural",
      "AÑO" : "2015",
      "MUNICIPIO" : "INZÁ"
    },
    "geometry" : {
      "type" : "Point",
      "coordinates" : [ -75.97666667, 2.550555556 ]
    }
  }, {
    "type" : "Feature",
    "properties" : {
      "TIPO_EVENTO" : "4",
      "DEPARTAMENTO" : "META",
      "TIPO_AREA" : "Rural",
      "AÑO" : "2015",
      "MUNICIPIO" : "URIBE"
    },
    "geometry" : {
      "type" : "Point",
      "coordinates" : [ -74.55138889, 3.245277778 ]
    }
  }, {
    "type" : "Feature",
    "properties" : {
      "TIPO_EVENTO" : "4",
      "DEPARTAMENTO" : "CASANARE",
      "TIPO_AREA" : "Rural",
      "AÑO" : "2015",
      "MUNICIPIO" : "AGUAZUL"
    },
    "geometry" : {
      "type" : "Point",
      "coordinates" : [ -72.56861111, 5.309722222 ]
    }
  }, {
    "type" : "Feature",
    "properties" : {
      "TIPO_EVENTO" : "4",
      "DEPARTAMENTO" : "ANTIOQUIA",
      "TIPO_AREA" : "Rural",
      "AÑO" : "2015",
      "MUNICIPIO" : "CÁCERES"
    },
    "geometry" : {
      "type" : "Point",
      "coordinates" : [ -75.10972222, 7.495 ]
    }
  }, {
    "type" : "Feature",
    "properties" : {
      "TIPO_EVENTO" : "4",
      "DEPARTAMENTO" : "NORTE DE SANTANDER",
      "TIPO_AREA" : "Rural",
      "AÑO" : "2015",
      "MUNICIPIO" : "EL TARRA"
    },
    "geometry" : {
      "type" : "Point",
      "coordinates" : [ -72.95972222, 8.655 ]
    }
  }, {
    "type" : "Feature",
    "properties" : {
      "TIPO_EVENTO" : "4",
      "DEPARTAMENTO" : "NORTE DE SANTANDER",
      "TIPO_AREA" : "Rural",
      "AÑO" : "2015",
      "MUNICIPIO" : "TIBÚ"
    },
    "geometry" : {
      "type" : "Point",
      "coordinates" : [ -72.75805556, 8.800277778 ]
    }
  }, {
    "type" : "Feature",
    "properties" : {
      "TIPO_EVENTO" : "4",
      "DEPARTAMENTO" : "VAUPES",
      "TIPO_AREA" : "Rural",
      "AÑO" : "2015",
      "MUNICIPIO" : "CARURÚ"
    },
    "geometry" : {
      "type" : "Point",
      "coordinates" : [ -71.33861111, 1.041666667 ]
    }
  }, {
    "type" : "Feature",
    "properties" : {
      "TIPO_EVENTO" : "4",
      "DEPARTAMENTO" : "META",
      "TIPO_AREA" : "Rural",
      "AÑO" : "2015",
      "MUNICIPIO" : "URIBE"
    },
    "geometry" : {
      "type" : "Point",
      "coordinates" : [ -74.54888889, 3.250277778 ]
    }
  }, {
    "type" : "Feature",
    "properties" : {
      "TIPO_EVENTO" : "4",
      "DEPARTAMENTO" : "ARAUCA",
      "TIPO_AREA" : "Rural",
      "AÑO" : "2015",
      "MUNICIPIO" : "ARAUQUITA"
    },
    "geometry" : {
      "type" : "Point",
      "coordinates" : [ -71.45361111, 6.694166667 ]
    }
  }, {
    "type" : "Feature",
    "properties" : {
      "TIPO_EVENTO" : "4",
      "DEPARTAMENTO" : "ANTIOQUIA",
      "TIPO_AREA" : "Rural",
      "AÑO" : "2015",
      "MUNICIPIO" : "SEGOVIA"
    },
    "geometry" : {
      "type" : "Point",
      "coordinates" : [ -74.8275, 7.224166667 ]
    }
  }, {
    "type" : "Feature",
    "properties" : {
      "TIPO_EVENTO" : "4",
      "DEPARTAMENTO" : "CAUCA",
      "TIPO_AREA" : "Rural",
      "AÑO" : "2015",
      "MUNICIPIO" : "JAMBALÓ"
    },
    "geometry" : {
      "type" : "Point",
      "coordinates" : [ -76.35861111, 2.891944444 ]
    }
  }, {
    "type" : "Feature",
    "properties" : {
      "TIPO_EVENTO" : "4",
      "DEPARTAMENTO" : "VAUPES",
      "TIPO_AREA" : "Rural",
      "AÑO" : "2015",
      "MUNICIPIO" : "CARURÚ"
    },
    "geometry" : {
      "type" : "Point",
      "coordinates" : [ -71.23777778, 0.9833333333 ]
    }
  }, {
    "type" : "Feature",
    "properties" : {
      "TIPO_EVENTO" : "4",
      "DEPARTAMENTO" : "CAQUETA",
      "TIPO_AREA" : "Rural",
      "AÑO" : "2015",
      "MUNICIPIO" : "CARTAGENA DEL CHAIRÁ"
    },
    "geometry" : {
      "type" : "Point",
      "coordinates" : [ -74.05361111, 0.2725 ]
    }
  }, {
    "type" : "Feature",
    "properties" : {
      "TIPO_EVENTO" : "4",
      "DEPARTAMENTO" : "META",
      "TIPO_AREA" : "Rural",
      "AÑO" : "2015",
      "MUNICIPIO" : "MESETAS"
    },
    "geometry" : {
      "type" : "Point",
      "coordinates" : [ -74.01444444, 2.811944444 ]
    }
  }, {
    "type" : "Feature",
    "properties" : {
      "TIPO_EVENTO" : "4",
      "DEPARTAMENTO" : "META",
      "TIPO_AREA" : "Rural",
      "AÑO" : "2015",
      "MUNICIPIO" : "LA MACARENA"
    },
    "geometry" : {
      "type" : "Point",
      "coordinates" : [ -74.12527778, 1.978888889 ]
    }
  }, {
    "type" : "Feature",
    "properties" : {
      "TIPO_EVENTO" : "4",
      "DEPARTAMENTO" : "TOLIMA",
      "TIPO_AREA" : "Rural",
      "AÑO" : "2015",
      "MUNICIPIO" : "CHAPARRAL"
    },
    "geometry" : {
      "type" : "Point",
      "coordinates" : [ -75.63055556, 3.701944444 ]
    }
  }, {
    "type" : "Feature",
    "properties" : {
      "TIPO_EVENTO" : "4",
      "DEPARTAMENTO" : "ARAUCA",
      "TIPO_AREA" : "Rural",
      "AÑO" : "2015",
      "MUNICIPIO" : "ARAUQUITA"
    },
    "geometry" : {
      "type" : "Point",
      "coordinates" : [ -71.04638889, 6.701388889 ]
    }
  }, {
    "type" : "Feature",
    "properties" : {
      "TIPO_EVENTO" : "4",
      "DEPARTAMENTO" : "CAQUETA",
      "TIPO_AREA" : "Rural",
      "AÑO" : "2015",
      "MUNICIPIO" : "SOLANO"
    },
    "geometry" : {
      "type" : "Point",
      "coordinates" : [ -74.9725, 0.9791666667 ]
    }
  }, {
    "type" : "Feature",
    "properties" : {
      "TIPO_EVENTO" : "4",
      "DEPARTAMENTO" : "NORTE DE SANTANDER",
      "TIPO_AREA" : "Rural",
      "AÑO" : "2015",
      "MUNICIPIO" : "CONVENCIÓN"
    },
    "geometry" : {
      "type" : "Point",
      "coordinates" : [ -73.35611111, 8.616388889 ]
    }
  }, {
    "type" : "Feature",
    "properties" : {
      "TIPO_EVENTO" : "4",
      "DEPARTAMENTO" : "META",
      "TIPO_AREA" : "Rural",
      "AÑO" : "2015",
      "MUNICIPIO" : "MESETAS"
    },
    "geometry" : {
      "type" : "Point",
      "coordinates" : [ -74.00888889, 2.811388889 ]
    }
  }, {
    "type" : "Feature",
    "properties" : {
      "TIPO_EVENTO" : "4",
      "DEPARTAMENTO" : "META",
      "TIPO_AREA" : "Rural",
      "AÑO" : "2015",
      "MUNICIPIO" : "LA MACARENA"
    },
    "geometry" : {
      "type" : "Point",
      "coordinates" : [ -74.18611111, 2.103888889 ]
    }
  }, {
    "type" : "Feature",
    "properties" : {
      "TIPO_EVENTO" : "4",
      "DEPARTAMENTO" : "CHOCO",
      "TIPO_AREA" : "Rural",
      "AÑO" : "2015",
      "MUNICIPIO" : "SIPÍ"
    },
    "geometry" : {
      "type" : "Point",
      "coordinates" : [ -76.67138889, 4.653333333 ]
    }
  }, {
    "type" : "Feature",
    "properties" : {
      "TIPO_EVENTO" : "4",
      "DEPARTAMENTO" : "CAQUETA",
      "TIPO_AREA" : "Rural",
      "AÑO" : "2015",
      "MUNICIPIO" : "SAN VICENTE DEL CAGUÁN"
    },
    "geometry" : {
      "type" : "Point",
      "coordinates" : [ -74.88055556, 2.693888889 ]
    }
  }, {
    "type" : "Feature",
    "properties" : {
      "TIPO_EVENTO" : "4",
      "DEPARTAMENTO" : "ANTIOQUIA",
      "TIPO_AREA" : "Rural",
      "AÑO" : "2015",
      "MUNICIPIO" : "BRICEÑO"
    },
    "geometry" : {
      "type" : "Point",
      "coordinates" : [ -75.59333333, 7.055 ]
    }
  }, {
    "type" : "Feature",
    "properties" : {
      "TIPO_EVENTO" : "4",
      "DEPARTAMENTO" : "TOLIMA",
      "TIPO_AREA" : "Rural",
      "AÑO" : "2015",
      "MUNICIPIO" : "PLANADAS"
    },
    "geometry" : {
      "type" : "Point",
      "coordinates" : [ -75.82472222, 3.046666667 ]
    }
  }, {
    "type" : "Feature",
    "properties" : {
      "TIPO_EVENTO" : "4",
      "DEPARTAMENTO" : "CAUCA",
      "TIPO_AREA" : "Rural",
      "AÑO" : "2015",
      "MUNICIPIO" : "PÁEZ"
    },
    "geometry" : {
      "type" : "Point",
      "coordinates" : [ -76.02722222, 2.723611111 ]
    }
  }, {
    "type" : "Feature",
    "properties" : {
      "TIPO_EVENTO" : "4",
      "DEPARTAMENTO" : "META",
      "TIPO_AREA" : "Rural",
      "AÑO" : "2015",
      "MUNICIPIO" : "URIBE"
    },
    "geometry" : {
      "type" : "Point",
      "coordinates" : [ -74.20861111, 2.565555556 ]
    }
  }, {
    "type" : "Feature",
    "properties" : {
      "TIPO_EVENTO" : "4",
      "DEPARTAMENTO" : "NARIÑO",
      "TIPO_AREA" : "Rural",
      "AÑO" : "2015",
      "MUNICIPIO" : "TUMACO"
    },
    "geometry" : {
      "type" : "Point",
      "coordinates" : [ -78.68194444, 1.455277778 ]
    }
  }, {
    "type" : "Feature",
    "properties" : {
      "TIPO_EVENTO" : "4",
      "DEPARTAMENTO" : "NARIÑO",
      "TIPO_AREA" : "Rural",
      "AÑO" : "2015",
      "MUNICIPIO" : "RICAURTE"
    },
    "geometry" : {
      "type" : "Point",
      "coordinates" : [ -78.09166667, 1.150833333 ]
    }
  }, {
    "type" : "Feature",
    "properties" : {
      "TIPO_EVENTO" : "4",
      "DEPARTAMENTO" : "CAUCA",
      "TIPO_AREA" : "Rural",
      "AÑO" : "2015",
      "MUNICIPIO" : "ARGELIA"
    },
    "geometry" : {
      "type" : "Point",
      "coordinates" : [ -77.19472222, 2.278333333 ]
    }
  }, {
    "type" : "Feature",
    "properties" : {
      "TIPO_EVENTO" : "4",
      "DEPARTAMENTO" : "PUTUMAYO",
      "TIPO_AREA" : "Rural",
      "AÑO" : "2015",
      "MUNICIPIO" : "ORITO"
    },
    "geometry" : {
      "type" : "Point",
      "coordinates" : [ -77.09916667, 0.5497222222 ]
    }
  }, {
    "type" : "Feature",
    "properties" : {
      "TIPO_EVENTO" : "4",
      "DEPARTAMENTO" : "CAUCA",
      "TIPO_AREA" : "Rural",
      "AÑO" : "2015",
      "MUNICIPIO" : "EL TAMBO"
    },
    "geometry" : {
      "type" : "Point",
      "coordinates" : [ -76.90916667, 2.460555556 ]
    }
  }, {
    "type" : "Feature",
    "properties" : {
      "TIPO_EVENTO" : "4",
      "DEPARTAMENTO" : "PUTUMAYO",
      "TIPO_AREA" : "Rural",
      "AÑO" : "2015",
      "MUNICIPIO" : "VALLE DEL GUAMUEZ"
    },
    "geometry" : {
      "type" : "Point",
      "coordinates" : [ -76.77805556, 0.435 ]
    }
  }, {
    "type" : "Feature",
    "properties" : {
      "TIPO_EVENTO" : "4",
      "DEPARTAMENTO" : "CAUCA",
      "TIPO_AREA" : "Rural",
      "AÑO" : "2015",
      "MUNICIPIO" : "SUÁREZ"
    },
    "geometry" : {
      "type" : "Point",
      "coordinates" : [ -76.74833333, 3.120833333 ]
    }
  }, {
    "type" : "Feature",
    "properties" : {
      "TIPO_EVENTO" : "4",
      "DEPARTAMENTO" : "CHOCO",
      "TIPO_AREA" : "Rural",
      "AÑO" : "2015",
      "MUNICIPIO" : "TADÓ"
    },
    "geometry" : {
      "type" : "Point",
      "coordinates" : [ -76.39333333, 5.304722222 ]
    }
  }, {
    "type" : "Feature",
    "properties" : {
      "TIPO_EVENTO" : "4",
      "DEPARTAMENTO" : "CAUCA",
      "TIPO_AREA" : "Rural",
      "AÑO" : "2015",
      "MUNICIPIO" : "JAMBALÓ"
    },
    "geometry" : {
      "type" : "Point",
      "coordinates" : [ -76.35361111, 2.888888889 ]
    }
  }, {
    "type" : "Feature",
    "properties" : {
      "TIPO_EVENTO" : "4",
      "DEPARTAMENTO" : "CAUCA",
      "TIPO_AREA" : "Rural",
      "AÑO" : "2015",
      "MUNICIPIO" : "TORIBÍO"
    },
    "geometry" : {
      "type" : "Point",
      "coordinates" : [ -76.27166667, 2.955833333 ]
    }
  }, {
    "type" : "Feature",
    "properties" : {
      "TIPO_EVENTO" : "4",
      "DEPARTAMENTO" : "VALLE DEL CAUCA",
      "TIPO_AREA" : "Rural",
      "AÑO" : "2015",
      "MUNICIPIO" : "TULUÁ"
    },
    "geometry" : {
      "type" : "Point",
      "coordinates" : [ -76.04972222, 4.066111111 ]
    }
  }, {
    "type" : "Feature",
    "properties" : {
      "TIPO_EVENTO" : "4",
      "DEPARTAMENTO" : "VALLE DEL CAUCA",
      "TIPO_AREA" : "Rural",
      "AÑO" : "2015",
      "MUNICIPIO" : "TULUÁ"
    },
    "geometry" : {
      "type" : "Point",
      "coordinates" : [ -76.04444444, 4.079444444 ]
    }
  }, {
    "type" : "Feature",
    "properties" : {
      "TIPO_EVENTO" : "4",
      "DEPARTAMENTO" : "RISARALDA",
      "TIPO_AREA" : "Rural",
      "AÑO" : "2015",
      "MUNICIPIO" : "MISTRATÓ"
    },
    "geometry" : {
      "type" : "Point",
      "coordinates" : [ -75.89055556, 5.373611111 ]
    }
  }, {
    "type" : "Feature",
    "properties" : {
      "TIPO_EVENTO" : "4",
      "DEPARTAMENTO" : "CORDOBA",
      "TIPO_AREA" : "Rural",
      "AÑO" : "2015",
      "MUNICIPIO" : "PUERTO LIBERTADOR"
    },
    "geometry" : {
      "type" : "Point",
      "coordinates" : [ -75.85416667, 7.7375 ]
    }
  }, {
    "type" : "Feature",
    "properties" : {
      "TIPO_EVENTO" : "4",
      "DEPARTAMENTO" : "ANTIOQUIA",
      "TIPO_AREA" : "Rural",
      "AÑO" : "2015",
      "MUNICIPIO" : "YARUMAL"
    },
    "geometry" : {
      "type" : "Point",
      "coordinates" : [ -75.59416667, 7.046944444 ]
    }
  }, {
    "type" : "Feature",
    "properties" : {
      "TIPO_EVENTO" : "4",
      "DEPARTAMENTO" : "ANTIOQUIA",
      "TIPO_AREA" : "Rural",
      "AÑO" : "2015",
      "MUNICIPIO" : "BRICEÑO"
    },
    "geometry" : {
      "type" : "Point",
      "coordinates" : [ -75.59333333, 7.051666667 ]
    }
  }, {
    "type" : "Feature",
    "properties" : {
      "TIPO_EVENTO" : "4",
      "DEPARTAMENTO" : "CAQUETA",
      "TIPO_AREA" : "Rural",
      "AÑO" : "2015",
      "MUNICIPIO" : "MILÁN"
    },
    "geometry" : {
      "type" : "Point",
      "coordinates" : [ -75.27083333, 1.044722222 ]
    }
  }, {
    "type" : "Feature",
    "properties" : {
      "TIPO_EVENTO" : "4",
      "DEPARTAMENTO" : "ANTIOQUIA",
      "TIPO_AREA" : "Rural",
      "AÑO" : "2015",
      "MUNICIPIO" : "CAMPAMENTO"
    },
    "geometry" : {
      "type" : "Point",
      "coordinates" : [ -75.24694444, 6.989166667 ]
    }
  }, {
    "type" : "Feature",
    "properties" : {
      "TIPO_EVENTO" : "4",
      "DEPARTAMENTO" : "CAQUETA",
      "TIPO_AREA" : "Rural",
      "AÑO" : "2015",
      "MUNICIPIO" : "PUERTO RICO"
    },
    "geometry" : {
      "type" : "Point",
      "coordinates" : [ -75.19111111, 1.9275 ]
    }
  }, {
    "type" : "Feature",
    "properties" : {
      "TIPO_EVENTO" : "4",
      "DEPARTAMENTO" : "ANTIOQUIA",
      "TIPO_AREA" : "Rural",
      "AÑO" : "2015",
      "MUNICIPIO" : "CÁCERES"
    },
    "geometry" : {
      "type" : "Point",
      "coordinates" : [ -75.14638889, 7.487222222 ]
    }
  }, {
    "type" : "Feature",
    "properties" : {
      "TIPO_EVENTO" : "4",
      "DEPARTAMENTO" : "CAQUETA",
      "TIPO_AREA" : "Rural",
      "AÑO" : "2015",
      "MUNICIPIO" : "MONTAÑITA"
    },
    "geometry" : {
      "type" : "Point",
      "coordinates" : [ -75.01416667, 1.004166667 ]
    }
  }, {
    "type" : "Feature",
    "properties" : {
      "TIPO_EVENTO" : "4",
      "DEPARTAMENTO" : "CAQUETA",
      "TIPO_AREA" : "Rural",
      "AÑO" : "2015",
      "MUNICIPIO" : "MONTAÑITA"
    },
    "geometry" : {
      "type" : "Point",
      "coordinates" : [ -74.99555556, 1.056944444 ]
    }
  }, {
    "type" : "Feature",
    "properties" : {
      "TIPO_EVENTO" : "4",
      "DEPARTAMENTO" : "ANTIOQUIA",
      "TIPO_AREA" : "Rural",
      "AÑO" : "2015",
      "MUNICIPIO" : "SEGOVIA"
    },
    "geometry" : {
      "type" : "Point",
      "coordinates" : [ -74.82944444, 7.239166667 ]
    }
  }, {
    "type" : "Feature",
    "properties" : {
      "TIPO_EVENTO" : "4",
      "DEPARTAMENTO" : "CAQUETA",
      "TIPO_AREA" : "Rural",
      "AÑO" : "2015",
      "MUNICIPIO" : "SAN VICENTE DEL CAGUÁN"
    },
    "geometry" : {
      "type" : "Point",
      "coordinates" : [ -74.73694444, 2.538611111 ]
    }
  }, {
    "type" : "Feature",
    "properties" : {
      "TIPO_EVENTO" : "4",
      "DEPARTAMENTO" : "META",
      "TIPO_AREA" : "Rural",
      "AÑO" : "2015",
      "MUNICIPIO" : "URIBE"
    },
    "geometry" : {
      "type" : "Point",
      "coordinates" : [ -74.59138889, 3.1375 ]
    }
  }, {
    "type" : "Feature",
    "properties" : {
      "TIPO_EVENTO" : "4",
      "DEPARTAMENTO" : "META",
      "TIPO_AREA" : "Rural",
      "AÑO" : "2015",
      "MUNICIPIO" : "URIBE"
    },
    "geometry" : {
      "type" : "Point",
      "coordinates" : [ -74.55055556, 3.109166667 ]
    }
  }, {
    "type" : "Feature",
    "properties" : {
      "TIPO_EVENTO" : "4",
      "DEPARTAMENTO" : "META",
      "TIPO_AREA" : "Rural",
      "AÑO" : "2015",
      "MUNICIPIO" : "URIBE"
    },
    "geometry" : {
      "type" : "Point",
      "coordinates" : [ -74.38833333, 2.999722222 ]
    }
  }, {
    "type" : "Feature",
    "properties" : {
      "TIPO_EVENTO" : "4",
      "DEPARTAMENTO" : "META",
      "TIPO_AREA" : "Rural",
      "AÑO" : "2015",
      "MUNICIPIO" : "URIBE"
    },
    "geometry" : {
      "type" : "Point",
      "coordinates" : [ -74.38611111, 3.000833333 ]
    }
  }, {
    "type" : "Feature",
    "properties" : {
      "TIPO_EVENTO" : "4",
      "DEPARTAMENTO" : "META",
      "TIPO_AREA" : "Rural",
      "AÑO" : "2015",
      "MUNICIPIO" : "LA MACARENA"
    },
    "geometry" : {
      "type" : "Point",
      "coordinates" : [ -74.37722222, 2.058333333 ]
    }
  }, {
    "type" : "Feature",
    "properties" : {
      "TIPO_EVENTO" : "4",
      "DEPARTAMENTO" : "CUNDINAMARCA",
      "TIPO_AREA" : "Rural",
      "AÑO" : "2015",
      "MUNICIPIO" : "PASCA"
    },
    "geometry" : {
      "type" : "Point",
      "coordinates" : [ -74.31444444, 4.272222222 ]
    }
  }, {
    "type" : "Feature",
    "properties" : {
      "TIPO_EVENTO" : "4",
      "DEPARTAMENTO" : "META",
      "TIPO_AREA" : "Rural",
      "AÑO" : "2015",
      "MUNICIPIO" : "URIBE"
    },
    "geometry" : {
      "type" : "Point",
      "coordinates" : [ -74.26611111, 2.791666667 ]
    }
  }, {
    "type" : "Feature",
    "properties" : {
      "TIPO_EVENTO" : "4",
      "DEPARTAMENTO" : "META",
      "TIPO_AREA" : "Rural",
      "AÑO" : "2015",
      "MUNICIPIO" : "URIBE"
    },
    "geometry" : {
      "type" : "Point",
      "coordinates" : [ -74.22666667, 2.851388889 ]
    }
  }, {
    "type" : "Feature",
    "properties" : {
      "TIPO_EVENTO" : "4",
      "DEPARTAMENTO" : "META",
      "TIPO_AREA" : "Rural",
      "AÑO" : "2015",
      "MUNICIPIO" : "MESETAS"
    },
    "geometry" : {
      "type" : "Point",
      "coordinates" : [ -74.16333333, 2.9875 ]
    }
  }, {
    "type" : "Feature",
    "properties" : {
      "TIPO_EVENTO" : "4",
      "DEPARTAMENTO" : "META",
      "TIPO_AREA" : "Rural",
      "AÑO" : "2015",
      "MUNICIPIO" : "MESETAS"
    },
    "geometry" : {
      "type" : "Point",
      "coordinates" : [ -74.12055556, 2.870277778 ]
    }
  }, {
    "type" : "Feature",
    "properties" : {
      "TIPO_EVENTO" : "4",
      "DEPARTAMENTO" : "META",
      "TIPO_AREA" : "Rural",
      "AÑO" : "2015",
      "MUNICIPIO" : "LEJANÍAS"
    },
    "geometry" : {
      "type" : "Point",
      "coordinates" : [ -74.06666667, 3.522222222 ]
    }
  }, {
    "type" : "Feature",
    "properties" : {
      "TIPO_EVENTO" : "4",
      "DEPARTAMENTO" : "META",
      "TIPO_AREA" : "Rural",
      "AÑO" : "2015",
      "MUNICIPIO" : "LA MACARENA"
    },
    "geometry" : {
      "type" : "Point",
      "coordinates" : [ -74.00055556, 1.997777778 ]
    }
  }, {
    "type" : "Feature",
    "properties" : {
      "TIPO_EVENTO" : "4",
      "DEPARTAMENTO" : "META",
      "TIPO_AREA" : "Rural",
      "AÑO" : "2015",
      "MUNICIPIO" : "EL CASTILLO"
    },
    "geometry" : {
      "type" : "Point",
      "coordinates" : [ -73.80055556, 3.564444444 ]
    }
  }, {
    "type" : "Feature",
    "properties" : {
      "TIPO_EVENTO" : "4",
      "DEPARTAMENTO" : "META",
      "TIPO_AREA" : "Rural",
      "AÑO" : "2015",
      "MUNICIPIO" : "VISTAHERMOSA"
    },
    "geometry" : {
      "type" : "Point",
      "coordinates" : [ -73.53861111, 2.925277778 ]
    }
  }, {
    "type" : "Feature",
    "properties" : {
      "TIPO_EVENTO" : "4",
      "DEPARTAMENTO" : "NORTE DE SANTANDER",
      "TIPO_AREA" : "Rural",
      "AÑO" : "2015",
      "MUNICIPIO" : "CONVENCIÓN"
    },
    "geometry" : {
      "type" : "Point",
      "coordinates" : [ -73.36138889, 8.575833333 ]
    }
  }, {
    "type" : "Feature",
    "properties" : {
      "TIPO_EVENTO" : "4",
      "DEPARTAMENTO" : "NORTE DE SANTANDER",
      "TIPO_AREA" : "Rural",
      "AÑO" : "2015",
      "MUNICIPIO" : "CONVENCIÓN"
    },
    "geometry" : {
      "type" : "Point",
      "coordinates" : [ -73.32055556, 8.48 ]
    }
  }, {
    "type" : "Feature",
    "properties" : {
      "TIPO_EVENTO" : "4",
      "DEPARTAMENTO" : "NORTE DE SANTANDER",
      "TIPO_AREA" : "Rural",
      "AÑO" : "2015",
      "MUNICIPIO" : "TIBÚ"
    },
    "geometry" : {
      "type" : "Point",
      "coordinates" : [ -72.89944444, 9.015833333 ]
    }
  }, {
    "type" : "Feature",
    "properties" : {
      "TIPO_EVENTO" : "4",
      "DEPARTAMENTO" : "GUAVIARE",
      "TIPO_AREA" : "Rural",
      "AÑO" : "2015",
      "MUNICIPIO" : "SAN JOSÉ DEL GUAVIARE"
    },
    "geometry" : {
      "type" : "Point",
      "coordinates" : [ -71.52583333, 2.844722222 ]
    }
  }, {
    "type" : "Feature",
    "properties" : {
      "TIPO_EVENTO" : "4",
      "DEPARTAMENTO" : "ARAUCA",
      "TIPO_AREA" : "Rural",
      "AÑO" : "2015",
      "MUNICIPIO" : "PUERTO RONDÓN"
    },
    "geometry" : {
      "type" : "Point",
      "coordinates" : [ -71.33361111, 6.571944444 ]
    }
  }, {
    "type" : "Feature",
    "properties" : {
      "TIPO_EVENTO" : "4",
      "DEPARTAMENTO" : "ARAUCA",
      "TIPO_AREA" : "Rural",
      "AÑO" : "2015",
      "MUNICIPIO" : "PUERTO RONDÓN"
    },
    "geometry" : {
      "type" : "Point",
      "coordinates" : [ -71.13277778, 6.485555556 ]
    }
  }, {
    "type" : "Feature",
    "properties" : {
      "TIPO_EVENTO" : "4",
      "DEPARTAMENTO" : "ARAUCA",
      "TIPO_AREA" : "Rural",
      "AÑO" : "2015",
      "MUNICIPIO" : "PUERTO RONDÓN"
    },
    "geometry" : {
      "type" : "Point",
      "coordinates" : [ -71.11055556, 6.524166667 ]
    }
  }, {
    "type" : "Feature",
    "properties" : {
      "TIPO_EVENTO" : "4",
      "DEPARTAMENTO" : "ANTIOQUIA",
      "TIPO_AREA" : "Rural",
      "AÑO" : "2015",
      "MUNICIPIO" : "ANORÍ"
    },
    "geometry" : {
      "type" : "Point",
      "coordinates" : [ -75.1875, 6.9425 ]
    }
  }, {
    "type" : "Feature",
    "properties" : {
      "TIPO_EVENTO" : "4",
      "DEPARTAMENTO" : "ANTIOQUIA",
      "TIPO_AREA" : "Rural",
      "AÑO" : "2015",
      "MUNICIPIO" : "ANGOSTURA"
    },
    "geometry" : {
      "type" : "Point",
      "coordinates" : [ -75.245, 6.914444444 ]
    }
  }, {
    "type" : "Feature",
    "properties" : {
      "TIPO_EVENTO" : "4",
      "DEPARTAMENTO" : "CAQUETA",
      "TIPO_AREA" : "Rural",
      "AÑO" : "2015",
      "MUNICIPIO" : "MONTAÑITA"
    },
    "geometry" : {
      "type" : "Point",
      "coordinates" : [ -75.065, 1.036944444 ]
    }
  }, {
    "type" : "Feature",
    "properties" : {
      "TIPO_EVENTO" : "4",
      "DEPARTAMENTO" : "NARIÑO",
      "TIPO_AREA" : "Rural",
      "AÑO" : "2015",
      "MUNICIPIO" : "TUMACO"
    },
    "geometry" : {
      "type" : "Point",
      "coordinates" : [ -78.37805556, 1.424722222 ]
    }
  }, {
    "type" : "Feature",
    "properties" : {
      "TIPO_EVENTO" : "4",
      "DEPARTAMENTO" : "NARIÑO",
      "TIPO_AREA" : "Rural",
      "AÑO" : "2015",
      "MUNICIPIO" : "TUMACO"
    },
    "geometry" : {
      "type" : "Point",
      "coordinates" : [ -78.31138889, 1.430833333 ]
    }
  }, {
    "type" : "Feature",
    "properties" : {
      "TIPO_EVENTO" : "4",
      "DEPARTAMENTO" : "NARIÑO",
      "TIPO_AREA" : "Rural",
      "AÑO" : "2015",
      "MUNICIPIO" : "RICAURTE"
    },
    "geometry" : {
      "type" : "Point",
      "coordinates" : [ -78.09138889, 1.152777778 ]
    }
  }, {
    "type" : "Feature",
    "properties" : {
      "TIPO_EVENTO" : "4",
      "DEPARTAMENTO" : "NARIÑO",
      "TIPO_AREA" : "Rural",
      "AÑO" : "2015",
      "MUNICIPIO" : "RICAURTE"
    },
    "geometry" : {
      "type" : "Point",
      "coordinates" : [ -78.02416667, 1.185277778 ]
    }
  }, {
    "type" : "Feature",
    "properties" : {
      "TIPO_EVENTO" : "4",
      "DEPARTAMENTO" : "NARIÑO",
      "TIPO_AREA" : "Rural",
      "AÑO" : "2015",
      "MUNICIPIO" : "RICAURTE"
    },
    "geometry" : {
      "type" : "Point",
      "coordinates" : [ -78.00555556, 1.206111111 ]
    }
  }, {
    "type" : "Feature",
    "properties" : {
      "TIPO_EVENTO" : "4",
      "DEPARTAMENTO" : "NARIÑO",
      "TIPO_AREA" : "Rural",
      "AÑO" : "2015",
      "MUNICIPIO" : "RICAURTE"
    },
    "geometry" : {
      "type" : "Point",
      "coordinates" : [ -78.00194444, 1.214722222 ]
    }
  }, {
    "type" : "Feature",
    "properties" : {
      "TIPO_EVENTO" : "4",
      "DEPARTAMENTO" : "NARIÑO",
      "TIPO_AREA" : "Rural",
      "AÑO" : "2015",
      "MUNICIPIO" : "MALLAMA"
    },
    "geometry" : {
      "type" : "Point",
      "coordinates" : [ -77.93444444, 1.189722222 ]
    }
  }, {
    "type" : "Feature",
    "properties" : {
      "TIPO_EVENTO" : "4",
      "DEPARTAMENTO" : "NARIÑO",
      "TIPO_AREA" : "Rural",
      "AÑO" : "2015",
      "MUNICIPIO" : "MALLAMA"
    },
    "geometry" : {
      "type" : "Point",
      "coordinates" : [ -77.90638889, 1.163055556 ]
    }
  }, {
    "type" : "Feature",
    "properties" : {
      "TIPO_EVENTO" : "4",
      "DEPARTAMENTO" : "NARIÑO",
      "TIPO_AREA" : "Rural",
      "AÑO" : "2015",
      "MUNICIPIO" : "EL ROSARIO"
    },
    "geometry" : {
      "type" : "Point",
      "coordinates" : [ -77.56305556, 1.885833333 ]
    }
  }, {
    "type" : "Feature",
    "properties" : {
      "TIPO_EVENTO" : "4",
      "DEPARTAMENTO" : "CAUCA",
      "TIPO_AREA" : "Rural",
      "AÑO" : "2015",
      "MUNICIPIO" : "ARGELIA"
    },
    "geometry" : {
      "type" : "Point",
      "coordinates" : [ -77.24555556, 2.258611111 ]
    }
  }, {
    "type" : "Feature",
    "properties" : {
      "TIPO_EVENTO" : "4",
      "DEPARTAMENTO" : "CAUCA",
      "TIPO_AREA" : "Rural",
      "AÑO" : "2015",
      "MUNICIPIO" : "BALBOA"
    },
    "geometry" : {
      "type" : "Point",
      "coordinates" : [ -77.21361111, 2.048055556 ]
    }
  }, {
    "type" : "Feature",
    "properties" : {
      "TIPO_EVENTO" : "4",
      "DEPARTAMENTO" : "CAUCA",
      "TIPO_AREA" : "Rural",
      "AÑO" : "2015",
      "MUNICIPIO" : "PATÍA"
    },
    "geometry" : {
      "type" : "Point",
      "coordinates" : [ -77.04305556, 2.072777778 ]
    }
  }, {
    "type" : "Feature",
    "properties" : {
      "TIPO_EVENTO" : "4",
      "DEPARTAMENTO" : "CAUCA",
      "TIPO_AREA" : "Rural",
      "AÑO" : "2015",
      "MUNICIPIO" : "EL TAMBO"
    },
    "geometry" : {
      "type" : "Point",
      "coordinates" : [ -76.98972222, 2.397777778 ]
    }
  }, {
    "type" : "Feature",
    "properties" : {
      "TIPO_EVENTO" : "4",
      "DEPARTAMENTO" : "PUTUMAYO",
      "TIPO_AREA" : "Rural",
      "AÑO" : "2015",
      "MUNICIPIO" : "SAN MIGUEL"
    },
    "geometry" : {
      "type" : "Point",
      "coordinates" : [ -76.93638889, 0.315 ]
    }
  }, {
    "type" : "Feature",
    "properties" : {
      "TIPO_EVENTO" : "4",
      "DEPARTAMENTO" : "CAUCA",
      "TIPO_AREA" : "Rural",
      "AÑO" : "2015",
      "MUNICIPIO" : "EL TAMBO"
    },
    "geometry" : {
      "type" : "Point",
      "coordinates" : [ -76.9025, 2.411666667 ]
    }
  }, {
    "type" : "Feature",
    "properties" : {
      "TIPO_EVENTO" : "4",
      "DEPARTAMENTO" : "CAUCA",
      "TIPO_AREA" : "Rural",
      "AÑO" : "2015",
      "MUNICIPIO" : "SUÁREZ"
    },
    "geometry" : {
      "type" : "Point",
      "coordinates" : [ -76.80361111, 3.100833333 ]
    }
  }, {
    "type" : "Feature",
    "properties" : {
      "TIPO_EVENTO" : "4",
      "DEPARTAMENTO" : "CAUCA",
      "TIPO_AREA" : "Rural",
      "AÑO" : "2015",
      "MUNICIPIO" : "SUÁREZ"
    },
    "geometry" : {
      "type" : "Point",
      "coordinates" : [ -76.79111111, 3.096944444 ]
    }
  }, {
    "type" : "Feature",
    "properties" : {
      "TIPO_EVENTO" : "4",
      "DEPARTAMENTO" : "CAUCA",
      "TIPO_AREA" : "Rural",
      "AÑO" : "2015",
      "MUNICIPIO" : "SUÁREZ"
    },
    "geometry" : {
      "type" : "Point",
      "coordinates" : [ -76.76527778, 3.093888889 ]
    }
  }, {
    "type" : "Feature",
    "properties" : {
      "TIPO_EVENTO" : "4",
      "DEPARTAMENTO" : "CAUCA",
      "TIPO_AREA" : "Rural",
      "AÑO" : "2015",
      "MUNICIPIO" : "SUÁREZ"
    },
    "geometry" : {
      "type" : "Point",
      "coordinates" : [ -76.75777778, 2.832222222 ]
    }
  }, {
    "type" : "Feature",
    "properties" : {
      "TIPO_EVENTO" : "4",
      "DEPARTAMENTO" : "CAUCA",
      "TIPO_AREA" : "Rural",
      "AÑO" : "2015",
      "MUNICIPIO" : "SUÁREZ"
    },
    "geometry" : {
      "type" : "Point",
      "coordinates" : [ -76.72111111, 2.976388889 ]
    }
  }, {
    "type" : "Feature",
    "properties" : {
      "TIPO_EVENTO" : "4",
      "DEPARTAMENTO" : "CAUCA",
      "TIPO_AREA" : "Rural",
      "AÑO" : "2015",
      "MUNICIPIO" : "CAJIBÍO"
    },
    "geometry" : {
      "type" : "Point",
      "coordinates" : [ -76.71, 2.631111111 ]
    }
  }, {
    "type" : "Feature",
    "properties" : {
      "TIPO_EVENTO" : "4",
      "DEPARTAMENTO" : "CHOCO",
      "TIPO_AREA" : "Rural",
      "AÑO" : "2015",
      "MUNICIPIO" : "MEDIO SAN JUAN"
    },
    "geometry" : {
      "type" : "Point",
      "coordinates" : [ -76.70777778, 5.0625 ]
    }
  }, {
    "type" : "Feature",
    "properties" : {
      "TIPO_EVENTO" : "4",
      "DEPARTAMENTO" : "CAUCA",
      "TIPO_AREA" : "Rural",
      "AÑO" : "2015",
      "MUNICIPIO" : "MORALES"
    },
    "geometry" : {
      "type" : "Point",
      "coordinates" : [ -76.6575, 2.748888889 ]
    }
  }, {
    "type" : "Feature",
    "properties" : {
      "TIPO_EVENTO" : "4",
      "DEPARTAMENTO" : "PUTUMAYO",
      "TIPO_AREA" : "Rural",
      "AÑO" : "2015",
      "MUNICIPIO" : "PUERTO ASÍS"
    },
    "geometry" : {
      "type" : "Point",
      "coordinates" : [ -76.65527778, 0.3997222222 ]
    }
  }, {
    "type" : "Feature",
    "properties" : {
      "TIPO_EVENTO" : "4",
      "DEPARTAMENTO" : "ANTIOQUIA",
      "TIPO_AREA" : "Rural",
      "AÑO" : "2015",
      "MUNICIPIO" : "CAREPA"
    },
    "geometry" : {
      "type" : "Point",
      "coordinates" : [ -76.5125, 7.867777778 ]
    }
  }, {
    "type" : "Feature",
    "properties" : {
      "TIPO_EVENTO" : "4",
      "DEPARTAMENTO" : "CHOCO",
      "TIPO_AREA" : "Rural",
      "AÑO" : "2015",
      "MUNICIPIO" : "QUIBDÓ"
    },
    "geometry" : {
      "type" : "Point",
      "coordinates" : [ -76.44333333, 5.750833333 ]
    }
  }, {
    "type" : "Feature",
    "properties" : {
      "TIPO_EVENTO" : "4",
      "DEPARTAMENTO" : "PUTUMAYO",
      "TIPO_AREA" : "Rural",
      "AÑO" : "2015",
      "MUNICIPIO" : "PUERTO CAICEDO"
    },
    "geometry" : {
      "type" : "Point",
      "coordinates" : [ -76.41388889, 0.7047222222 ]
    }
  }, {
    "type" : "Feature",
    "properties" : {
      "TIPO_EVENTO" : "4",
      "DEPARTAMENTO" : "CHOCO",
      "TIPO_AREA" : "Rural",
      "AÑO" : "2015",
      "MUNICIPIO" : "SAN JOSÉ DEL PALMAR"
    },
    "geometry" : {
      "type" : "Point",
      "coordinates" : [ -76.40055556, 4.975 ]
    }
  }, {
    "type" : "Feature",
    "properties" : {
      "TIPO_EVENTO" : "4",
      "DEPARTAMENTO" : "CAUCA",
      "TIPO_AREA" : "Rural",
      "AÑO" : "2015",
      "MUNICIPIO" : "CALOTO"
    },
    "geometry" : {
      "type" : "Point",
      "coordinates" : [ -76.34805556, 3.063333333 ]
    }
  }, {
    "type" : "Feature",
    "properties" : {
      "TIPO_EVENTO" : "4",
      "DEPARTAMENTO" : "CAUCA",
      "TIPO_AREA" : "Rural",
      "AÑO" : "2015",
      "MUNICIPIO" : "CALOTO"
    },
    "geometry" : {
      "type" : "Point",
      "coordinates" : [ -76.34694444, 3.063333333 ]
    }
  }, {
    "type" : "Feature",
    "properties" : {
      "TIPO_EVENTO" : "4",
      "DEPARTAMENTO" : "CAUCA",
      "TIPO_AREA" : "Rural",
      "AÑO" : "2015",
      "MUNICIPIO" : "JAMBALÓ"
    },
    "geometry" : {
      "type" : "Point",
      "coordinates" : [ -76.30527778, 2.878888889 ]
    }
  }, {
    "type" : "Feature",
    "properties" : {
      "TIPO_EVENTO" : "4",
      "DEPARTAMENTO" : "CAUCA",
      "TIPO_AREA" : "Rural",
      "AÑO" : "2015",
      "MUNICIPIO" : "CORINTO"
    },