{
  "type" : "FeatureCollection",
  "features" : [ {
    "type" : "Feature",
    "properties" : {
      "TIPO_EVENTO" : "4",
      "DEPARTAMENTO" : "META",
      "TIPO_AREA" : "Rural",
      "AÑO" : "2016",
      "MUNICIPIO" : "URIBE"
    },
    "geometry" : {
      "type" : "Point",
      "coordinates" : [ -74.23166667, 3.008888889 ]
    }
  }, {
    "type" : "Feature",
    "properties" : {
      "TIPO_EVENTO" : "4",
      "DEPARTAMENTO" : "META",
      "TIPO_AREA" : "Rural",
      "AÑO" : "2016",
      "MUNICIPIO" : "URIBE"
    },
    "geometry" : {
      "type" : "Point",
      "coordinates" : [ -74.33055556, 2.985555556 ]
    }
  }, {
    "type" : "Feature",
    "properties" : {
      "TIPO_EVENTO" : "1",
      "DEPARTAMENTO" : "NORTE DE SANTANDER",
      "TIPO_AREA" : "Rural",
      "AÑO" : "2016",
      "MUNICIPIO" : "EL CARMEN"
    },
    "geometry" : {
      "type" : "Point",
      "coordinates" : [ -73.41833333, 8.588888889 ]
    }
  }, {
    "type" : "Feature",
    "properties" : {
      "TIPO_EVENTO" : "1",
      "DEPARTAMENTO" : "ARAUCA",
      "TIPO_AREA" : "Rural",
      "AÑO" : "2016",
      "MUNICIPIO" : "SARAVENA"
    },
    "geometry" : {
      "type" : "Point",
      "coordinates" : [ -71.80777778, 7.031111111 ]
    }
  }, {
    "type" : "Feature",
    "properties" : {
      "TIPO_EVENTO" : "1",
      "DEPARTAMENTO" : "ANTIOQUIA",
      "TIPO_AREA" : "Rural",
      "AÑO" : "2016",
      "MUNICIPIO" : "FRONTINO"
    },
    "geometry" : {
      "type" : "Point",
      "coordinates" : [ -76.54222222, 6.726944444 ]
    }
  }, {
    "type" : "Feature",
    "properties" : {
      "TIPO_EVENTO" : "1",
      "DEPARTAMENTO" : "ANTIOQUIA",
      "TIPO_AREA" : "Rural",
      "AÑO" : "2016",
      "MUNICIPIO" : "BRICEÑO"
    },
    "geometry" : {
      "type" : "Point",
      "coordinates" : [ -75.54361111, 7.173333333 ]
    }
  }, {
    "type" : "Feature",
    "properties" : {
      "TIPO_EVENTO" : "1",
      "DEPARTAMENTO" : "CHOCO",
      "TIPO_AREA" : "Rural",
      "AÑO" : "2016",
      "MUNICIPIO" : "QUIBDÓ"
    },
    "geometry" : {
      "type" : "Point",
      "coordinates" : [ -76.42361111, 5.7525 ]
    }
  }, {
    "type" : "Feature",
    "properties" : {
      "TIPO_EVENTO" : "1",
      "DEPARTAMENTO" : "ARAUCA",
      "TIPO_AREA" : "Rural",
      "AÑO" : "2016",
      "MUNICIPIO" : "ARAUQUITA"
    },
    "geometry" : {
      "type" : "Point",
      "coordinates" : [ -71.24361111, 6.918888889 ]
    }
  }, {
    "type" : "Feature",
    "properties" : {
      "TIPO_EVENTO" : "1",
      "DEPARTAMENTO" : "ANTIOQUIA",
      "TIPO_AREA" : "Rural",
      "AÑO" : "2016",
      "MUNICIPIO" : "BRICEÑO"
    },
    "geometry" : {
      "type" : "Point",
      "coordinates" : [ -75.54361111, 7.174166667 ]
    }
  }, {
    "type" : "Feature",
    "properties" : {
      "TIPO_EVENTO" : "1",
      "DEPARTAMENTO" : "CHOCO",
      "TIPO_AREA" : "Rural",
      "AÑO" : "2016",
      "MUNICIPIO" : "TADÓ"
    },
    "geometry" : {
      "type" : "Point",
      "coordinates" : [ -76.52027778, 5.266388889 ]
    }
  }, {
    "type" : "Feature",
    "properties" : {
      "TIPO_EVENTO" : "1",
      "DEPARTAMENTO" : "ARAUCA",
      "TIPO_AREA" : "Rural",
      "AÑO" : "2016",
      "MUNICIPIO" : "SARAVENA"
    },
    "geometry" : {
      "type" : "Point",
      "coordinates" : [ -71.78722222, 6.894722222 ]
    }
  }, {
    "type" : "Feature",
    "properties" : {
      "TIPO_EVENTO" : "1",
      "DEPARTAMENTO" : "CAQUETA",
      "TIPO_AREA" : "Rural",
      "AÑO" : "2016",
      "MUNICIPIO" : "PUERTO RICO"
    },
    "geometry" : {
      "type" : "Point",
      "coordinates" : [ -75.18861111, 1.929722222 ]
    }
  }, {
    "type" : "Feature",
    "properties" : {
      "TIPO_EVENTO" : "1",
      "DEPARTAMENTO" : "CHOCO",
      "TIPO_AREA" : "Rural",
      "AÑO" : "2016",
      "MUNICIPIO" : "RIOSUCIO"
    },
    "geometry" : {
      "type" : "Point",
      "coordinates" : [ -77.26777778, 7.400555556 ]
    }
  }, {
    "type" : "Feature",
    "properties" : {
      "TIPO_EVENTO" : "1",
      "DEPARTAMENTO" : "CAUCA",
      "TIPO_AREA" : "Rural",
      "AÑO" : "2016",
      "MUNICIPIO" : "LÓPEZ"
    },
    "geometry" : {
      "type" : "Point",
      "coordinates" : [ -76.81444444, 3.103888889 ]
    }
  }, {
    "type" : "Feature",
    "properties" : {
      "TIPO_EVENTO" : "1",
      "DEPARTAMENTO" : "CAQUETA",
      "TIPO_AREA" : "Rural",
      "AÑO" : "2016",
      "MUNICIPIO" : "SAN VICENTE DEL CAGUÁN"
    },
    "geometry" : {
      "type" : "Point",
      "coordinates" : [ -74.84222222, 2.561388889 ]
    }
  }, {
    "type" : "Feature",
    "properties" : {
      "TIPO_EVENTO" : "1",
      "DEPARTAMENTO" : "CHOCO",
      "TIPO_AREA" : "Rural",
      "AÑO" : "2016",
      "MUNICIPIO" : "RIO QUITO"
    },
    "geometry" : {
      "type" : "Point",
      "coordinates" : [ -76.86694444, 5.51 ]
    }
  }, {
    "type" : "Feature",
    "properties" : {
      "TIPO_EVENTO" : "1",
      "DEPARTAMENTO" : "CAQUETA",
      "TIPO_AREA" : "Rural",
      "AÑO" : "2016",
      "MUNICIPIO" : "EL PAUJIL"
    },
    "geometry" : {
      "type" : "Point",
      "coordinates" : [ -75.35, 1.875555556 ]
    }
  }, {
    "type" : "Feature",
    "properties" : {
      "TIPO_EVENTO" : "1",
      "DEPARTAMENTO" : "ANTIOQUIA",
      "TIPO_AREA" : "Rural",
      "AÑO" : "2016",
      "MUNICIPIO" : "TARAZÁ"
    },
    "geometry" : {
      "type" : "Point",
      "coordinates" : [ -75.18833333, 7.370555556 ]
    }
  }, {
    "type" : "Feature",
    "properties" : {
      "TIPO_EVENTO" : "1",
      "DEPARTAMENTO" : "CAQUETA",
      "TIPO_AREA" : "Rural",
      "AÑO" : "2016",
      "MUNICIPIO" : "FLORENCIA"
    },
    "geometry" : {
      "type" : "Point",
      "coordinates" : [ -75.53722222, 1.880833333 ]
    }
  }, {
    "type" : "Feature",
    "properties" : {
      "TIPO_EVENTO" : "1",
      "DEPARTAMENTO" : "CHOCO",
      "TIPO_AREA" : "Rural",
      "AÑO" : "2016",
      "MUNICIPIO" : "UNGUÍA"
    },
    "geometry" : {
      "type" : "Point",
      "coordinates" : [ -77.23722222, 8.2325 ]
    }
  }, {
    "type" : "Feature",
    "properties" : {
      "TIPO_EVENTO" : "1",
      "DEPARTAMENTO" : "ANTIOQUIA",
      "TIPO_AREA" : "Rural",
      "AÑO" : "2016",
      "MUNICIPIO" : "CÁCERES"
    },
    "geometry" : {
      "type" : "Point",
      "coordinates" : [ -75.17694444, 7.3675 ]
    }
  }, {
    "type" : "Feature",
    "properties" : {
      "TIPO_EVENTO" : "1",
      "DEPARTAMENTO" : "CHOCO",
      "TIPO_AREA" : "Rural",
      "AÑO" : "2016",
      "MUNICIPIO" : "UNGUÍA"
    },
    "geometry" : {
      "type" : "Point",
      "coordinates" : [ -77.23305556, 8.23 ]
    }
  }, {
    "type" : "Feature",
    "properties" : {
      "TIPO_EVENTO" : "1",
      "DEPARTAMENTO" : "CHOCO",
      "TIPO_AREA" : "Rural",
      "AÑO" : "2016",
      "MUNICIPIO" : "RIO IRÓ"
    },
    "geometry" : {
      "type" : "Point",
      "coordinates" : [ -76.41944444, 5.239166667 ]
    }
  }, {
    "type" : "Feature",
    "properties" : {
      "TIPO_EVENTO" : "1",
      "DEPARTAMENTO" : "CAUCA",
      "TIPO_AREA" : "Rural",
      "AÑO" : "2016",
      "MUNICIPIO" : "EL TAMBO"
    },
    "geometry" : {
      "type" : "Point",
      "coordinates" : [ -76.85666667, 2.537222222 ]
    }
  }, {
    "type" : "Feature",
    "properties" : {
      "TIPO_EVENTO" : "1",
      "DEPARTAMENTO" : "ANTIOQUIA",
      "TIPO_AREA" : "Rural",
      "AÑO" : "2016",
      "MUNICIPIO" : "ANORÍ"
    },
    "geometry" : {
      "type" : "Point",
      "coordinates" : [ -75.09833333, 7.163055556 ]
    }
  }, {
    "type" : "Feature",
    "properties" : {
      "TIPO_EVENTO" : "1",
      "DEPARTAMENTO" : "NORTE DE SANTANDER",
      "TIPO_AREA" : "Rural",
      "AÑO" : "2016",
      "MUNICIPIO" : "SAN CALIXTO"
    },
    "geometry" : {
      "type" : "Point",
      "coordinates" : [ -73.28805556, 8.355555556 ]
    }
  }, {
    "type" : "Feature",
    "properties" : {
      "TIPO_EVENTO" : "1",
      "DEPARTAMENTO" : "ANTIOQUIA",
      "TIPO_AREA" : "Rural",
      "AÑO" : "2016",
      "MUNICIPIO" : "TURBO"
    },
    "geometry" : {
      "type" : "Point",
      "coordinates" : [ -76.45972222, 8.080833333 ]
    }
  }, {
    "type" : "Feature",
    "properties" : {
      "TIPO_EVENTO" : "1",
      "DEPARTAMENTO" : "ARAUCA",
      "TIPO_AREA" : "Rural",
      "AÑO" : "2016",
      "MUNICIPIO" : "TAME"
    },
    "geometry" : {
      "type" : "Point",
      "coordinates" : [ -71.69944444, 6.645833333 ]
    }
  }, {
    "type" : "Feature",
    "properties" : {
      "TIPO_EVENTO" : "1",
      "DEPARTAMENTO" : "NORTE DE SANTANDER",
      "TIPO_AREA" : "Rural",
      "AÑO" : "2016",
      "MUNICIPIO" : "TEORAMA"
    },
    "geometry" : {
      "type" : "Point",
      "coordinates" : [ -73.26472222, 8.589444444 ]
    }
  }, {
    "type" : "Feature",
    "properties" : {
      "TIPO_EVENTO" : "1",
      "DEPARTAMENTO" : "CHOCO",
      "TIPO_AREA" : "Rural",
      "AÑO" : "2016",
      "MUNICIPIO" : "SAN JOSÉ DEL PALMAR"
    },
    "geometry" : {
      "type" : "Point",
      "coordinates" : [ -76.35611111, 4.929166667 ]
    }
  }, {
    "type" : "Feature",
    "properties" : {
      "TIPO_EVENTO" : "1",
      "DEPARTAMENTO" : "ANTIOQUIA",
      "TIPO_AREA" : "Rural",
      "AÑO" : "2016",
      "MUNICIPIO" : "TARAZÁ"
    },
    "geometry" : {
      "type" : "Point",
      "coordinates" : [ -75.22527778, 7.2925 ]
    }
  }, {
    "type" : "Feature",
    "properties" : {
      "TIPO_EVENTO" : "1",
      "DEPARTAMENTO" : "NORTE DE SANTANDER",
      "TIPO_AREA" : "Rural",
      "AÑO" : "2016",
      "MUNICIPIO" : "TEORAMA"
    },
    "geometry" : {
      "type" : "Point",
      "coordinates" : [ -73.18361111, 8.613055556 ]
    }
  }, {
    "type" : "Feature",
    "properties" : {
      "TIPO_EVENTO" : "1",
      "DEPARTAMENTO" : "NARIÑO",
      "TIPO_AREA" : "Rural",
      "AÑO" : "2016",
      "MUNICIPIO" : "CUMBITARA"
    },
    "geometry" : {
      "type" : "Point",
      "coordinates" : [ -77.579056, 1.64746 ]
    }
  }, {
    "type" : "Feature",
    "properties" : {
      "TIPO_EVENTO" : "1",
      "DEPARTAMENTO" : "META",
      "TIPO_AREA" : "Rural",
      "AÑO" : "2016",
      "MUNICIPIO" : "VISTAHERMOSA"
    },
    "geometry" : {
      "type" : "Point",
      "coordinates" : [ -73.752373, 3.125088 ]
    }
  }, {
    "type" : "Feature",
    "properties" : {
      "TIPO_EVENTO" : "1",
      "DEPARTAMENTO" : "GUAVIARE",
      "TIPO_AREA" : "Rural",
      "AÑO" : "2016",
      "MUNICIPIO" : "CALAMAR"
    },
    "geometry" : {
      "type" : "Point",
      "coordinates" : [ -73.170757, 2.37189 ]
    }
  }, {
    "type" : "Feature",
    "properties" : {
      "TIPO_EVENTO" : "2",
      "DEPARTAMENTO" : "BOLIVAR",
      "TIPO_AREA" : "Rural",
      "AÑO" : "2016",
      "MUNICIPIO" : "NOROSÍ"
    },
    "geometry" : {
      "type" : "Point",
      "coordinates" : [ -74.038285, 8.526933 ]
    }
  }, {
    "type" : "Feature",
    "properties" : {
      "TIPO_EVENTO" : "2",
      "DEPARTAMENTO" : "VALLE DEL CAUCA",
      "TIPO_AREA" : "Rural",
      "AÑO" : "2016",
      "MUNICIPIO" : "JAMUNDÍ"
    },
    "geometry" : {
      "type" : "Point",
      "coordinates" : [ -76.53639743, 3.266812772 ]
    }
  }, {
    "type" : "Feature",
    "properties" : {
      "TIPO_EVENTO" : "1",
      "DEPARTAMENTO" : "BOLIVAR",
      "TIPO_AREA" : "Rural",
      "AÑO" : "2016",
      "MUNICIPIO" : "SANTA ROSA DEL SUR"
    },
    "geometry" : {
      "type" : "Point",
      "coordinates" : [ -74.05309044, 7.970027782 ]
    }
  }, {
    "type" : "Feature",
    "properties" : {
      "TIPO_EVENTO" : "2",
      "DEPARTAMENTO" : "ARAUCA",
      "TIPO_AREA" : "Rural",
      "AÑO" : "2016",
      "MUNICIPIO" : "TAME"
    },
    "geometry" : {
      "type" : "Point",
      "coordinates" : [ -71.73918106, 6.461326276 ]
    }
  }, {
    "type" : "Feature",
    "properties" : {
      "TIPO_EVENTO" : "1",
      "DEPARTAMENTO" : "BOLIVAR",
      "TIPO_AREA" : "Rural",
      "AÑO" : "2016",
      "MUNICIPIO" : "CANTAGALLO"
    },
    "geometry" : {
      "type" : "Point",
      "coordinates" : [ -73.91830007, 7.384061481 ]
    }
  }, {
    "type" : "Feature",
    "properties" : {
      "TIPO_EVENTO" : "1",
      "DEPARTAMENTO" : "ANTIOQUIA",
      "TIPO_AREA" : "Rural",
      "AÑO" : "2016",
      "MUNICIPIO" : "ITUANGO"
    },
    "geometry" : {
      "type" : "Point",
      "coordinates" : [ -75.84341911, 7.243765938 ]
    }
  }, {
    "type" : "Feature",
    "properties" : {
      "TIPO_EVENTO" : "1",
      "DEPARTAMENTO" : "CAUCA",
      "TIPO_AREA" : "Rural",
      "AÑO" : "2016",
      "MUNICIPIO" : "CORINTO"
    },
    "geometry" : {
      "type" : "Point",
      "coordinates" : [ -76.268, 3.089 ]
    }
  }, {
    "type" : "Feature",
    "properties" : {
      "TIPO_EVENTO" : "2",
      "DEPARTAMENTO" : "BOLIVAR",
      "TIPO_AREA" : "Rural",
      "AÑO" : "2016",
      "MUNICIPIO" : "MONTECRISTO"
    },
    "geometry" : {
      "type" : "Point",
      "coordinates" : [ -74.47635663, 8.308030611 ]
    }
  }, {
    "type" : "Feature",
    "properties" : {
      "TIPO_EVENTO" : "1",
      "DEPARTAMENTO" : "ARAUCA",
      "TIPO_AREA" : "Rural",
      "AÑO" : "2016",
      "MUNICIPIO" : "ARAUQUITA"
    },
    "geometry" : {
      "type" : "Point",
      "coordinates" : [ -71.43138709, 7.019086896 ]
    }
  }, {
    "type" : "Feature",
    "properties" : {
      "TIPO_EVENTO" : "1",
      "DEPARTAMENTO" : "CHOCO",
      "TIPO_AREA" : "Rural",
      "AÑO" : "2016",
      "MUNICIPIO" : "SAN JOSÉ DEL PALMAR"
    },
    "geometry" : {
      "type" : "Point",
      "coordinates" : [ -76.22416389, 4.976609812 ]
    }
  }, {
    "type" : "Feature",
    "properties" : {
      "TIPO_EVENTO" : "1",
      "DEPARTAMENTO" : "BOLIVAR",
      "TIPO_AREA" : "Rural",
      "AÑO" : "2016",
      "MUNICIPIO" : "SANTA ROSA DEL SUR"
    },
    "geometry" : {
      "type" : "Point",
      "coordinates" : [ -74.055, 7.965 ]
    }
  }, {
    "type" : "Feature",
    "properties" : {
      "TIPO_EVENTO" : "1",
      "DEPARTAMENTO" : "NARIÑO",
      "TIPO_AREA" : "Rural",
      "AÑO" : "2016",
      "MUNICIPIO" : "SANTA CRUZ"
    },
    "geometry" : {
      "type" : "Point",
      "coordinates" : [ -77.66529955, 1.224447878 ]
    }
  }, {
    "type" : "Feature",
    "properties" : {
      "TIPO_EVENTO" : "1",
      "DEPARTAMENTO" : "PUTUMAYO",
      "TIPO_AREA" : "Rural",
      "AÑO" : "2016",
      "MUNICIPIO" : "PUERTO ASÍS"
    },
    "geometry" : {
      "type" : "Point",
      "coordinates" : [ -76.50137002, 0.5167089034 ]
    }
  }, {
    "type" : "Feature",
    "properties" : {
      "TIPO_EVENTO" : "2",
      "DEPARTAMENTO" : "TOLIMA",
      "TIPO_AREA" : "Rural",
      "AÑO" : "2016",
      "MUNICIPIO" : "CHAPARRAL"
    },
    "geometry" : {
      "type" : "Point",
      "coordinates" : [ -75.48463643, 3.726676011 ]
    }
  }, {
    "type" : "Feature",
    "properties" : {
      "TIPO_EVENTO" : "1",
      "DEPARTAMENTO" : "ANTIOQUIA",
      "TIPO_AREA" : "Rural",
      "AÑO" : "2016",
      "MUNICIPIO" : "CHIGORODÓ"
    },
    "geometry" : {
      "type" : "Point",
      "coordinates" : [ -76.58748806, 7.618866981 ]
    }
  }, {
    "type" : "Feature",
    "properties" : {
      "TIPO_EVENTO" : "1",
      "DEPARTAMENTO" : "HUILA",
      "TIPO_AREA" : "Rural",
      "AÑO" : "2016",
      "MUNICIPIO" : "ALGECIRAS"
    },
    "geometry" : {
      "type" : "Point",
      "coordinates" : [ -75.313361, 2.522444 ]
    }
  }, {
    "type" : "Feature",
    "properties" : {
      "TIPO_EVENTO" : "1",
      "DEPARTAMENTO" : "ARAUCA",
      "TIPO_AREA" : "Rural",
      "AÑO" : "2016",
      "MUNICIPIO" : "SARAVENA"
    },
    "geometry" : {
      "type" : "Point",
      "coordinates" : [ -71.878277, 6.958339 ]
    }
  }, {
    "type" : "Feature",
    "properties" : {
      "TIPO_EVENTO" : "1",
      "DEPARTAMENTO" : "SUCRE",
      "TIPO_AREA" : "Rural",
      "AÑO" : "2016",
      "MUNICIPIO" : "CHALÁN"
    },
    "geometry" : {
      "type" : "Point",
      "coordinates" : [ -75.31689, 9.548344 ]
    }
  }, {
    "type" : "Feature",
    "properties" : {
      "TIPO_EVENTO" : "1",
      "DEPARTAMENTO" : "CHOCO",
      "TIPO_AREA" : "Rural",
      "AÑO" : "2016",
      "MUNICIPIO" : "BAJO BAUDÓ"
    },
    "geometry" : {
      "type" : "Point",
      "coordinates" : [ -77.36912647, 4.969349776 ]
    }
  }, {
    "type" : "Feature",
    "properties" : {
      "TIPO_EVENTO" : "2",
      "DEPARTAMENTO" : "HUILA",
      "TIPO_AREA" : "Rural",
      "AÑO" : "2016",
      "MUNICIPIO" : "IQUIRA"
    },
    "geometry" : {
      "type" : "Point",
      "coordinates" : [ -75.635806, 2.648539 ]
    }
  }, {
    "type" : "Feature",
    "properties" : {
      "TIPO_EVENTO" : "1",
      "DEPARTAMENTO" : "ANTIOQUIA",
      "TIPO_AREA" : "Rural",
      "AÑO" : "2016",
      "MUNICIPIO" : "ANORÍ"
    },
    "geometry" : {
      "type" : "Point",
      "coordinates" : [ -75.26206994, 7.154901372 ]
    }
  }, {
    "type" : "Feature",
    "properties" : {
      "TIPO_EVENTO" : "1",
      "DEPARTAMENTO" : "CORDOBA",
      "TIPO_AREA" : "Rural",
      "AÑO" : "2016",
      "MUNICIPIO" : "PUERTO LIBERTADOR"
    },
    "geometry" : {
      "type" : "Point",
      "coordinates" : [ -75.670508, 7.883545 ]
    }
  }, {
    "type" : "Feature",
    "properties" : {
      "TIPO_EVENTO" : "1",
      "DEPARTAMENTO" : "GUAVIARE",
      "TIPO_AREA" : "Rural",
      "AÑO" : "2016",
      "MUNICIPIO" : "MIRAFLORES"
    },
    "geometry" : {
      "type" : "Point",
      "coordinates" : [ -71.951518, 1.336939 ]
    }
  }, {
    "type" : "Feature",
    "properties" : {
      "TIPO_EVENTO" : "4",
      "DEPARTAMENTO" : "PUTUMAYO",
      "TIPO_AREA" : "Rural",
      "AÑO" : "2016",
      "MUNICIPIO" : "PUERTO LEGUÍZAMO"
    },
    "geometry" : {
      "type" : "Point",
      "coordinates" : [ -75.99533333, 0.316944444 ]
    }
  }, {
    "type" : "Feature",
    "properties" : {
      "TIPO_EVENTO" : "4",
      "DEPARTAMENTO" : "VALLE DEL CAUCA",
      "TIPO_AREA" : "Rural",
      "AÑO" : "2016",
      "MUNICIPIO" : "BUENAVENTURA"
    },
    "geometry" : {
      "type" : "Point",
      "coordinates" : [ -76.97636111, 3.946166667 ]
    }
  }, {
    "type" : "Feature",
    "properties" : {
      "TIPO_EVENTO" : "4",
      "DEPARTAMENTO" : "CHOCO",
      "TIPO_AREA" : "Rural",
      "AÑO" : "2016",
      "MUNICIPIO" : "NUQUÍ"
    },
    "geometry" : {
      "type" : "Point",
      "coordinates" : [ -77.29833333, 5.651666667 ]
    }
  }, {
    "type" : "Feature",
    "properties" : {
      "TIPO_EVENTO" : "4",
      "DEPARTAMENTO" : "CHOCO",
      "TIPO_AREA" : "Rural",
      "AÑO" : "2016",
      "MUNICIPIO" : "NUQUÍ"
    },
    "geometry" : {
      "type" : "Point",
      "coordinates" : [ -77.29858333, 5.651777778 ]
    }
  }, {
    "type" : "Feature",
    "properties" : {
      "TIPO_EVENTO" : "4",
      "DEPARTAMENTO" : "CHOCO",
      "TIPO_AREA" : "Rural",
      "AÑO" : "2016",
      "MUNICIPIO" : "NUQUÍ"
    },
    "geometry" : {
      "type" : "Point",
      "coordinates" : [ -77.29333333, 5.586944444 ]
    }
  }, {
    "type" : "Feature",
    "properties" : {
      "TIPO_EVENTO" : "4",
      "DEPARTAMENTO" : "CHOCO",
      "TIPO_AREA" : "Rural",
      "AÑO" : "2016",
      "MUNICIPIO" : "NUQUÍ"
    },
    "geometry" : {
      "type" : "Point",
      "coordinates" : [ -77.28972222, 5.605555556 ]
    }
  }, {
    "type" : "Feature",
    "properties" : {
      "TIPO_EVENTO" : "4",
      "DEPARTAMENTO" : "ANTIOQUIA",
      "TIPO_AREA" : "Rural",
      "AÑO" : "2016",
      "MUNICIPIO" : "MURINDÓ"
    },
    "geometry" : {
      "type" : "Point",
      "coordinates" : [ -76.8025, 6.964166667 ]
    }
  }, {
    "type" : "Feature",
    "properties" : {
      "TIPO_EVENTO" : "4",
      "DEPARTAMENTO" : "CHOCO",
      "TIPO_AREA" : "Rural",
      "AÑO" : "2016",
      "MUNICIPIO" : "NUQUÍ"
    },
    "geometry" : {
      "type" : "Point",
      "coordinates" : [ -77.29083333, 5.603888889 ]
    }
  }, {
    "type" : "Feature",
    "properties" : {
      "TIPO_EVENTO" : "4",
      "DEPARTAMENTO" : "CAUCA",
      "TIPO_AREA" : "Rural",
      "AÑO" : "2016",
      "MUNICIPIO" : "LÓPEZ"
    },
    "geometry" : {
      "type" : "Point",
      "coordinates" : [ -77.36361111, 2.957552778 ]
    }
  }, {
    "type" : "Feature",
    "properties" : {
      "TIPO_EVENTO" : "4",
      "DEPARTAMENTO" : "PUTUMAYO",
      "TIPO_AREA" : "Rural",
      "AÑO" : "2016",
      "MUNICIPIO" : "PUERTO LEGUÍZAMO"
    },
    "geometry" : {
      "type" : "Point",
      "coordinates" : [ -75.86711111, 0.139138889 ]
    }
  }, {
    "type" : "Feature",
    "properties" : {
      "TIPO_EVENTO" : "4",
      "DEPARTAMENTO" : "VALLE DEL CAUCA",
      "TIPO_AREA" : "Rural",
      "AÑO" : "2016",
      "MUNICIPIO" : "BUENAVENTURA"
    },
    "geometry" : {
      "type" : "Point",
      "coordinates" : [ -77.12958333, 3.640527778 ]
    }
  }, {
    "type" : "Feature",
    "properties" : {
      "TIPO_EVENTO" : "4",
      "DEPARTAMENTO" : "CHOCO",
      "TIPO_AREA" : "Rural",
      "AÑO" : "2016",
      "MUNICIPIO" : "BAJO BAUDÓ"
    },
    "geometry" : {
      "type" : "Point",
      "coordinates" : [ -77.35565, 5.196716667 ]
    }
  }, {
    "type" : "Feature",
    "properties" : {
      "TIPO_EVENTO" : "4",
      "DEPARTAMENTO" : "PUTUMAYO",
      "TIPO_AREA" : "Rural",
      "AÑO" : "2016",
      "MUNICIPIO" : "PUERTO LEGUÍZAMO"
    },
    "geometry" : {
      "type" : "Point",
      "coordinates" : [ -76.06872222, 0.340416667 ]
    }
  }, {
    "type" : "Feature",
    "properties" : {
      "TIPO_EVENTO" : "4",
      "DEPARTAMENTO" : "VALLE DEL CAUCA",
      "TIPO_AREA" : "Rural",
      "AÑO" : "2016",
      "MUNICIPIO" : "BUENAVENTURA"
    },
    "geometry" : {
      "type" : "Point",
      "coordinates" : [ -76.99544444, 3.796388889 ]
    }
  }, {
    "type" : "Feature",
    "properties" : {
      "TIPO_EVENTO" : "4",
      "DEPARTAMENTO" : "GUAINIA",
      "TIPO_AREA" : "Rural",
      "AÑO" : "2016",
      "MUNICIPIO" : "BARRANCO MINA"
    },
    "geometry" : {
      "type" : "Point",
      "coordinates" : [ -69.802225, 3.481405556 ]
    }
  }, {
    "type" : "Feature",
    "properties" : {
      "TIPO_EVENTO" : "4",
      "DEPARTAMENTO" : "ANTIOQUIA",
      "TIPO_AREA" : "Rural",
      "AÑO" : "2016",
      "MUNICIPIO" : "YONDÓ"
    },
    "geometry" : {
      "type" : "Point",
      "coordinates" : [ -73.98722222, 7.135833333 ]
    }
  }, {
    "type" : "Feature",
    "properties" : {
      "TIPO_EVENTO" : "4",
      "DEPARTAMENTO" : "SUCRE",
      "TIPO_AREA" : "Rural",
      "AÑO" : "2016",
      "MUNICIPIO" : "OVEJAS"
    },
    "geometry" : {
      "type" : "Point",
      "coordinates" : [ -75.27727778, 9.654861111 ]
    }
  }, {
    "type" : "Feature",
    "properties" : {
      "TIPO_EVENTO" : "4",
      "DEPARTAMENTO" : "CHOCO",
      "TIPO_AREA" : "Rural",
      "AÑO" : "2016",
      "MUNICIPIO" : "BAJO BAUDÓ"
    },
    "geometry" : {
      "type" : "Point",
      "coordinates" : [ -77.20761111, 4.689111111 ]
    }
  }, {
    "type" : "Feature",
    "properties" : {
      "TIPO_EVENTO" : "4",
      "DEPARTAMENTO" : "ANTIOQUIA",
      "TIPO_AREA" : "Rural",
      "AÑO" : "2016",
      "MUNICIPIO" : "YONDÓ"
    },
    "geometry" : {
      "type" : "Point",
      "coordinates" : [ -73.9225, 6.995555556 ]
    }
  }, {
    "type" : "Feature",
    "properties" : {
      "TIPO_EVENTO" : "4",
      "DEPARTAMENTO" : "PUTUMAYO",
      "TIPO_AREA" : "Rural",
      "AÑO" : "2016",
      "MUNICIPIO" : "PUERTO LEGUÍZAMO"
    },
    "geometry" : {
      "type" : "Point",
      "coordinates" : [ -75.97277778, 0.332666666 ]
    }
  }, {
    "type" : "Feature",
    "properties" : {
      "TIPO_EVENTO" : "4",
      "DEPARTAMENTO" : "VALLE DEL CAUCA",
      "TIPO_AREA" : "Rural",
      "AÑO" : "2016",
      "MUNICIPIO" : "BUENAVENTURA"
    },
    "geometry" : {
      "type" : "Point",
      "coordinates" : [ -77.45727778, 3.234722222 ]
    }
  }, {
    "type" : "Feature",
    "properties" : {
      "TIPO_EVENTO" : "4",
      "DEPARTAMENTO" : "PUTUMAYO",
      "TIPO_AREA" : "Rural",
      "AÑO" : "2016",
      "MUNICIPIO" : "PUERTO LEGUÍZAMO"
    },
    "geometry" : {
      "type" : "Point",
      "coordinates" : [ -75.99533333, 0.277166666 ]
    }
  }, {
    "type" : "Feature",
    "properties" : {
      "TIPO_EVENTO" : "4",
      "DEPARTAMENTO" : "GUAVIARE",
      "TIPO_AREA" : "Rural",
      "AÑO" : "2016",
      "MUNICIPIO" : "SAN JOSÉ DEL GUAVIARE"
    },
    "geometry" : {
      "type" : "Point",
      "coordinates" : [ -72.84063333, 2.599266667 ]
    }
  }, {
    "type" : "Feature",
    "properties" : {
      "TIPO_EVENTO" : "4",
      "DEPARTAMENTO" : "ARAUCA",
      "TIPO_AREA" : "Rural",
      "AÑO" : "2016",
      "MUNICIPIO" : "ARAUQUITA"
    },
    "geometry" : {
      "type" : "Point",
      "coordinates" : [ -71.38277778, 7.014722222 ]
    }
  }, {
    "type" : "Feature",
    "properties" : {
      "TIPO_EVENTO" : "4",
      "DEPARTAMENTO" : "CHOCO",
      "TIPO_AREA" : "Rural",
      "AÑO" : "2016",
      "MUNICIPIO" : "NUQUÍ"
    },
    "geometry" : {
      "type" : "Point",
      "coordinates" : [ -77.37975278, 5.612 ]
    }
  }, {
    "type" : "Feature",
    "properties" : {
      "TIPO_EVENTO" : "4",
      "DEPARTAMENTO" : "BOLIVAR",
      "TIPO_AREA" : "Rural",
      "AÑO" : "2016",
      "MUNICIPIO" : "MARÍA LA BAJA"
    },
    "geometry" : {
      "type" : "Point",
      "coordinates" : [ -75.31047222, 9.892750001 ]
    }
  }, {
    "type" : "Feature",
    "properties" : {
      "TIPO_EVENTO" : "4",
      "DEPARTAMENTO" : "ARAUCA",
      "TIPO_AREA" : "Rural",
      "AÑO" : "2016",
      "MUNICIPIO" : "ARAUQUITA"
    },
    "geometry" : {
      "type" : "Point",
      "coordinates" : [ -71.45611389, 7.005752778 ]
    }
  }, {
    "type" : "Feature",
    "properties" : {
      "TIPO_EVENTO" : "4",
      "DEPARTAMENTO" : "META",
      "TIPO_AREA" : "Rural",
      "AÑO" : "2016",
      "MUNICIPIO" : "PUERTO CONCORDIA"
    },
    "geometry" : {
      "type" : "Point",
      "coordinates" : [ -72.83333333, 2.605277778 ]
    }
  }, {
    "type" : "Feature",
    "properties" : {
      "TIPO_EVENTO" : "4",
      "DEPARTAMENTO" : "META",
      "TIPO_AREA" : "Rural",
      "AÑO" : "2016",
      "MUNICIPIO" : "PUERTO CONCORDIA"
    },
    "geometry" : {
      "type" : "Point",
      "coordinates" : [ -72.82888889, 2.610555556 ]
    }
  }, {
    "type" : "Feature",
    "properties" : {
      "TIPO_EVENTO" : "4",
      "DEPARTAMENTO" : "SANTANDER",
      "TIPO_AREA" : "Rural",
      "AÑO" : "2016",
      "MUNICIPIO" : "BARRANCABERMEJA"
    },
    "geometry" : {
      "type" : "Point",
      "coordinates" : [ -73.91861111, 7.131666667 ]
    }
  }, {
    "type" : "Feature",
    "properties" : {
      "TIPO_EVENTO" : "4",
      "DEPARTAMENTO" : "CHOCO",
      "TIPO_AREA" : "Rural",
      "AÑO" : "2016",
      "MUNICIPIO" : "BAJO BAUDÓ"
    },
    "geometry" : {
      "type" : "Point",
      "coordinates" : [ -77.33686111, 5.436388889 ]
    }
  }, {
    "type" : "Feature",
    "properties" : {
      "TIPO_EVENTO" : "4",
      "DEPARTAMENTO" : "CHOCO",
      "TIPO_AREA" : "Rural",
      "AÑO" : "2016",
      "MUNICIPIO" : "BAJO BAUDÓ"
    },
    "geometry" : {
      "type" : "Point",
      "coordinates" : [ -77.34805556, 5.440833333 ]
    }
  }, {
    "type" : "Feature",
    "properties" : {
      "TIPO_EVENTO" : "4",
      "DEPARTAMENTO" : "CHOCO",
      "TIPO_AREA" : "Rural",
      "AÑO" : "2016",
      "MUNICIPIO" : "BAJO BAUDÓ"
    },
    "geometry" : {
      "type" : "Point",
      "coordinates" : [ -77.24413889, 4.779916667 ]
    }
  }, {
    "type" : "Feature",
    "properties" : {
      "TIPO_EVENTO" : "4",
      "DEPARTAMENTO" : "CHOCO",
      "TIPO_AREA" : "Rural",
      "AÑO" : "2016",
      "MUNICIPIO" : "BAJO BAUDÓ"
    },
    "geometry" : {
      "type" : "Point",
      "coordinates" : [ -77.24197222, 4.567833333 ]
    }
  }, {
    "type" : "Feature",
    "properties" : {
      "TIPO_EVENTO" : "4",
      "DEPARTAMENTO" : "BOLIVAR",
      "TIPO_AREA" : "Rural",
      "AÑO" : "2016",
      "MUNICIPIO" : "MARÍA LA BAJA"
    },
    "geometry" : {
      "type" : "Point",
      "coordinates" : [ -75.20869444, 9.975333334 ]
    }
  }, {
    "type" : "Feature",
    "properties" : {
      "TIPO_EVENTO" : "4",
      "DEPARTAMENTO" : "NARIÑO",
      "TIPO_AREA" : "Rural",
      "AÑO" : "2016",
      "MUNICIPIO" : "OLAYA HERRERA"
    },
    "geometry" : {
      "type" : "Point",
      "coordinates" : [ -78.30622222, 2.566527778 ]
    }
  }, {
    "type" : "Feature",
    "properties" : {
      "TIPO_EVENTO" : "4",
      "DEPARTAMENTO" : "ARAUCA",
      "TIPO_AREA" : "Rural",
      "AÑO" : "2016",
      "MUNICIPIO" : "ARAUQUITA"
    },
    "geometry" : {
      "type" : "Point",
      "coordinates" : [ -71.38583333, 7.018611111 ]
    }
  }, {
    "type" : "Feature",
    "properties" : {
      "TIPO_EVENTO" : "4",
      "DEPARTAMENTO" : "BOLIVAR",
      "TIPO_AREA" : "Rural",
      "AÑO" : "2016",
      "MUNICIPIO" : "CÓRDOBA"
    },
    "geometry" : {
      "type" : "Point",
      "coordinates" : [ -74.95638889, 9.675833333 ]
    }
  }, {
    "type" : "Feature",
    "properties" : {
      "TIPO_EVENTO" : "4",
      "DEPARTAMENTO" : "SANTANDER",
      "TIPO_AREA" : "Rural",
      "AÑO" : "2016",
      "MUNICIPIO" : "BARRANCABERMEJA"
    },
    "geometry" : {
      "type" : "Point",
      "coordinates" : [ -73.87194444, 6.996111111 ]
    }
  }, {
    "type" : "Feature",
    "properties" : {
      "TIPO_EVENTO" : "4",
      "DEPARTAMENTO" : "PUTUMAYO",
      "TIPO_AREA" : "Rural",
      "AÑO" : "2016",
      "MUNICIPIO" : "PUERTO LEGUÍZAMO"
    },
    "geometry" : {
      "type" : "Point",
      "coordinates" : [ -76.02527778, 0.347805555 ]
    }
  }, {
    "type" : "Feature",
    "properties" : {
      "TIPO_EVENTO" : "4",
      "DEPARTAMENTO" : "PUTUMAYO",
      "TIPO_AREA" : "Rural",
      "AÑO" : "2016",
      "MUNICIPIO" : "PUERTO LEGUÍZAMO"
    },
    "geometry" : {
      "type" : "Point",
      "coordinates" : [ -76.0095, 0.330666667 ]
    }
  }, {
    "type" : "Feature",
    "properties" : {
      "TIPO_EVENTO" : "4",
      "DEPARTAMENTO" : "CAQUETA",
      "TIPO_AREA" : "Rural",
      "AÑO" : "2016",
      "MUNICIPIO" : "SOLANO"
    },
    "geometry" : {
      "type" : "Point",
      "coordinates" : [ -75.25841667, 0.68925 ]
    }
  }, {
    "type" : "Feature",
    "properties" : {
      "TIPO_EVENTO" : "4",
      "DEPARTAMENTO" : "ARAUCA",
      "TIPO_AREA" : "Rural",
      "AÑO" : "2016",
      "MUNICIPIO" : "ARAUCA"
    },
    "geometry" : {
      "type" : "Point",
      "coordinates" : [ -70.66751111, 7.083902778 ]
    }
  }, {
    "type" : "Feature",
    "properties" : {
      "TIPO_EVENTO" : "4",
      "DEPARTAMENTO" : "CHOCO",
      "TIPO_AREA" : "Rural",
      "AÑO" : "2016",
      "MUNICIPIO" : "BAJO BAUDÓ"
    },
    "geometry" : {
      "type" : "Point",
      "coordinates" : [ -77.22163889, 4.583777778 ]
    }
  }, {
    "type" : "Feature",
    "properties" : {
      "TIPO_EVENTO" : "4",
      "DEPARTAMENTO" : "SANTANDER",
      "TIPO_AREA" : "Rural",
      "AÑO" : "2016",
      "MUNICIPIO" : "BARRANCABERMEJA"
    },
    "geometry" : {
      "type" : "Point",
      "coordinates" : [ -73.6605555, 6.996666667 ]
    }
  }, {
    "type" : "Feature",
    "properties" : {
      "TIPO_EVENTO" : "4",
      "DEPARTAMENTO" : "CHOCO",
      "TIPO_AREA" : "Rural",
      "AÑO" : "2016",
      "MUNICIPIO" : "BAJO BAUDÓ"
    },
    "geometry" : {
      "type" : "Point",
      "coordinates" : [ -77.23261111, 4.581758334 ]
    }
  }, {
    "type" : "Feature",
    "properties" : {
      "TIPO_EVENTO" : "4",
      "DEPARTAMENTO" : "CHOCO",
      "TIPO_AREA" : "Rural",
      "AÑO" : "2016",
      "MUNICIPIO" : "BAJO BAUDÓ"
    },
    "geometry" : {
      "type" : "Point",
      "coordinates" : [ -77.10861389, 4.732111111 ]
    }
  }, {
    "type" : "Feature",
    "properties" : {
      "TIPO_EVENTO" : "4",
      "DEPARTAMENTO" : "CAQUETA",
      "TIPO_AREA" : "Rural",
      "AÑO" : "2016",
      "MUNICIPIO" : "CARTAGENA DEL CHAIRÁ"
    },
    "geometry" : {
      "type" : "Point",
      "coordinates" : [ -74.81722222, 1.364722222 ]
    }
  }, {
    "type" : "Feature",
    "properties" : {
      "TIPO_EVENTO" : "4",
      "DEPARTAMENTO" : "CHOCO",
      "TIPO_AREA" : "Rural",
      "AÑO" : "2016",
      "MUNICIPIO" : "BAJO BAUDÓ"
    },
    "geometry" : {
      "type" : "Point",
      "coordinates" : [ -77.07890556, 4.741397223 ]
    }
  }, {
    "type" : "Feature",
    "properties" : {
      "TIPO_EVENTO" : "4",
      "DEPARTAMENTO" : "SUCRE",
      "TIPO_AREA" : "Rural",
      "AÑO" : "2016",
      "MUNICIPIO" : "OVEJAS"
    },
    "geometry" : {
      "type" : "Point",
      "coordinates" : [ -75.30245833, 9.647333334 ]
    }
  }, {
    "type" : "Feature",
    "properties" : {
      "TIPO_EVENTO" : "4",
      "DEPARTAMENTO" : "SANTANDER",
      "TIPO_AREA" : "Rural",
      "AÑO" : "2016",
      "MUNICIPIO" : "BARRANCABERMEJA"
    },
    "geometry" : {
      "type" : "Point",
      "coordinates" : [ -73.66083333, 6.9975 ]
    }
  }, {
    "type" : "Feature",
    "properties" : {
      "TIPO_EVENTO" : "4",
      "DEPARTAMENTO" : "BOLIVAR",
      "TIPO_AREA" : "Rural",
      "AÑO" : "2016",
      "MUNICIPIO" : "CANTAGALLO"
    },
    "geometry" : {
      "type" : "Point",
      "coordinates" : [ -73.93472222, 7.365833333 ]
    }
  }, {
    "type" : "Feature",
    "properties" : {
      "TIPO_EVENTO" : "4",
      "DEPARTAMENTO" : "ARAUCA",
      "TIPO_AREA" : "Rural",
      "AÑO" : "2016",
      "MUNICIPIO" : "TAME"
    },
    "geometry" : {
      "type" : "Point",
      "coordinates" : [ -71.77, 6.455555556 ]
    }
  }, {
    "type" : "Feature",
    "properties" : {
      "TIPO_EVENTO" : "4",
      "DEPARTAMENTO" : "CHOCO",
      "TIPO_AREA" : "Rural",
      "AÑO" : "2016",
      "MUNICIPIO" : "MEDIO ATRATO"
    },
    "geometry" : {
      "type" : "Point",
      "coordinates" : [ -76.68844444, 5.915083333 ]
    }
  }, {
    "type" : "Feature",
    "properties" : {
      "TIPO_EVENTO" : "4",
      "DEPARTAMENTO" : "ARAUCA",
      "TIPO_AREA" : "Rural",
      "AÑO" : "2016",
      "MUNICIPIO" : "ARAUQUITA"
    },
    "geometry" : {
      "type" : "Point",
      "coordinates" : [ -71.43746944, 7.024086111 ]
    }
  }, {
    "type" : "Feature",
    "properties" : {
      "TIPO_EVENTO" : "4",
      "DEPARTAMENTO" : "VALLE DEL CAUCA",
      "TIPO_AREA" : "Rural",
      "AÑO" : "2016",
      "MUNICIPIO" : "PRADERA"
    },
    "geometry" : {
      "type" : "Point",
      "coordinates" : [ -76.17833333, 3.3875 ]
    }
  }, {
    "type" : "Feature",
    "properties" : {
      "TIPO_EVENTO" : "4",
      "DEPARTAMENTO" : "ARAUCA",
      "TIPO_AREA" : "Rural",
      "AÑO" : "2016",
      "MUNICIPIO" : "FORTUL"
    },
    "geometry" : {
      "type" : "Point",
      "coordinates" : [ -71.64416667, 6.840555556 ]
    }
  }, {
    "type" : "Feature",
    "properties" : {
      "TIPO_EVENTO" : "4",
      "DEPARTAMENTO" : "META",
      "TIPO_AREA" : "Rural",
      "AÑO" : "2016",
      "MUNICIPIO" : "URIBE"
    },
    "geometry" : {
      "type" : "Point",
      "coordinates" : [ -74.23666667, 2.943611111 ]
    }
  }, {
    "type" : "Feature",
    "properties" : {
      "TIPO_EVENTO" : "4",
      "DEPARTAMENTO" : "META",
      "TIPO_AREA" : "Rural",
      "AÑO" : "2016",
      "MUNICIPIO" : "URIBE"
    },
    "geometry" : {
      "type" : "Point",
      "coordinates" : [ -74.34166667, 3.019444444 ]
    }
  }, {
    "type" : "Feature",
    "properties" : {
      "TIPO_EVENTO" : "4",
      "DEPARTAMENTO" : "NORTE DE SANTANDER",
      "TIPO_AREA" : "Rural",
      "AÑO" : "2016",
      "MUNICIPIO" : "EL TARRA"
    },
    "geometry" : {
      "type" : "Point",
      "coordinates" : [ -72.95361111, 8.628888889 ]
    }
  }, {
    "type" : "Feature",
    "properties" : {
      "TIPO_EVENTO" : "4",
      "DEPARTAMENTO" : "CAQUETA",
      "TIPO_AREA" : "Rural",
      "AÑO" : "2016",
      "MUNICIPIO" : "SAN VICENTE DEL CAGUÁN"
    },
    "geometry" : {
      "type" : "Point",
      "coordinates" : [ -74.82, 2.478055556 ]
    }
  }, {
    "type" : "Feature",
    "properties" : {
      "TIPO_EVENTO" : "4",
      "DEPARTAMENTO" : "CAQUETA",
      "TIPO_AREA" : "Rural",
      "AÑO" : "2016",
      "MUNICIPIO" : "SAN VICENTE DEL CAGUÁN"
    },
    "geometry" : {
      "type" : "Point",
      "coordinates" : [ -74.86861111, 2.630833333 ]
    }
  }, {
    "type" : "Feature",
    "properties" : {
      "TIPO_EVENTO" : "4",
      "DEPARTAMENTO" : "NORTE DE SANTANDER",
      "TIPO_AREA" : "Rural",
      "AÑO" : "2016",
      "MUNICIPIO" : "LA PLAYA"
    },
    "geometry" : {
      "type" : "Point",
      "coordinates" : [ -73.24472222, 8.203055556 ]
    }
  }, {
    "type" : "Feature",
    "properties" : {
      "TIPO_EVENTO" : "4",
      "DEPARTAMENTO" : "PUTUMAYO",
      "TIPO_AREA" : "Rural",
      "AÑO" : "2016",
      "MUNICIPIO" : "VALLE DEL GUAMUEZ"
    },
    "geometry" : {
      "type" : "Point",
      "coordinates" : [ -76.69583333, 0.3997222222 ]
    }
  }, {
    "type" : "Feature",
    "properties" : {
      "TIPO_EVENTO" : "4",
      "DEPARTAMENTO" : "META",
      "TIPO_AREA" : "Rural",
      "AÑO" : "2016",
      "MUNICIPIO" : "LA MACARENA"
    },
    "geometry" : {
      "type" : "Point",
      "coordinates" : [ -74.35833333, 2.051111111 ]
    }
  }, {
    "type" : "Feature",
    "properties" : {
      "TIPO_EVENTO" : "4",
      "DEPARTAMENTO" : "NORTE DE SANTANDER",
      "TIPO_AREA" : "Rural",
      "AÑO" : "2016",
      "MUNICIPIO" : "TIBÚ"
    },
    "geometry" : {
      "type" : "Point",
      "coordinates" : [ -72.88777778, 8.609444444 ]
    }
  }, {
    "type" : "Feature",
    "properties" : {
      "TIPO_EVENTO" : "4",
      "DEPARTAMENTO" : "CAQUETA",
      "TIPO_AREA" : "Rural",
      "AÑO" : "2016",
      "MUNICIPIO" : "SAN VICENTE DEL CAGUÁN"
    },
    "geometry" : {
      "type" : "Point",
      "coordinates" : [ -74.80055556, 2.478333333 ]
    }
  }, {
    "type" : "Feature",
    "properties" : {
      "TIPO_EVENTO" : "4",
      "DEPARTAMENTO" : "META",
      "TIPO_AREA" : "Rural",
      "AÑO" : "2016",
      "MUNICIPIO" : "PUERTO RICO"
    },
    "geometry" : {
      "type" : "Point",
      "coordinates" : [ -73.18083333, 2.709444444 ]
    }
  }, {
    "type" : "Feature",
    "properties" : {
      "TIPO_EVENTO" : "4",
      "DEPARTAMENTO" : "META",
      "TIPO_AREA" : "Rural",
      "AÑO" : "2016",
      "MUNICIPIO" : "PUERTO RICO"
    },
    "geometry" : {
      "type" : "Point",
      "coordinates" : [ -73.17972222, 2.71 ]
    }
  }, {
    "type" : "Feature",
    "properties" : {
      "TIPO_EVENTO" : "4",
      "DEPARTAMENTO" : "NORTE DE SANTANDER",
      "TIPO_AREA" : "Rural",
      "AÑO" : "2016",
      "MUNICIPIO" : "SARDINATA"
    },
    "geometry" : {
      "type" : "Point",
      "coordinates" : [ -72.88833333, 8.304444444 ]
    }
  }, {
    "type" : "Feature",
    "properties" : {
      "TIPO_EVENTO" : "4",
      "DEPARTAMENTO" : "META",
      "TIPO_AREA" : "Rural",
      "AÑO" : "2016",
      "MUNICIPIO" : "URIBE"
    },
    "geometry" : {
      "type" : "Point",
      "coordinates" : [ -74.28638889, 2.926111111 ]
    }
  }, {
    "type" : "Feature",
    "properties" : {
      "TIPO_EVENTO" : "4",
      "DEPARTAMENTO" : "META",
      "TIPO_AREA" : "Rural",
      "AÑO" : "2016",
      "MUNICIPIO" : "URIBE"
    },
    "geometry" : {
      "type" : "Point",
      "coordinates" : [ -74.37194444, 3.010555556 ]
    }
  }, {
    "type" : "Feature",
    "properties" : {
      "TIPO_EVENTO" : "4",
      "DEPARTAMENTO" : "META",
      "TIPO_AREA" : "Rural",
      "AÑO" : "2016",
      "MUNICIPIO" : "LA MACARENA"
    },
    "geometry" : {
      "type" : "Point",
      "coordinates" : [ -73.75472222, 1.6925 ]
    }
  }, {
    "type" : "Feature",
    "properties" : {
      "TIPO_EVENTO" : "4",
      "DEPARTAMENTO" : "NORTE DE SANTANDER",
      "TIPO_AREA" : "Rural",
      "AÑO" : "2016",
      "MUNICIPIO" : "CÚCUTA"
    },
    "geometry" : {
      "type" : "Point",
      "coordinates" : [ -72.51277778, 7.880833333 ]
    }
  }, {
    "type" : "Feature",
    "properties" : {
      "TIPO_EVENTO" : "4",
      "DEPARTAMENTO" : "META",
      "TIPO_AREA" : "Rural",
      "AÑO" : "2016",
      "MUNICIPIO" : "VISTAHERMOSA"
    },
    "geometry" : {
      "type" : "Point",
      "coordinates" : [ -73.24944444, 2.416111111 ]
    }
  }, {
    "type" : "Feature",
    "properties" : {
      "TIPO_EVENTO" : "4",
      "DEPARTAMENTO" : "NARIÑO",
      "TIPO_AREA" : "Rural",
      "AÑO" : "2016",
      "MUNICIPIO" : "TUMACO"
    },
    "geometry" : {
      "type" : "Point",
      "coordinates" : [ -78.71444444, 1.393888889 ]
    }
  }, {
    "type" : "Feature",
    "properties" : {
      "TIPO_EVENTO" : "4",
      "DEPARTAMENTO" : "CORDOBA",
      "TIPO_AREA" : "Rural",
      "AÑO" : "2016",
      "MUNICIPIO" : "PUERTO LIBERTADOR"
    },
    "geometry" : {
      "type" : "Point",
      "coordinates" : [ -75.85611111, 7.721666667 ]
    }
  }, {
    "type" : "Feature",
    "properties" : {
      "TIPO_EVENTO" : "4",
      "DEPARTAMENTO" : "META",
      "TIPO_AREA" : "Rural",
      "AÑO" : "2016",
      "MUNICIPIO" : "URIBE"
    },
    "geometry" : {
      "type" : "Point",
      "coordinates" : [ -74.28777778, 2.917777778 ]
    }
  }, {
    "type" : "Feature",
    "properties" : {
      "TIPO_EVENTO" : "4",
      "DEPARTAMENTO" : "META",
      "TIPO_AREA" : "Rural",
      "AÑO" : "2016",
      "MUNICIPIO" : "PUERTO RICO"
    },
    "geometry" : {
      "type" : "Point",
      "coordinates" : [ -73.19833333, 2.705277778 ]
    }
  }, {
    "type" : "Feature",
    "properties" : {
      "TIPO_EVENTO" : "4",
      "DEPARTAMENTO" : "TOLIMA",
      "TIPO_AREA" : "Rural",
      "AÑO" : "2016",
      "MUNICIPIO" : "CHAPARRAL"
    },
    "geometry" : {
      "type" : "Point",
      "coordinates" : [ -75.65611111, 3.864166667 ]
    }
  }, {
    "type" : "Feature",
    "properties" : {
      "TIPO_EVENTO" : "4",
      "DEPARTAMENTO" : "ARAUCA",
      "TIPO_AREA" : "Rural",
      "AÑO" : "2016",
      "MUNICIPIO" : "TAME"
    },
    "geometry" : {
      "type" : "Point",
      "coordinates" : [ -71.48305556, 6.531111111 ]
    }
  }, {
    "type" : "Feature",
    "properties" : {
      "TIPO_EVENTO" : "4",
      "DEPARTAMENTO" : "META",
      "TIPO_AREA" : "Rural",
      "AÑO" : "2016",
      "MUNICIPIO" : "URIBE"
    },
    "geometry" : {
      "type" : "Point",
      "coordinates" : [ -74.2425, 2.965833333 ]
    }
  }, {
    "type" : "Feature",
    "properties" : {
      "TIPO_EVENTO" : "4",
      "DEPARTAMENTO" : "META",
      "TIPO_AREA" : "Rural",
      "AÑO" : "2016",
      "MUNICIPIO" : "LA MACARENA"
    },
    "geometry" : {
      "type" : "Point",
      "coordinates" : [ -73.78972222, 1.710277778 ]
    }
  }, {
    "type" : "Feature",
    "properties" : {
      "TIPO_EVENTO" : "4",
      "DEPARTAMENTO" : "META",
      "TIPO_AREA" : "Rural",
      "AÑO" : "2016",
      "MUNICIPIO" : "PUERTO RICO"
    },
    "geometry" : {
      "type" : "Point",
      "coordinates" : [ -73.19111111, 2.684444444 ]
    }
  }, {
    "type" : "Feature",
    "properties" : {
      "TIPO_EVENTO" : "4",
      "DEPARTAMENTO" : "META",
      "TIPO_AREA" : "Rural",
      "AÑO" : "2016",
      "MUNICIPIO" : "PUERTO RICO"
    },
    "geometry" : {
      "type" : "Point",
      "coordinates" : [ -73.12, 2.716388889 ]
    }
  }, {
    "type" : "Feature",
    "properties" : {
      "TIPO_EVENTO" : "4",
      "DEPARTAMENTO" : "PUTUMAYO",
      "TIPO_AREA" : "Rural",
      "AÑO" : "2016",
      "MUNICIPIO" : "SAN MIGUEL"
    },
    "geometry" : {
      "type" : "Point",
      "coordinates" : [ -76.99972222, 0.3358333333 ]
    }
  }, {
    "type" : "Feature",
    "properties" : {
      "TIPO_EVENTO" : "4",
      "DEPARTAMENTO" : "CAQUETA",
      "TIPO_AREA" : "Rural",
      "AÑO" : "2016",
      "MUNICIPIO" : "FLORENCIA"
    },
    "geometry" : {
      "type" : "Point",
      "coordinates" : [ -75.4325, 1.750833333 ]
    }
  }, {
    "type" : "Feature",
    "properties" : {
      "TIPO_EVENTO" : "4",
      "DEPARTAMENTO" : "META",
      "TIPO_AREA" : "Rural",
      "AÑO" : "2016",
      "MUNICIPIO" : "PUERTO RICO"
    },
    "geometry" : {
      "type" : "Point",
      "coordinates" : [ -73.12444444, 2.715833333 ]
    }
  }, {
    "type" : "Feature",
    "properties" : {
      "TIPO_EVENTO" : "4",
      "DEPARTAMENTO" : "PUTUMAYO",
      "TIPO_AREA" : "Rural",
      "AÑO" : "2016",
      "MUNICIPIO" : "PUERTO CAICEDO"
    },
    "geometry" : {
      "type" : "Point",
      "coordinates" : [ -76.60472222, 0.6988888889 ]
    }
  }, {
    "type" : "Feature",
    "properties" : {
      "TIPO_EVENTO" : "4",
      "DEPARTAMENTO" : "CAQUETA",
      "TIPO_AREA" : "Rural",
      "AÑO" : "2016",
      "MUNICIPIO" : "MONTAÑITA"
    },
    "geometry" : {
      "type" : "Point",
      "coordinates" : [ -75.00805556, 1.013611111 ]
    }
  }, {
    "type" : "Feature",
    "properties" : {
      "TIPO_EVENTO" : "4",
      "DEPARTAMENTO" : "META",
      "TIPO_AREA" : "Rural",
      "AÑO" : "2016",
      "MUNICIPIO" : "URIBE"
    },
    "geometry" : {
      "type" : "Point",
      "coordinates" : [ -74.40777778, 2.891944444 ]
    }
  }, {
    "type" : "Feature",
    "properties" : {
      "TIPO_EVENTO" : "4",
      "DEPARTAMENTO" : "META",
      "TIPO_AREA" : "Rural",
      "AÑO" : "2016",
      "MUNICIPIO" : "URIBE"
    },
    "geometry" : {
      "type" : "Point",
      "coordinates" : [ -74.46083333, 3.201944444 ]
    }
  }, {
    "type" : "Feature",
    "properties" : {
      "TIPO_EVENTO" : "4",
      "DEPARTAMENTO" : "CAQUETA",
      "TIPO_AREA" : "Rural",
      "AÑO" : "2016",
      "MUNICIPIO" : "PUERTO RICO"
    },
    "geometry" : {
      "type" : "Point",
      "coordinates" : [ -74.84638889, 1.616944444 ]
    }
  }, {
    "type" : "Feature",
    "properties" : {
      "TIPO_EVENTO" : "4",
      "DEPARTAMENTO" : "PUTUMAYO",
      "TIPO_AREA" : "Rural",
      "AÑO" : "2016",
      "MUNICIPIO" : "PUERTO ASÍS"
    },
    "geometry" : {
      "type" : "Point",
      "coordinates" : [ -76.60083333, 0.4127777778 ]
    }
  }, {
    "type" : "Feature",
    "properties" : {
      "TIPO_EVENTO" : "4",
      "DEPARTAMENTO" : "META",
      "TIPO_AREA" : "Rural",
      "AÑO" : "2016",
      "MUNICIPIO" : "URIBE"
    },
    "geometry" : {
      "type" : "Point",
      "coordinates" : [ -74.27972222, 2.923611111 ]
    }
  }, {
    "type" : "Feature",
    "properties" : {
      "TIPO_EVENTO" : "4",
      "DEPARTAMENTO" : "TOLIMA",
      "TIPO_AREA" : "Rural",
      "AÑO" : "2016",
      "MUNICIPIO" : "RIOBLANCO"
    },
    "geometry" : {
      "type" : "Point",
      "coordinates" : [ -75.75805556, 3.598333333 ]
    }
  }, {
    "type" : "Feature",
    "properties" : {
      "TIPO_EVENTO" : "4",
      "DEPARTAMENTO" : "CAQUETA",
      "TIPO_AREA" : "Rural",
      "AÑO" : "2016",
      "MUNICIPIO" : "MONTAÑITA"
    },
    "geometry" : {
      "type" : "Point",
      "coordinates" : [ -74.95861111, 1.016666667 ]
    }
  }, {
    "type" : "Feature",
    "properties" : {
      "TIPO_EVENTO" : "4",
      "DEPARTAMENTO" : "CHOCO",
      "TIPO_AREA" : "Rural",
      "AÑO" : "2016",
      "MUNICIPIO" : "RIOSUCIO"
    },
    "geometry" : {
      "type" : "Point",
      "coordinates" : [ -77.25138889, 7.356666667 ]
    }
  }, {
    "type" : "Feature",
    "properties" : {
      "TIPO_EVENTO" : "4",
      "DEPARTAMENTO" : "META",
      "TIPO_AREA" : "Rural",
      "AÑO" : "2016",
      "MUNICIPIO" : "URIBE"
    },
    "geometry" : {
      "type" : "Point",
      "coordinates" : [ -74.29805556, 2.956111111 ]
    }
  }, {
    "type" : "Feature",
    "properties" : {
      "TIPO_EVENTO" : "4",
      "DEPARTAMENTO" : "META",
      "TIPO_AREA" : "Rural",
      "AÑO" : "2016",
      "MUNICIPIO" : "URIBE"
    },
    "geometry" : {
      "type" : "Point",
      "coordinates" : [ -74.40055556, 3.053055556 ]
    }
  }, {
    "type" : "Feature",
    "properties" : {
      "TIPO_EVENTO" : "4",
      "DEPARTAMENTO" : "META",
      "TIPO_AREA" : "Rural",
      "AÑO" : "2016",
      "MUNICIPIO" : "PUERTO RICO"
    },
    "geometry" : {
      "type" : "Point",
      "coordinates" : [ -73.18333333, 2.931111111 ]
    }
  }, {
    "type" : "Feature",
    "properties" : {
      "TIPO_EVENTO" : "4",
      "DEPARTAMENTO" : "NORTE DE SANTANDER",
      "TIPO_AREA" : "Rural",
      "AÑO" : "2016",
      "MUNICIPIO" : "TIBÚ"
    },
    "geometry" : {
      "type" : "Point",
      "coordinates" : [ -72.81138889, 8.585 ]
    }
  }, {
    "type" : "Feature",
    "properties" : {
      "TIPO_EVENTO" : "4",
      "DEPARTAMENTO" : "VALLE DEL CAUCA",
      "TIPO_AREA" : "Rural",
      "AÑO" : "2016",
      "MUNICIPIO" : "PALMIRA"
    },
    "geometry" : {
      "type" : "Point",
      "coordinates" : [ -76.31444444, 3.5925 ]
    }
  }, {
    "type" : "Feature",
    "properties" : {
      "TIPO_EVENTO" : "4",
      "DEPARTAMENTO" : "CAQUETA",
      "TIPO_AREA" : "Rural",
      "AÑO" : "2016",
      "MUNICIPIO" : "MONTAÑITA"
    },
    "geometry" : {
      "type" : "Point",
      "coordinates" : [ -74.95361111, 1.018888889 ]
    }
  }, {
    "type" : "Feature",
    "properties" : {
      "TIPO_EVENTO" : "4",
      "DEPARTAMENTO" : "META",
      "TIPO_AREA" : "Rural",
      "AÑO" : "2016",
      "MUNICIPIO" : "URIBE"
    },
    "geometry" : {
      "type" : "Point",
      "coordinates" : [ -74.45361111, 3.075555556 ]
    }
  }, {
    "type" : "Feature",
    "properties" : {
      "TIPO_EVENTO" : "4",
      "DEPARTAMENTO" : "META",
      "TIPO_AREA" : "Rural",
      "AÑO" : "2016",
      "MUNICIPIO" : "URIBE"
    },
    "geometry" : {
      "type" : "Point",
      "coordinates" : [ -74.36944444, 3.101111111 ]
    }
  }, {
    "type" : "Feature",
    "properties" : {
      "TIPO_EVENTO" : "4",
      "DEPARTAMENTO" : "META",
      "TIPO_AREA" : "Rural",
      "AÑO" : "2016",
      "MUNICIPIO" : "URIBE"
    },
    "geometry" : {
      "type" : "Point",
      "coordinates" : [ -74.48416667, 2.565277778 ]
    }
  }, {
    "type" : "Feature",
    "properties" : {
      "TIPO_EVENTO" : "4",
      "DEPARTAMENTO" : "TOLIMA",
      "TIPO_AREA" : "Rural",
      "AÑO" : "2016",
      "MUNICIPIO" : "CHAPARRAL"
    },
    "geometry" : {
      "type" : "Point",
      "coordinates" : [ -75.52388889, 3.7125 ]
    }
  }, {
    "type" : "Feature",
    "properties" : {
      "TIPO_EVENTO" : "4",
      "DEPARTAMENTO" : "PUTUMAYO",
      "TIPO_AREA" : "Rural",
      "AÑO" : "2016",
      "MUNICIPIO" : "SAN MIGUEL"
    },
    "geometry" : {
      "type" : "Point",
      "coordinates" : [ -76.91805556, 0.3791666667 ]
    }
  }, {
    "type" : "Feature",
    "properties" : {
      "TIPO_EVENTO" : "4",
      "DEPARTAMENTO" : "CAQUETA",
      "TIPO_AREA" : "Rural",
      "AÑO" : "2016",
      "MUNICIPIO" : "SAN VICENTE DEL CAGUÁN"
    },
    "geometry" : {
      "type" : "Point",
      "coordinates" : [ -74.86583333, 2.594444444 ]
    }
  }, {
    "type" : "Feature",
    "properties" : {
      "TIPO_EVENTO" : "4",
      "DEPARTAMENTO" : "ANTIOQUIA",
      "TIPO_AREA" : "Rural",
      "AÑO" : "2016",
      "MUNICIPIO" : "ANORÍ"
    },
    "geometry" : {
      "type" : "Point",
      "coordinates" : [ -75.06222222, 7.288611111 ]
    }
  }, {
    "type" : "Feature",
    "properties" : {
      "TIPO_EVENTO" : "4",
      "DEPARTAMENTO" : "META",
      "TIPO_AREA" : "Rural",
      "AÑO" : "2016",
      "MUNICIPIO" : "URIBE"
    },
    "geometry" : {
      "type" : "Point",
      "coordinates" : [ -74.20861111, 2.943611111 ]
    }
  }, {
    "type" : "Feature",
    "properties" : {
      "TIPO_EVENTO" : "4",
      "DEPARTAMENTO" : "META",
      "TIPO_AREA" : "Rural",
      "AÑO" : "2016",
      "MUNICIPIO" : "URIBE"
    },
    "geometry" : {
      "type" : "Point",
      "coordinates" : [ -74.39111111, 3.034722222 ]
    }
  }, {
    "type" : "Feature",
    "properties" : {
      "TIPO_EVENTO" : "4",
      "DEPARTAMENTO" : "META",
      "TIPO_AREA" : "Rural",
      "AÑO" : "2016",
      "MUNICIPIO" : "URIBE"
    },
    "geometry" : {
      "type" : "Point",
      "coordinates" : [ -74.20944444, 2.943611111 ]
    }
  }, {
    "type" : "Feature",
    "properties" : {
      "TIPO_EVENTO" : "4",
      "DEPARTAMENTO" : "CAUCA",
      "TIPO_AREA" : "Rural",
      "AÑO" : "2016",
      "MUNICIPIO" : "MIRANDA"
    },
    "geometry" : {
      "type" : "Point",
      "coordinates" : [ -76.23527778, 3.266388889 ]
    }
  }, {
    "type" : "Feature",
    "properties" : {
      "TIPO_EVENTO" : "4",
      "DEPARTAMENTO" : "CAQUETA",
      "TIPO_AREA" : "Rural",
      "AÑO" : "2016",
      "MUNICIPIO" : "MONTAÑITA"
    },
    "geometry" : {
      "type" : "Point",
      "coordinates" : [ -75.09972222, 1.131111111 ]
    }
  }, {
    "type" : "Feature",
    "properties" : {
      "TIPO_EVENTO" : "4",
      "DEPARTAMENTO" : "CAQUETA",
      "TIPO_AREA" : "Rural",
      "AÑO" : "2016",
      "MUNICIPIO" : "PUERTO RICO"
    },
    "geometry" : {
      "type" : "Point",
      "coordinates" : [ -75.01527778, 2.2275 ]
    }
  }, {
    "type" : "Feature",
    "properties" : {
      "TIPO_EVENTO" : "4",
      "DEPARTAMENTO" : "META",
      "TIPO_AREA" : "Rural",
      "AÑO" : "2016",
      "MUNICIPIO" : "LA MACARENA"
    },
    "geometry" : {
      "type" : "Point",
      "coordinates" : [ -74.29888889, 2.163333333 ]
    }
  }, {
    "type" : "Feature",
    "properties" : {
      "TIPO_EVENTO" : "4",
      "DEPARTAMENTO" : "CAQUETA",
      "TIPO_AREA" : "Rural",
      "AÑO" : "2016",
      "MUNICIPIO" : "SAN VICENTE DEL CAGUÁN"
    },
    "geometry" : {
      "type" : "Point",
      "coordinates" : [ -74.74083333, 2.528888889 ]
    }
  }, {
    "type" : "Feature",
    "properties" : {
      "TIPO_EVENTO" : "4",
      "DEPARTAMENTO" : "META",
      "TIPO_AREA" : "Rural",
      "AÑO" : "2016",
      "MUNICIPIO" : "URIBE"
    },
    "geometry" : {
      "type" : "Point",
      "coordinates" : [ -74.2125, 2.913333333 ]
    }
  }, {
    "type" : "Feature",
    "properties" : {
      "TIPO_EVENTO" : "4",
      "DEPARTAMENTO" : "CAQUETA",
      "TIPO_AREA" : "Rural",
      "AÑO" : "2016",
      "MUNICIPIO" : "MONTAÑITA"
    },
    "geometry" : {
      "type" : "Point",
      "coordinates" : [ -75.16944444, 1.301666667 ]
    }
  }, {
    "type" : "Feature",
    "properties" : {
      "TIPO_EVENTO" : "4",
      "DEPARTAMENTO" : "CORDOBA",
      "TIPO_AREA" : "Rural",
      "AÑO" : "2016",
      "MUNICIPIO" : "PUERTO LIBERTADOR"
    },
    "geometry" : {
      "type" : "Point",
      "coordinates" : [ -75.68583333, 7.729444444 ]
    }
  }, {
    "type" : "Feature",
    "properties" : {
      "TIPO_EVENTO" : "4",
      "DEPARTAMENTO" : "META",
      "TIPO_AREA" : "Rural",
      "AÑO" : "2016",
      "MUNICIPIO" : "URIBE"
    },
    "geometry" : {
      "type" : "Point",
      "coordinates" : [ -74.21555556, 2.896388889 ]
    }
  }, {
    "type" : "Feature",
    "properties" : {
      "TIPO_EVENTO" : "4",
      "DEPARTAMENTO" : "META",
      "TIPO_AREA" : "Rural",
      "AÑO" : "2016",
      "MUNICIPIO" : "URIBE"
    },
    "geometry" : {
      "type" : "Point",
      "coordinates" : [ -74.4075, 3.113611111 ]
    }
  }, {
    "type" : "Feature",
    "properties" : {
      "TIPO_EVENTO" : "4",
      "DEPARTAMENTO" : "META",
      "TIPO_AREA" : "Rural",
      "AÑO" : "2016",
      "MUNICIPIO" : "URIBE"
    },
    "geometry" : {
      "type" : "Point",
      "coordinates" : [ -74.33555556, 2.863611111 ]
    }
  }, {
    "type" : "Feature",
    "properties" : {
      "TIPO_EVENTO" : "4",
      "DEPARTAMENTO" : "META",
      "TIPO_AREA" : "Rural",
      "AÑO" : "2016",
      "MUNICIPIO" : "PUERTO RICO"
    },
    "geometry" : {
      "type" : "Point",
      "coordinates" : [ -73.13694444, 2.695555556 ]
    }
  }, {
    "type" : "Feature",
    "properties" : {
      "TIPO_EVENTO" : "4",
      "DEPARTAMENTO" : "META",
      "TIPO_AREA" : "Rural",
      "AÑO" : "2016",
      "MUNICIPIO" : "PUERTO RICO"
    },
    "geometry" : {
      "type" : "Point",
      "coordinates" : [ -73.12555556, 2.682777778 ]
    }
  }, {
    "type" : "Feature",
    "properties" : {
      "TIPO_EVENTO" : "4",
      "DEPARTAMENTO" : "NORTE DE SANTANDER",
      "TIPO_AREA" : "Rural",
      "AÑO" : "2016",
      "MUNICIPIO" : "HACARÍ"
    },
    "geometry" : {
      "type" : "Point",
      "coordinates" : [ -72.99277778, 8.410277778 ]
    }
  }, {
    "type" : "Feature",
    "properties" : {
      "TIPO_EVENTO" : "4",
      "DEPARTAMENTO" : "META",
      "TIPO_AREA" : "Rural",
      "AÑO" : "2016",
      "MUNICIPIO" : "URIBE"
    },
    "geometry" : {
      "type" : "Point",
      "coordinates" : [ -74.27611111, 2.861388889 ]
    }
  }, {
    "type" : "Feature",
    "properties" : {
      "TIPO_EVENTO" : "4",
      "DEPARTAMENTO" : "NARIÑO",
      "TIPO_AREA" : "Rural",
      "AÑO" : "2016",
      "MUNICIPIO" : "BARBACOAS"
    },
    "geometry" : {
      "type" : "Point",
      "coordinates" : [ -78.07916667, 1.508055556 ]
    }
  }, {
    "type" : "Feature",
    "properties" : {
      "TIPO_EVENTO" : "4",
      "DEPARTAMENTO" : "CAUCA",
      "TIPO_AREA" : "Rural",
      "AÑO" : "2016",
      "MUNICIPIO" : "LÓPEZ"
    },
    "geometry" : {
      "type" : "Point",
      "coordinates" : [ -76.8175, 3.104444444 ]
    }
  }, {
    "type" : "Feature",
    "properties" : {
      "TIPO_EVENTO" : "4",
      "DEPARTAMENTO" : "TOLIMA",
      "TIPO_AREA" : "Rural",
      "AÑO" : "2016",
      "MUNICIPIO" : "CHAPARRAL"
    },
    "geometry" : {
      "type" : "Point",
      "coordinates" : [ -75.37583333, 3.777222222 ]
    }
  }, {
    "type" : "Feature",
    "properties" : {
      "TIPO_EVENTO" : "4",
      "DEPARTAMENTO" : "TOLIMA",
      "TIPO_AREA" : "Rural",
      "AÑO" : "2016",
      "MUNICIPIO" : "CHAPARRAL"
    },
    "geometry" : {
      "type" : "Point",
      "coordinates" : [ -75.62222222, 3.802777778 ]
    }
  }, {
    "type" : "Feature",
    "properties" : {
      "TIPO_EVENTO" : "4",
      "DEPARTAMENTO" : "CAQUETA",
      "TIPO_AREA" : "Rural",
      "AÑO" : "2016",
      "MUNICIPIO" : "MONTAÑITA"
    },
    "geometry" : {
      "type" : "Point",
      "coordinates" : [ -75.07916667, 1.125555556 ]
    }
  }, {
    "type" : "Feature",
    "properties" : {
      "TIPO_EVENTO" : "4",
      "DEPARTAMENTO" : "TOLIMA",
      "TIPO_AREA" : "Rural",
      "AÑO" : "2016",
      "MUNICIPIO" : "CHAPARRAL"
    },
    "geometry" : {
      "type" : "Point",
      "coordinates" : [ -75.65333333, 3.865555556 ]
    }
  }, {
    "type" : "Feature",
    "properties" : {
      "TIPO_EVENTO" : "4",
      "DEPARTAMENTO" : "VALLE DEL CAUCA",
      "TIPO_AREA" : "Rural",
      "AÑO" : "2016",
      "MUNICIPIO" : "PRADERA"
    },
    "geometry" : {
      "type" : "Point",
      "coordinates" : [ -76.17722222, 3.421388889 ]
    }
  }, {
    "type" : "Feature",
    "properties" : {
      "TIPO_EVENTO" : "4",
      "DEPARTAMENTO" : "PUTUMAYO",
      "TIPO_AREA" : "Rural",
      "AÑO" : "2016",
      "MUNICIPIO" : "PUERTO GUZMÁN"
    },
    "geometry" : {
      "type" : "Point",
      "coordinates" : [ -76.27805556, 0.96 ]
    }
  }, {
    "type" : "Feature",
    "properties" : {
      "TIPO_EVENTO" : "4",
      "DEPARTAMENTO" : "CAQUETA",
      "TIPO_AREA" : "Rural",
      "AÑO" : "2016",
      "MUNICIPIO" : "MONTAÑITA"
    },
    "geometry" : {
      "type" : "Point",
      "coordinates" : [ -75.11388889, 1.138333333 ]
    }
  }, {
    "type" : "Feature",
    "properties" : {
      "TIPO_EVENTO" : "4",
      "DEPARTAMENTO" : "ANTIOQUIA",
      "TIPO_AREA" : "Rural",
      "AÑO" : "2016",
      "MUNICIPIO" : "CÁCERES"
    },
    "geometry" : {
      "type" : "Point",
      "coordinates" : [ -75.14138889, 7.433333333 ]
    }
  }, {
    "type" : "Feature",
    "properties" : {
      "TIPO_EVENTO" : "4",
      "DEPARTAMENTO" : "ANTIOQUIA",
      "TIPO_AREA" : "Rural",
      "AÑO" : "2016",
      "MUNICIPIO" : "DABEIBA"
    },
    "geometry" : {
      "type" : "Point",
      "coordinates" : [ -76.41111111, 7.1575 ]
    }
  }, {
    "type" : "Feature",
    "properties" : {
      "TIPO_EVENTO" : "4",
      "DEPARTAMENTO" : "META",
      "TIPO_AREA" : "Rural",
      "AÑO" : "2016",
      "MUNICIPIO" : "URIBE"
    },
    "geometry" : {
      "type" : "Point",
      "coordinates" : [ -74.38388889, 3.208888889 ]
    }
  }, {
    "type" : "Feature",
    "properties" : {
      "TIPO_EVENTO" : "4",
      "DEPARTAMENTO" : "ARAUCA",
      "TIPO_AREA" : "Rural",
      "AÑO" : "2016",
      "MUNICIPIO" : "ARAUQUITA"
    },
    "geometry" : {
      "type" : "Point",
      "coordinates" : [ -71.60027778, 6.853333333 ]
    }
  }, {
    "type" : "Feature",
    "properties" : {
      "TIPO_EVENTO" : "4",
      "DEPARTAMENTO" : "CORDOBA",
      "TIPO_AREA" : "Rural",
      "AÑO" : "2016",
      "MUNICIPIO" : "SAN JOSE DE URE"
    },
    "geometry" : {
      "type" : "Point",
      "coordinates" : [ -75.68388889, 7.653888889 ]
    }
  }, {
    "type" : "Feature",
    "properties" : {
      "TIPO_EVENTO" : "4",
      "DEPARTAMENTO" : "META",
      "TIPO_AREA" : "Rural",
      "AÑO" : "2016",
      "MUNICIPIO" : "URIBE"
    },
    "geometry" : {
      "type" : "Point",
      "coordinates" : [ -74.34805556, 2.603333333 ]
    }
  }, {
    "type" : "Feature",
    "properties" : {
      "TIPO_EVENTO" : "4",
      "DEPARTAMENTO" : "META",
      "TIPO_AREA" : "Rural",
      "AÑO" : "2016",
      "MUNICIPIO" : "PUERTO RICO"
    },
    "geometry" : {
      "type" : "Point",
      "coordinates" : [ -73.17083333, 2.711666667 ]
    }
  }, {
    "type" : "Feature",
    "properties" : {
      "TIPO_EVENTO" : "4",
      "DEPARTAMENTO" : "NORTE DE SANTANDER",
      "TIPO_AREA" : "Rural",
      "AÑO" : "2016",
      "MUNICIPIO" : "ÁBREGO"
    },
    "geometry" : {
      "type" : "Point",
      "coordinates" : [ -73.01916667, 8.059722222 ]
    }
  }, {
    "type" : "Feature",
    "properties" : {
      "TIPO_EVENTO" : "4",
      "DEPARTAMENTO" : "CAQUETA",
      "TIPO_AREA" : "Rural",
      "AÑO" : "2016",
      "MUNICIPIO" : "MONTAÑITA"
    },
    "geometry" : {
      "type" : "Point",
      "coordinates" : [ -75.10555556, 1.129166667 ]
    }
  }, {
    "type" : "Feature",
    "properties" : {
      "TIPO_EVENTO" : "4",
      "DEPARTAMENTO" : "CAQUETA",
      "TIPO_AREA" : "Rural",
      "AÑO" : "2016",
      "MUNICIPIO" : "SOLANO"
    },
    "geometry" : {
      "type" : "Point",
      "coordinates" : [ -75.02833333, 1.004722222 ]
    }
  }, {
    "type" : "Feature",
    "properties" : {
      "TIPO_EVENTO" : "4",
      "DEPARTAMENTO" : "ARAUCA",
      "TIPO_AREA" : "Rural",
      "AÑO" : "2016",
      "MUNICIPIO" : "TAME"
    },
    "geometry" : {
      "type" : "Point",
      "coordinates" : [ -71.65222222, 6.465833333 ]
    }
  }, {
    "type" : "Feature",
    "properties" : {
      "TIPO_EVENTO" : "4",
      "DEPARTAMENTO" : "META",
      "TIPO_AREA" : "Rural",
      "AÑO" : "2016",
      "MUNICIPIO" : "URIBE"
    },
    "geometry" : {
      "type" : "Point",
      "coordinates" : [ -74.18527778, 2.594722222 ]
    }
  }, {
    "type" : "Feature",
    "properties" : {
      "TIPO_EVENTO" : "4",
      "DEPARTAMENTO" : "TOLIMA",
      "TIPO_AREA" : "Rural",
      "AÑO" : "2016",
      "MUNICIPIO" : "CHAPARRAL"
    },
    "geometry" : {
      "type" : "Point",
      "coordinates" : [ -75.5925, 3.654166667 ]
    }
  }, {
    "type" : "Feature",
    "properties" : {
      "TIPO_EVENTO" : "4",
      "DEPARTAMENTO" : "CAQUETA",
      "TIPO_AREA" : "Rural",
      "AÑO" : "2016",
      "MUNICIPIO" : "MONTAÑITA"
    },
    "geometry" : {
      "type" : "Point",
      "coordinates" : [ -75.0325, 1.063611111 ]
    }
  }, {
    "type" : "Feature",
    "properties" : {
      "TIPO_EVENTO" : "4",
      "DEPARTAMENTO" : "META",
      "TIPO_AREA" : "Rural",
      "AÑO" : "2016",
      "MUNICIPIO" : "URIBE"
    },
    "geometry" : {
      "type" : "Point",
      "coordinates" : [ -74.26611111, 2.836388889 ]
    }
  }, {
    "type" : "Feature",
    "properties" : {
      "TIPO_EVENTO" : "4",
      "DEPARTAMENTO" : "CAQUETA",
      "TIPO_AREA" : "Rural",
      "AÑO" : "2016",
      "MUNICIPIO" : "SAN VICENTE DEL CAGUÁN"
    },
    "geometry" : {
      "type" : "Point",
      "coordinates" : [ -74.53777778, 1.364722222 ]
    }
  }, {
    "type" : "Feature",
    "properties" : {
      "TIPO_EVENTO" : "4",
      "DEPARTAMENTO" : "CAQUETA",
      "TIPO_AREA" : "Rural",
      "AÑO" : "2016",
      "MUNICIPIO" : "SAN VICENTE DEL CAGUÁN"
    },
    "geometry" : {
      "type" : "Point",
      "coordinates" : [ -74.2675, 1.748333333 ]
    }
  }, {
    "type" : "Feature",
    "properties" : {
      "TIPO_EVENTO" : "4",
      "DEPARTAMENTO" : "CAQUETA",
      "TIPO_AREA" : "Rural",
      "AÑO" : "2016",
      "MUNICIPIO" : "CARTAGENA DEL CHAIRÁ"
    },
    "geometry" : {
      "type" : "Point",
      "coordinates" : [ -74.38833333, 0.6419444444 ]
    }
  }, {
    "type" : "Feature",
    "properties" : {
      "TIPO_EVENTO" : "4",
      "DEPARTAMENTO" : "CAQUETA",
      "TIPO_AREA" : "Rural",
      "AÑO" : "2016",
      "MUNICIPIO" : "SAN VICENTE DEL CAGUÁN"
    },
    "geometry" : {
      "type" : "Point",
      "coordinates" : [ -74.77305556, 2.588333333 ]
    }
  }, {
    "type" : "Feature",
    "properties" : {
      "TIPO_EVENTO" : "4",
      "DEPARTAMENTO" : "CORDOBA",
      "TIPO_AREA" : "Rural",
      "AÑO" : "2016",
      "MUNICIPIO" : "SAN JOSE DE URE"
    },
    "geometry" : {
      "type" : "Point",
      "coordinates" : [ -75.68388889, 7.653888889 ]
    }
  }, {
    "type" : "Feature",
    "properties" : {
      "TIPO_EVENTO" : "4",
      "DEPARTAMENTO" : "META",
      "TIPO_AREA" : "Rural",
      "AÑO" : "2016",
      "MUNICIPIO" : "URIBE"
    },
    "geometry" : {
      "type" : "Point",
      "coordinates" : [ -74.26444444, 2.845277778 ]
    }
  }, {
    "type" : "Feature",
    "properties" : {
      "TIPO_EVENTO" : "4",
      "DEPARTAMENTO" : "SANTANDER",
      "TIPO_AREA" : "Rural",
      "AÑO" : "2016",
      "MUNICIPIO" : "GUACA"
    },
    "geometry" : {
      "type" : "Point",
      "coordinates" : [ -72.79444444, 7.04 ]
    }
  }, {
    "type" : "Feature",
    "properties" : {
      "TIPO_EVENTO" : "4",
      "DEPARTAMENTO" : "VALLE DEL CAUCA",
      "TIPO_AREA" : "Rural",
      "AÑO" : "2016",
      "MUNICIPIO" : "JAMUNDÍ"
    },
    "geometry" : {
      "type" : "Point",
      "coordinates" : [ -76.66222222, 3.212222222 ]
    }
  }, {
    "type" : "Feature",
    "properties" : {
      "TIPO_EVENTO" : "4",
      "DEPARTAMENTO" : "META",
      "TIPO_AREA" : "Rural",
      "AÑO" : "2016",
      "MUNICIPIO" : "URIBE"
    },
    "geometry" : {
      "type" : "Point",
      "coordinates" : [ -74.22055556, 3.007777778 ]
    }
  }, {
    "type" : "Feature",
    "properties" : {
      "TIPO_EVENTO" : "4",
      "DEPARTAMENTO" : "META",
      "TIPO_AREA" : "Rural",
      "AÑO" : "2016",
      "MUNICIPIO" : "LA MACARENA"
    },
    "geometry" : {
      "type" : "Point",
      "coordinates" : [ -74.23, 2.271666667 ]
    }
  }, {
    "type" : "Feature",
    "properties" : {
      "TIPO_EVENTO" : "4",
      "DEPARTAMENTO" : "TOLIMA",
      "TIPO_AREA" : "Rural",
      "AÑO" : "2016",
      "MUNICIPIO" : "CHAPARRAL"
    },
    "geometry" : {
      "type" : "Point",
      "coordinates" : [ -75.61083333, 3.706111111 ]
    }
  }, {
    "type" : "Feature",
    "properties" : {
      "TIPO_EVENTO" : "4",
      "DEPARTAMENTO" : "CAQUETA",
      "TIPO_AREA" : "Rural",
      "AÑO" : "2016",
      "MUNICIPIO" : "MONTAÑITA"
    },
    "geometry" : {
      "type" : "Point",
      "coordinates" : [ -75.08861111, 1.171944444 ]
    }
  }, {
    "type" : "Feature",
    "properties" : {
      "TIPO_EVENTO" : "4",
      "DEPARTAMENTO" : "CAQUETA",
      "TIPO_AREA" : "Rural",
      "AÑO" : "2016",
      "MUNICIPIO" : "MONTAÑITA"
    },
    "geometry" : {
      "type" : "Point",
      "coordinates" : [ -75.035, 1.061944444 ]
    }
  }, {
    "type" : "Feature",
    "properties" : {
      "TIPO_EVENTO" : "4",
      "DEPARTAMENTO" : "META",
      "TIPO_AREA" : "Rural",
      "AÑO" : "2016",
      "MUNICIPIO" : "URIBE"
    },
    "geometry" : {
      "type" : "Point",
      "coordinates" : [ -74.26666667, 2.836944444 ]
    }
  }, {
    "type" : "Feature",
    "properties" : {
      "TIPO_EVENTO" : "4",
      "DEPARTAMENTO" : "META",
      "TIPO_AREA" : "Rural",
      "AÑO" : "2016",
      "MUNICIPIO" : "MESETAS"
    },
    "geometry" : {
      "type" : "Point",
      "coordinates" : [ -74.18166667, 2.865277778 ]
    }
  }, {
    "type" : "Feature",
    "properties" : {
      "TIPO_EVENTO" : "4",
      "DEPARTAMENTO" : "META",
      "TIPO_AREA" : "Rural",
      "AÑO" : "2016",
      "MUNICIPIO" : "LA MACARENA"
    },
    "geometry" : {
      "type" : "Point",
      "coordinates" : [ -74.04361111, 1.983055556 ]
    }
  }, {
    "type" : "Feature",
    "properties" : {
      "TIPO_EVENTO" : "4",
      "DEPARTAMENTO" : "CAQUETA",
      "TIPO_AREA" : "Rural",
      "AÑO" : "2016",
      "MUNICIPIO" : "CARTAGENA DEL CHAIRÁ"
    },
    "geometry" : {
      "type" : "Point",
      "coordinates" : [ -74.59555556, 0.8416666667 ]
    }
  }, {
    "type" : "Feature",
    "properties" : {
      "TIPO_EVENTO" : "4",
      "DEPARTAMENTO" : "CAQUETA",
      "TIPO_AREA" : "Rural",
      "AÑO" : "2016",
      "MUNICIPIO" : "SAN VICENTE DEL CAGUÁN"
    },
    "geometry" : {
      "type" : "Point",
      "coordinates" : [ -74.305, 1.776111111 ]
    }
  }, {
    "type" : "Feature",
    "properties" : {
      "TIPO_EVENTO" : "4",
      "DEPARTAMENTO" : "NORTE DE SANTANDER",
      "TIPO_AREA" : "Rural",
      "AÑO" : "2016",
      "MUNICIPIO" : "CONVENCIÓN"
    },
    "geometry" : {
      "type" : "Point",
      "coordinates" : [ -73.32583333, 8.593055556 ]
    }
  }, {
    "type" : "Feature",
    "properties" : {
      "TIPO_EVENTO" : "4",
      "DEPARTAMENTO" : "CAQUETA",
      "TIPO_AREA" : "Rural",
      "AÑO" : "2016",
      "MUNICIPIO" : "SOLANO"
    },
    "geometry" : {
      "type" : "Point",
      "coordinates" : [ -75.06694444, 1.013611111 ]
    }
  }, {
    "type" : "Feature",
    "properties" : {
      "TIPO_EVENTO" : "4",
      "DEPARTAMENTO" : "CAQUETA",
      "TIPO_AREA" : "Rural",
      "AÑO" : "2016",
      "MUNICIPIO" : "SAN VICENTE DEL CAGUÁN"
    },
    "geometry" : {
      "type" : "Point",
      "coordinates" : [ -74.78472222, 2.608055556 ]
    }
  }, {
    "type" : "Feature",
    "properties" : {
      "TIPO_EVENTO" : "4",
      "DEPARTAMENTO" : "CAQUETA",
      "TIPO_AREA" : "Rural",
      "AÑO" : "2016",
      "MUNICIPIO" : "SAN VICENTE DEL CAGUÁN"
    },
    "geometry" : {
      "type" : "Point",
      "coordinates" : [ -74.78388889, 2.611388889 ]
    }
  }, {
    "type" : "Feature",
    "properties" : {
      "TIPO_EVENTO" : "4",
      "DEPARTAMENTO" : "ARAUCA",
      "TIPO_AREA" : "Rural",
      "AÑO" : "2016",
      "MUNICIPIO" : "TAME"
    },
    "geometry" : {
      "type" : "Point",
      "coordinates" : [ -71.58805556, 6.617222222 ]
    }
  }, {
    "type" : "Feature",
    "properties" : {
      "TIPO_EVENTO" : "4",
      "DEPARTAMENTO" : "META",
      "TIPO_AREA" : "Rural",
      "AÑO" : "2016",
      "MUNICIPIO" : "URIBE"
    },
    "geometry" : {
      "type" : "Point",
      "coordinates" : [ -74.24222222, 3.055 ]
    }
  }, {
    "type" : "Feature",
    "properties" : {
      "TIPO_EVENTO" : "4",
      "DEPARTAMENTO" : "META",
      "TIPO_AREA" : "Rural",
      "AÑO" : "2016",
      "MUNICIPIO" : "MESETAS"
    },
    "geometry" : {
      "type" : "Point",
      "coordinates" : [ -74.23666667, 3.116666667 ]
    }
  }, {
    "type" : "Feature",
    "properties" : {
      "TIPO_EVENTO" : "4",
      "DEPARTAMENTO" : "META",
      "TIPO_AREA" : "Rural",
      "AÑO" : "2016",
      "MUNICIPIO" : "URIBE"
    },
    "geometry" : {
      "type" : "Point",
      "coordinates" : [ -74.2775, 3.035555556 ]
    }
  }, {
    "type" : "Feature",
    "properties" : {
      "TIPO_EVENTO" : "4",
      "DEPARTAMENTO" : "META",
      "TIPO_AREA" : "Rural",
      "AÑO" : "2016",
      "MUNICIPIO" : "URIBE"
    },
    "geometry" : {
      "type" : "Point",
      "coordinates" : [ -74.27055556, 2.873333333 ]
    }
  }, {
    "type" : "Feature",
    "properties" : {
      "TIPO_EVENTO" : "4",
      "DEPARTAMENTO" : "META",
      "TIPO_AREA" : "Rural",
      "AÑO" : "2016",
      "MUNICIPIO" : "MESETAS"
    },
    "geometry" : {
      "type" : "Point",
      "coordinates" : [ -74.23805556, 3.111388889 ]
    }
  }, {
    "type" : "Feature",
    "properties" : {
      "TIPO_EVENTO" : "4",
      "DEPARTAMENTO" : "META",
      "TIPO_AREA" : "Rural",
      "AÑO" : "2016",
      "MUNICIPIO" : "URIBE"
    },
    "geometry" : {
      "type" : "Point",
      "coordinates" : [ -74.20666667, 2.8625 ]
    }
  }, {
    "type" : "Feature",
    "properties" : {
      "TIPO_EVENTO" : "4",
      "DEPARTAMENTO" : "CAQUETA",
      "TIPO_AREA" : "Rural",
      "AÑO" : "2016",
      "MUNICIPIO" : "SOLANO"
    },
    "geometry" : {
      "type" : "Point",
      "coordinates" : [ -75.05194444, 1.005833333 ]
    }
  }, {
    "type" : "Feature",
    "properties" : {
      "TIPO_EVENTO" : "4",
      "DEPARTAMENTO" : "CAQUETA",
      "TIPO_AREA" : "Rural",
      "AÑO" : "2016",
      "MUNICIPIO" : "SAN VICENTE DEL CAGUÁN"
    },
    "geometry" : {
      "type" : "Point",
      "coordinates" : [ -74.78416667, 2.611944444 ]
    }
  }, {
    "type" : "Feature",
    "properties" : {
      "TIPO_EVENTO" : "4",
      "DEPARTAMENTO" : "META",
      "TIPO_AREA" : "Rural",
      "AÑO" : "2016",
      "MUNICIPIO" : "URIBE"
    },
    "geometry" : {
      "type" : "Point",
      "coordinates" : [ -74.20805556, 2.575 ]
    }
  }, {
    "type" : "Feature",
    "properties" : {
      "TIPO_EVENTO" : "4",
      "DEPARTAMENTO" : "META",
      "TIPO_AREA" : "Rural",
      "AÑO" : "2016",
      "MUNICIPIO" : "PUERTO RICO"
    },
    "geometry" : {
      "type" : "Point",
      "coordinates" : [ -72.99333333, 2.779722222 ]
    }
  }, {
    "type" : "Feature",
    "properties" : {
      "TIPO_EVENTO" : "4",
      "DEPARTAMENTO" : "CAUCA",
      "TIPO_AREA" : "Rural",
      "AÑO" : "2016",
      "MUNICIPIO" : "BALBOA"
    },
    "geometry" : {
      "type" : "Point",
      "coordinates" : [ -77.22416667, 2.068888889 ]
    }
  }, {
    "type" : "Feature",
    "properties" : {
      "TIPO_EVENTO" : "4",
      "DEPARTAMENTO" : "HUILA",
      "TIPO_AREA" : "Rural",
      "AÑO" : "2016",
      "MUNICIPIO" : "COLOMBIA"
    },
    "geometry" : {
      "type" : "Point",
      "coordinates" : [ -74.69138889, 3.415277778 ]
    }
  }, {
    "type" : "Feature",
    "properties" : {
      "TIPO_EVENTO" : "4",
      "DEPARTAMENTO" : "HUILA",
      "TIPO_AREA" : "Rural",
      "AÑO" : "2016",
      "MUNICIPIO" : "COLOMBIA"
    },
    "geometry" : {
      "type" : "Point",
      "coordinates" : [ -74.805, 3.376666667 ]
    }
  }, {
    "type" : "Feature",
    "properties" : {
      "TIPO_EVENTO" : "4",
      "DEPARTAMENTO" : "HUILA",
      "TIPO_AREA" : "Rural",
      "AÑO" : "2016",
      "MUNICIPIO" : "COLOMBIA"
    },
    "geometry" : {
      "type" : "Point",
      "coordinates" : [ -74.71805556, 3.276388889 ]
    }
  }, {
    "type" : "Feature",
    "properties" : {
      "TIPO_EVENTO" : "4",
      "DEPARTAMENTO" : "META",
      "TIPO_AREA" : "Rural",
      "AÑO" : "2016",
      "MUNICIPIO" : "URIBE"
    },
    "geometry" : {
      "type" : "Point",
      "coordinates" : [ -74.32916667, 3.206111111 ]
    }
  }, {
    "type" : "Feature",
    "properties" : {
      "TIPO_EVENTO" : "4",
      "DEPARTAMENTO" : "META",
      "TIPO_AREA" : "Rural",
      "AÑO" : "2016",
      "MUNICIPIO" : "MESETAS"
    },
    "geometry" : {
      "type" : "Point",
      "coordinates" : [ -74.21194444, 3.105555556 ]
    }
  }, {
    "type" : "Feature",
    "properties" : {
      "TIPO_EVENTO" : "4",
      "DEPARTAMENTO" : "META",
      "TIPO_AREA" : "Rural",
      "AÑO" : "2016",
      "MUNICIPIO" : "URIBE"
    },
    "geometry" : {
      "type" : "Point",
      "coordinates" : [ -74.32027778, 2.997777778 ]
    }
  }, {
    "type" : "Feature",
    "properties" : {
      "TIPO_EVENTO" : "4",
      "DEPARTAMENTO" : "META",
      "TIPO_AREA" : "Rural",
      "AÑO" : "2016",
      "MUNICIPIO" : "URIBE"
    },
    "geometry" : {
      "type" : "Point",
      "coordinates" : [ -74.41888889, 3.022222222 ]
    }
  }, {
    "type" : "Feature",
    "properties" : {
      "TIPO_EVENTO" : "4",
      "DEPARTAMENTO" : "CAQUETA",
      "TIPO_AREA" : "Rural",
      "AÑO" : "2016",
      "MUNICIPIO" : "CARTAGENA DEL CHAIRÁ"
    },
    "geometry" : {
      "type" : "Point",
      "coordinates" : [ -74.56333333, 0.9152777778 ]
    }
  }, {
    "type" : "Feature",
    "properties" : {
      "TIPO_EVENTO" : "4",
      "DEPARTAMENTO" : "META",
      "TIPO_AREA" : "Rural",
      "AÑO" : "2016",
      "MUNICIPIO" : "LA MACARENA"
    },
    "geometry" : {
      "type" : "Point",
      "coordinates" : [ -74.35805556, 2.05 ]
    }
  }, {
    "type" : "Feature",
    "properties" : {
      "TIPO_EVENTO" : "4",
      "DEPARTAMENTO" : "META",
      "TIPO_AREA" : "Rural",
      "AÑO" : "2016",
      "MUNICIPIO" : "PUERTO RICO"
    },
    "geometry" : {
      "type" : "Point",
      "coordinates" : [ -73.15194444, 2.664166667 ]
    }
  }, {
    "type" : "Feature",
    "properties" : {
      "TIPO_EVENTO" : "4",
      "DEPARTAMENTO" : "TOLIMA",
      "TIPO_AREA" : "Rural",
      "AÑO" : "2016",
      "MUNICIPIO" : "DOLORES"
    },
    "geometry" : {
      "type" : "Point",
      "coordinates" : [ -74.72, 3.701111111 ]
    }
  }, {
    "type" : "Feature",
    "properties" : {
      "TIPO_EVENTO" : "4",
      "DEPARTAMENTO" : "PUTUMAYO",
      "TIPO_AREA" : "Rural",
      "AÑO" : "2016",
      "MUNICIPIO" : "SAN MIGUEL"
    },
    "geometry" : {
      "type" : "Point",
      "coordinates" : [ -76.95083333, 0.3419444444 ]
    }
  }, {
    "type" : "Feature",
    "properties" : {
      "TIPO_EVENTO" : "4",
      "DEPARTAMENTO" : "ARAUCA",
      "TIPO_AREA" : "Rural",
      "AÑO" : "2016",
      "MUNICIPIO" : "ARAUQUITA"
    },
    "geometry" : {
      "type" : "Point",
      "coordinates" : [ -71.24388889, 6.642777778 ]
    }
  }, {
    "type" : "Feature",
    "properties" : {
      "TIPO_EVENTO" : "4",
      "DEPARTAMENTO" : "META",
      "TIPO_AREA" : "Rural",
      "AÑO" : "2016",
      "MUNICIPIO" : "MESETAS"
    },
    "geometry" : {
      "type" : "Point",
      "coordinates" : [ -74.11277778, 3.173333333 ]
    }
  }, {
    "type" : "Feature",
    "properties" : {
      "TIPO_EVENTO" : "4",
      "DEPARTAMENTO" : "META",
      "TIPO_AREA" : "Rural",
      "AÑO" : "2016",
      "MUNICIPIO" : "MESETAS"
    },
    "geometry" : {
      "type" : "Point",
      "coordinates" : [ -74.22472222, 3.118333333 ]
    }
  }, {
    "type" : "Feature",
    "properties" : {
      "TIPO_EVENTO" : "4",
      "DEPARTAMENTO" : "VALLE DEL CAUCA",
      "TIPO_AREA" : "Rural",
      "AÑO" : "2016",
      "MUNICIPIO" : "PRADERA"
    },
    "geometry" : {
      "type" : "Point",
      "coordinates" : [ -76.17722222, 3.421666667 ]
    }
  }, {
    "type" : "Feature",
    "properties" : {
      "TIPO_EVENTO" : "4",
      "DEPARTAMENTO" : "META",
      "TIPO_AREA" : "Rural",
      "AÑO" : "2016",
      "MUNICIPIO" : "SAN MARTÍN"
    },
    "geometry" : {
      "type" : "Point",
      "coordinates" : [ -73.73333333, 3.738055556 ]
    }
  }, {
    "type" : "Feature",
    "properties" : {
      "TIPO_EVENTO" : "4",
      "DEPARTAMENTO" : "META",
      "TIPO_AREA" : "Rural",
      "AÑO" : "2016",
      "MUNICIPIO" : "URIBE"
    },
    "geometry" : {
      "type" : "Point",
      "coordinates" : [ -74.38333333, 3.043888889 ]
    }
  }, {
    "type" : "Feature",
    "properties" : {
      "TIPO_EVENTO" : "4",
      "DEPARTAMENTO" : "META",
      "TIPO_AREA" : "Rural",
      "AÑO" : "2016",
      "MUNICIPIO" : "URIBE"
    },
    "geometry" : {
      "type" : "Point",
      "coordinates" : [ -74.24416667, 2.554722222 ]
    }
  }, {
    "type" : "Feature",
    "properties" : {
      "TIPO_EVENTO" : "4",
      "DEPARTAMENTO" : "META",
      "TIPO_AREA" : "Rural",
      "AÑO" : "2016",
      "MUNICIPIO" : "URIBE"
    },
    "geometry" : {
      "type" : "Point",
      "coordinates" : [ -74.26305556, 2.925277778 ]
    }
  }, {
    "type" : "Feature",
    "properties" : {
      "TIPO_EVENTO" : "4",
      "DEPARTAMENTO" : "PUTUMAYO",
      "TIPO_AREA" : "Rural",
      "AÑO" : "2016",
      "MUNICIPIO" : "PUERTO ASÍS"
    },
    "geometry" : {
      "type" : "Point",
      "coordinates" : [ -76.57333333, 0.2475 ]
    }
  }, {
    "type" : "Feature",
    "properties" : {
      "TIPO_EVENTO" : "4",
      "DEPARTAMENTO" : "ARAUCA",
      "TIPO_AREA" : "Rural",
      "AÑO" : "2016",
      "MUNICIPIO" : "TAME"
    },
    "geometry" : {
      "type" : "Point",
      "coordinates" : [ -71.84083333, 6.500277778 ]
    }
  }, {
    "type" : "Feature",
    "properties" : {
      "TIPO_EVENTO" : "4",
      "DEPARTAMENTO" : "META",
      "TIPO_AREA" : "Rural",
      "AÑO" : "2016",
      "MUNICIPIO" : "URIBE"
    },
    "geometry" : {
      "type" : "Point",
      "coordinates" : [ -74.23583333, 2.564444444 ]
    }
  }, {
    "type" : "Feature",
    "properties" : {
      "TIPO_EVENTO" : "4",
      "DEPARTAMENTO" : "META",
      "TIPO_AREA" : "Rural",
      "AÑO" : "2016",
      "MUNICIPIO" : "PUERTO RICO"
    },
    "geometry" : {
      "type" : "Point",
      "coordinates" : [ -73.4225, 2.726666667 ]
    }
  }, {
    "type" : "Feature",
    "properties" : {
      "TIPO_EVENTO" : "4",
      "DEPARTAMENTO" : "ANTIOQUIA",
      "TIPO_AREA" : "Rural",
      "AÑO" : "2016",
      "MUNICIPIO" : "CÁCERES"
    },
    "geometry" : {
      "type" : "Point",
      "coordinates" : [ -75.065, 7.475 ]
    }
  }, {
    "type" : "Feature",
    "properties" : {
      "TIPO_EVENTO" : "4",
      "DEPARTAMENTO" : "NORTE DE SANTANDER",
      "TIPO_AREA" : "Rural",
      "AÑO" : "2016",
      "MUNICIPIO" : "CONVENCIÓN"
    },
    "geometry" : {
      "type" : "Point",
      "coordinates" : [ -73.33277778, 8.590277778 ]
    }
  }, {
    "type" : "Feature",
    "properties" : {
      "TIPO_EVENTO" : "4",
      "DEPARTAMENTO" : "NARIÑO",
      "TIPO_AREA" : "Rural",
      "AÑO" : "2016",
      "MUNICIPIO" : "TUMACO"
    },
    "geometry" : {
      "type" : "Point",
      "coordinates" : [ -78.61416667, 1.4 ]
    }
  }, {
    "type" : "Feature",
    "properties" : {
      "TIPO_EVENTO" : "4",
      "DEPARTAMENTO" : "PUTUMAYO",
      "TIPO_AREA" : "Rural",
      "AÑO" : "2016",
      "MUNICIPIO" : "VALLE DEL GUAMUEZ"
    },
    "geometry" : {
      "type" : "Point",
      "coordinates" : [ -76.69555556, 0.3991666667 ]
    }
  }, {
    "type" : "Feature",
    "properties" : {
      "TIPO_EVENTO" : "4",
      "DEPARTAMENTO" : "CAQUETA",
      "TIPO_AREA" : "Rural",
      "AÑO" : "2016",
      "MUNICIPIO" : "SAN VICENTE DEL CAGUÁN"
    },
    "geometry" : {
      "type" : "Point",
      "coordinates" : [ -74.81333333, 2.656944444 ]
    }
  }, {
    "type" : "Feature",
    "properties" : {
      "TIPO_EVENTO" : "4",
      "DEPARTAMENTO" : "ARAUCA",
      "TIPO_AREA" : "Rural",
      "AÑO" : "2016",
      "MUNICIPIO" : "PUERTO RONDÓN"
    },
    "geometry" : {
      "type" : "Point",
      "coordinates" : [ -70.87027778, 6.599166667 ]
    }
  }, {
    "type" : "Feature",
    "properties" : {
      "TIPO_EVENTO" : "4",
      "DEPARTAMENTO" : "NORTE DE SANTANDER",
      "TIPO_AREA" : "Rural",
      "AÑO" : "2016",
      "MUNICIPIO" : "TIBÚ"
    },
    "geometry" : {
      "type" : "Point",
      "coordinates" : [ -72.88944444, 8.61 ]
    }
  }, {
    "type" : "Feature",
    "properties" : {
      "TIPO_EVENTO" : "4",
      "DEPARTAMENTO" : "TOLIMA",
      "TIPO_AREA" : "Rural",
      "AÑO" : "2016",
      "MUNICIPIO" : "CHAPARRAL"
    },
    "geometry" : {
      "type" : "Point",
      "coordinates" : [ -75.67222222, 3.672222222 ]
    }
  }, {
    "type" : "Feature",
    "properties" : {
      "TIPO_EVENTO" : "4",
      "DEPARTAMENTO" : "PUTUMAYO",
      "TIPO_AREA" : "Rural",
      "AÑO" : "2016",
      "MUNICIPIO" : "PUERTO GUZMÁN"
    },
    "geometry" : {
      "type" : "Point",
      "coordinates" : [ -76.22277778, 0.9769444444 ]
    }
  }, {
    "type" : "Feature",
    "properties" : {
      "TIPO_EVENTO" : "4",
      "DEPARTAMENTO" : "CAUCA",
      "TIPO_AREA" : "Rural",
      "AÑO" : "2016",
      "MUNICIPIO" : "PIAMONTE"
    },
    "geometry" : {
      "type" : "Point",
      "coordinates" : [ -76.41944444, 1.020833333 ]
    }
  }, {
    "type" : "Feature",
    "properties" : {
      "TIPO_EVENTO" : "4",
      "DEPARTAMENTO" : "CAQUETA",
      "TIPO_AREA" : "Rural",
      "AÑO" : "2016",
      "MUNICIPIO" : "EL PAUJIL"
    },
    "geometry" : {
      "type" : "Point",
      "coordinates" : [ -75.11444444, 1.346944444 ]
    }
  }, {
    "type" : "Feature",
    "properties" : {
      "TIPO_EVENTO" : "4",
      "DEPARTAMENTO" : "CHOCO",
      "TIPO_AREA" : "Rural",
      "AÑO" : "2016",
      "MUNICIPIO" : "SAN JOSÉ DEL PALMAR"
    },
    "geometry" : {
      "type" : "Point",
      "coordinates" : [ -76.29333333, 4.911111111 ]
    }
  }, {
    "type" : "Feature",
    "properties" : {
      "TIPO_EVENTO" : "4",
      "DEPARTAMENTO" : "ANTIOQUIA",
      "TIPO_AREA" : "Rural",
      "AÑO" : "2016",
      "MUNICIPIO" : "APARTADÓ"
    },
    "geometry" : {
      "type" : "Point",
      "coordinates" : [ -76.525, 7.938888889 ]
    }
  }, {
    "type" : "Feature",
    "properties" : {
      "TIPO_EVENTO" : "4",
      "DEPARTAMENTO" : "ANTIOQUIA",
      "TIPO_AREA" : "Rural",
      "AÑO" : "2016",
      "MUNICIPIO" : "CÁCERES"
    },
    "geometry" : {
      "type" : "Point",
      "coordinates" : [ -75.08555556, 7.520277778 ]
    }
  }, {
    "type" : "Feature",
    "properties" : {
      "TIPO_EVENTO" : "4",
      "DEPARTAMENTO" : "ANTIOQUIA",
      "TIPO_AREA" : "Rural",
      "AÑO" : "2016",
      "MUNICIPIO" : "CÁCERES"
    },
    "geometry" : {
      "type" : "Point",
      "coordinates" : [ -75.11416667, 7.419166667 ]
    }
  }, {
    "type" : "Feature",
    "properties" : {
      "TIPO_EVENTO" : "4",
      "DEPARTAMENTO" : "ARAUCA",
      "TIPO_AREA" : "Rural",
      "AÑO" : "2016",
      "MUNICIPIO" : "SARAVENA"
    },
    "geometry" : {
      "type" : "Point",
      "coordinates" : [ -71.77972222, 6.8525 ]
    }
  }, {
    "type" : "Feature",
    "properties" : {
      "TIPO_EVENTO" : "4",
      "DEPARTAMENTO" : "META",
      "TIPO_AREA" : "Rural",
      "AÑO" : "2016",
      "MUNICIPIO" : "URIBE"
    },
    "geometry" : {
      "type" : "Point",
      "coordinates" : [ -74.2725, 2.916388889 ]
    }
  }, {
    "type" : "Feature",
    "properties" : {
      "TIPO_EVENTO" : "4",
      "DEPARTAMENTO" : "META",
      "TIPO_AREA" : "Rural",
      "AÑO" : "2016",
      "MUNICIPIO" : "URIBE"
    },
    "geometry" : {
      "type" : "Point",
      "coordinates" : [ -74.27361111, 2.881944444 ]
    }
  }, {
    "type" : "Feature",
    "properties" : {
      "TIPO_EVENTO" : "4",
      "DEPARTAMENTO" : "META",
      "TIPO_AREA" : "Rural",
      "AÑO" : "2016",
      "MUNICIPIO" : "MESETAS"
    },
    "geometry" : {
      "type" : "Point",
      "coordinates" : [ -74.20527778, 3.182222222 ]
    }
  }, {
    "type" : "Feature",
    "properties" : {
      "TIPO_EVENTO" : "4",
      "DEPARTAMENTO" : "META",
      "TIPO_AREA" : "Rural",
      "AÑO" : "2016",
      "MUNICIPIO" : "PUERTO RICO"
    },
    "geometry" : {
      "type" : "Point",
      "coordinates" : [ -73.20027778, 2.697777778 ]
    }
  }, {
    "type" : "Feature",
    "properties" : {
      "TIPO_EVENTO" : "4",
      "DEPARTAMENTO" : "NORTE DE SANTANDER",
      "TIPO_AREA" : "Rural",
      "AÑO" : "2016",
      "MUNICIPIO" : "HACARÍ"
    },
    "geometry" : {
      "type" : "Point",
      "coordinates" : [ -72.99222222, 8.406388889 ]
    }
  }, {
    "type" : "Feature",
    "properties" : {
      "TIPO_EVENTO" : "4",
      "DEPARTAMENTO" : "VALLE DEL CAUCA",
      "TIPO_AREA" : "Rural",
      "AÑO" : "2016",
      "MUNICIPIO" : "SAN PEDRO"
    },
    "geometry" : {
      "type" : "Point",
      "coordinates" : [ -76.20333333, 3.992222222 ]
    }
  }, {
    "type" : "Feature",
    "properties" : {
      "TIPO_EVENTO" : "4",
      "DEPARTAMENTO" : "META",
      "TIPO_AREA" : "Rural",
      "AÑO" : "2016",
      "MUNICIPIO" : "MAPIRIPÁN"
    },
    "geometry" : {
      "type" : "Point",
      "coordinates" : [ -72.12027778, 3.289166667 ]
    }
  }, {
    "type" : "Feature",
    "properties" : {
      "TIPO_EVENTO" : "4",
      "DEPARTAMENTO" : "ANTIOQUIA",
      "TIPO_AREA" : "Rural",
      "AÑO" : "2016",
      "MUNICIPIO" : "ANORÍ"
    },
    "geometry" : {
      "type" : "Point",
      "coordinates" : [ -75.10583333, 7.201666667 ]
    }
  }, {
    "type" : "Feature",
    "properties" : {
      "TIPO_EVENTO" : "4",
      "DEPARTAMENTO" : "META",
      "TIPO_AREA" : "Rural",
      "AÑO" : "2016",
      "MUNICIPIO" : "URIBE"
    },
    "geometry" : {
      "type" : "Point",
      "coordinates" : [ -74.24861111, 2.965277778 ]
    }
  }, {
    "type" : "Feature",
    "properties" : {
      "TIPO_EVENTO" : "4",
      "DEPARTAMENTO" : "META",
      "TIPO_AREA" : "Rural",
      "AÑO" : "2016",
      "MUNICIPIO" : "LA MACARENA"
    },
    "geometry" : {
      "type" : "Point",
      "coordinates" : [ -73.76305556, 2.173611111 ]
    }
  }, {
    "type" : "Feature",
    "properties" : {
      "TIPO_EVENTO" : "4",
      "DEPARTAMENTO" : "META",
      "TIPO_AREA" : "Rural",
      "AÑO" : "2016",
      "MUNICIPIO" : "URIBE"
    },
    "geometry" : {
      "type" : "Point",
      "coordinates" : [ -74.18305556, 2.828611111 ]
    }
  }, {
    "type" : "Feature",
    "properties" : {
      "TIPO_EVENTO" : "4",
      "DEPARTAMENTO" : "META",
      "TIPO_AREA" : "Rural",
      "AÑO" : "2016",
      "MUNICIPIO" : "URIBE"
    },
    "geometry" : {
      "type" : "Point",
      "coordinates" : [ -74.2675, 2.953055556 ]
    }
  }, {
    "type" : "Feature",
    "properties" : {
      "TIPO_EVENTO" : "4",
      "DEPARTAMENTO" : "HUILA",
      "TIPO_AREA" : "Rural",
      "AÑO" : "2016",
      "MUNICIPIO" : "ALGECIRAS"
    },
    "geometry" : {
      "type" : "Point",
      "coordinates" : [ -75.33333333, 2.515 ]
    }
  }, {
    "type" : "Feature",
    "properties" : {
      "TIPO_EVENTO" : "4",
      "DEPARTAMENTO" : "BOGOTA DC",
      "TIPO_AREA" : "Rural",
      "AÑO" : "2016",
      "MUNICIPIO" : "Bogotá DC"
    },
    "geometry" : {
      "type" : "Point",
      "coordinates" : [ -74.28833333, 4.0725 ]
    }
  }, {
    "type" : "Feature",
    "properties" : {
      "TIPO_EVENTO" : "4",
      "DEPARTAMENTO" : "PUTUMAYO",
      "TIPO_AREA" : "Rural",
      "AÑO" : "2016",
      "MUNICIPIO" : "PUERTO ASÍS"
    },
    "geometry" : {
      "type" : "Point",
      "coordinates" : [ -76.61111111, 0.4086111111 ]
    }
  }, {
    "type" : "Feature",
    "properties" : {
      "TIPO_EVENTO" : "4",
      "DEPARTAMENTO" : "CHOCO",
      "TIPO_AREA" : "Rural",
      "AÑO" : "2016",
      "MUNICIPIO" : "NÓVITA"
    },
    "geometry" : {
      "type" : "Point",
      "coordinates" : [ -76.60861111, 4.780833333 ]
    }
  }, {
    "type" : "Feature",
    "properties" : {
      "TIPO_EVENTO" : "4",
      "DEPARTAMENTO" : "ANTIOQUIA",
      "TIPO_AREA" : "Rural",
      "AÑO" : "2016",
      "MUNICIPIO" : "ANORÍ"
    },
    "geometry" : {
      "type" : "Point",
      "coordinates" : [ -75.09388889, 7.221666667 ]
    }
  }, {
    "type" : "Feature",
    "properties" : {
      "TIPO_EVENTO" : "4",
      "DEPARTAMENTO" : "BOYACA",
      "TIPO_AREA" : "Rural",
      "AÑO" : "2016",
      "MUNICIPIO" : "CUBARÁ"
    },
    "geometry" : {
      "type" : "Point",
      "coordinates" : [ -72.16583333, 7.043611111 ]
    }
  }, {
    "type" : "Feature",
    "properties" : {
      "TIPO_EVENTO" : "4",
      "DEPARTAMENTO" : "META",
      "TIPO_AREA" : "Rural",
      "AÑO" : "2016",
      "MUNICIPIO" : "URIBE"
    },
    "geometry" : {
      "type" : "Point",
      "coordinates" : [ -74.20277778, 2.890833333 ]
    }
  }, {
    "type" : "Feature",
    "properties" : {
      "TIPO_EVENTO" : "4",
      "DEPARTAMENTO" : "META",
      "TIPO_AREA" : "Rural",
      "AÑO" : "2016",
      "MUNICIPIO" : "URIBE"
    },
    "geometry" : {
      "type" : "Point",
      "coordinates" : [ -74.17416667, 2.839444444 ]
    }
  }, {
    "type" : "Feature",
    "properties" : {
      "TIPO_EVENTO" : "4",
      "DEPARTAMENTO" : "SANTANDER",
      "TIPO_AREA" : "Rural",
      "AÑO" : "2016",
      "MUNICIPIO" : "SANTA HELENA DEL OPÓN"
    },
    "geometry" : {
      "type" : "Point",
      "coordinates" : [ -73.57861111, 6.511944444 ]
    }
  }, {
    "type" : "Feature",
    "properties" : {
      "TIPO_EVENTO" : "4",
      "DEPARTAMENTO" : "ARAUCA",
      "TIPO_AREA" : "Rural",
      "AÑO" : "2016",
      "MUNICIPIO" : "ARAUQUITA"
    },
    "geometry" : {
      "type" : "Point",
      "coordinates" : [ -71.32166667, 6.579166667 ]
    }
  }, {
    "type" : "Feature",
    "properties" : {
      "TIPO_EVENTO" : "4",
      "DEPARTAMENTO" : "ARAUCA",
      "TIPO_AREA" : "Rural",
      "AÑO" : "2016",
      "MUNICIPIO" : "TAME"
    },
    "geometry" : {
      "type" : "Point",
      "coordinates" : [ -71.45333333, 6.597222222 ]
    }
  }, {
    "type" : "Feature",
    "properties" : {
      "TIPO_EVENTO" : "4",
      "DEPARTAMENTO" : "META",
      "TIPO_AREA" : "Rural",
      "AÑO" : "2016",
      "MUNICIPIO" : "MESETAS"
    },
    "geometry" : {
      "type" : "Point",
      "coordinates" : [ -74.18611111, 3.103888889 ]
    }
  }, {
    "type" : "Feature",
    "properties" : {
      "TIPO_EVENTO" : "4",
      "DEPARTAMENTO" : "META",
      "TIPO_AREA" : "Rural",
      "AÑO" : "2016",
      "MUNICIPIO" : "URIBE"
    },
    "geometry" : {
      "type" : "Point",
      "coordinates" : [ -74.44388889, 3.207222222 ]
    }
  }, {
    "type" : "Feature",
    "properties" : {
      "TIPO_EVENTO" : "4",
      "DEPARTAMENTO" : "NARIÑO",
      "TIPO_AREA" : "Rural",
      "AÑO" : "2016",
      "MUNICIPIO" : "BARBACOAS"
    },
    "geometry" : {
      "type" : "Point",
      "coordinates" : [ -78.05805556, 1.495277778 ]
    }
  }, {
    "type" : "Feature",
    "properties" : {
      "TIPO_EVENTO" : "4",
      "DEPARTAMENTO" : "PUTUMAYO",
      "TIPO_AREA" : "Rural",
      "AÑO" : "2016",
      "MUNICIPIO" : "PUERTO GUZMÁN"
    },
    "geometry" : {
      "type" : "Point",
      "coordinates" : [ -76.22166667, 0.9652777778 ]
    }
  }, {
    "type" : "Feature",
    "properties" : {
      "TIPO_EVENTO" : "4",
      "DEPARTAMENTO" : "ANTIOQUIA",
      "TIPO_AREA" : "Rural",
      "AÑO" : "2016",
      "MUNICIPIO" : "ITUANGO"
    },
    "geometry" : {
      "type" : "Point",
      "coordinates" : [ -75.72444444, 7.288888889 ]
    }
  }, {
    "type" : "Feature",
    "properties" : {
      "TIPO_EVENTO" : "4",
      "DEPARTAMENTO" : "ARAUCA",
      "TIPO_AREA" : "Rural",
      "AÑO" : "2016",
      "MUNICIPIO" : "TAME"
    },
    "geometry" : {
      "type" : "Point",
      "coordinates" : [ -71.58333333, 6.629166667 ]
    }
  }, {
    "type" : "Feature",
    "properties" : {
      "TIPO_EVENTO" : "4",
      "DEPARTAMENTO" : "META",
      "TIPO_AREA" : "Rural",
      "AÑO" : "2016",
      "MUNICIPIO" : "URIBE"
    },
    "geometry" : {
      "type" : "Point",
      "coordinates" : [ -74.15222222, 2.816666667 ]
    }
  }, {
    "type" : "Feature",
    "properties" : {
      "TIPO_EVENTO" : "4",
      "DEPARTAMENTO" : "META",
      "TIPO_AREA" : "Rural",
      "AÑO" : "2016",
      "MUNICIPIO" : "MESETAS"
    },
    "geometry" : {
      "type" : "Point",
      "coordinates" : [ -74.17944444, 3.025 ]
    }
  }, {
    "type" : "Feature",
    "properties" : {
      "TIPO_EVENTO" : "4",
      "DEPARTAMENTO" : "ANTIOQUIA",
      "TIPO_AREA" : "Rural",
      "AÑO" : "2016",
      "MUNICIPIO" : "CÁCERES"
    },
    "geometry" : {
      "type" : "Point",
      "coordinates" : [ -75.12138889, 7.395 ]
    }
  }, {
    "type" : "Feature",
    "properties" : {
      "TIPO_EVENTO" : "4",
      "DEPARTAMENTO" : "META",
      "TIPO_AREA" : "Rural",
      "AÑO" : "2016",
      "MUNICIPIO" : "URIBE"
    },
    "geometry" : {
      "type" : "Point",
      "coordinates" : [ -74.29861111, 2.913055556 ]
    }
  }, {
    "type" : "Feature",
    "properties" : {
      "TIPO_EVENTO" : "4",
      "DEPARTAMENTO" : "CAUCA",
      "TIPO_AREA" : "Rural",
      "AÑO" : "2016",
      "MUNICIPIO" : "CALDONO"
    },
    "geometry" : {
      "type" : "Point",
      "coordinates" : [ -76.38888889, 2.888611111 ]
    }
  }, {
    "type" : "Feature",
    "properties" : {
      "TIPO_EVENTO" : "4",
      "DEPARTAMENTO" : "META",
      "TIPO_AREA" : "Rural",
      "AÑO" : "2016",
      "MUNICIPIO" : "VISTAHERMOSA"
    },
    "geometry" : {
      "type" : "Point",
      "coordinates" : [ -73.47694444, 3.042222222 ]
    }
  }, {
    "type" : "Feature",
    "properties" : {
      "TIPO_EVENTO" : "4",
      "DEPARTAMENTO" : "PUTUMAYO",
      "TIPO_AREA" : "Rural",
      "AÑO" : "2016",
      "MUNICIPIO" : "VALLE DEL GUAMUEZ"
    },
    "geometry" : {
      "type" : "Point",
      "coordinates" : [ -76.68611111, 0.3969444444 ]
    }
  }, {
    "type" : "Feature",
    "properties" : {
      "TIPO_EVENTO" : "4",
      "DEPARTAMENTO" : "TOLIMA",
      "TIPO_AREA" : "Rural",
      "AÑO" : "2016",
      "MUNICIPIO" : "CHAPARRAL"
    },
    "geometry" : {
      "type" : "Point",
      "coordinates" : [ -75.70472222, 3.928333333 ]
    }
  }, {
    "type" : "Feature",
    "properties" : {
      "TIPO_EVENTO" : "4",
      "DEPARTAMENTO" : "PUTUMAYO",
      "TIPO_AREA" : "Rural",
      "AÑO" : "2016",
      "MUNICIPIO" : "PUERTO ASÍS"
    },
    "geometry" : {
      "type" : "Point",
      "coordinates" : [ -76.26944444, 0.4361111111 ]
    }
  }, {
    "type" : "Feature",
    "properties" : {
      "TIPO_EVENTO" : "4",
      "DEPARTAMENTO" : "PUTUMAYO",
      "TIPO_AREA" : "Rural",
      "AÑO" : "2016",
      "MUNICIPIO" : "VALLE DEL GUAMUEZ"
    },
    "geometry" : {
      "type" : "Point",
      "coordinates" : [ -76.90416667, 0.425 ]
    }
  }, {
    "type" : "Feature",
    "properties" : {
      "TIPO_EVENTO" : "4",
      "DEPARTAMENTO" : "ANTIOQUIA",
      "TIPO_AREA" : "Rural",
      "AÑO" : "2016",
      "MUNICIPIO" : "BRICEÑO"
    },
    "geometry" : {
      "type" : "Point",
      "coordinates" : [ -75.64138889, 7.066388889 ]
    }
  }, {
    "type" : "Feature",
    "properties" : {
      "TIPO_EVENTO" : "4",
      "DEPARTAMENTO" : "META",
      "TIPO_AREA" : "Rural",
      "AÑO" : "2016",
      "MUNICIPIO" : "MESETAS"
    },
    "geometry" : {
      "type" : "Point",
      "coordinates" : [ -74.22777778, 3.111111111 ]
    }
  }, {
    "type" : "Feature",
    "properties" : {
      "TIPO_EVENTO" : "4",
      "DEPARTAMENTO" : "META",
      "TIPO_AREA" : "Rural",
      "AÑO" : "2016",
      "MUNICIPIO" : "MESETAS"
    },
    "geometry" : {
      "type" : "Point",
      "coordinates" : [ -74.16138889, 2.993333333 ]
    }
  }, {
    "type" : "Feature",
    "properties" : {
      "TIPO_EVENTO" : "4",
      "DEPARTAMENTO" : "META",
      "TIPO_AREA" : "Rural",
      "AÑO" : "2016",
      "MUNICIPIO" : "URIBE"
    },
    "geometry" : {
      "type" : "Point",
      "coordinates" : [ -74.40777778, 3.037777778 ]
    }
  }, {
    "type" : "Feature",
    "properties" : {
      "TIPO_EVENTO" : "4",
      "DEPARTAMENTO" : "META",
      "TIPO_AREA" : "Rural",
      "AÑO" : "2016",
      "MUNICIPIO" : "URIBE"
    },
    "geometry" : {
      "type" : "Point",
      "coordinates" : [ -74.31861111, 2.912777778 ]
    }
  }, {
    "type" : "Feature",
    "properties" : {
      "TIPO_EVENTO" : "4",
      "DEPARTAMENTO" : "META",
      "TIPO_AREA" : "Rural",
      "AÑO" : "2016",
      "MUNICIPIO" : "URIBE"
    },
    "geometry" : {
      "type" : "Point",
      "coordinates" : [ -74.19055556, 2.875 ]
    }
  },